     3.03           OBSERVATION DATA    M (MIXED)           RINEX VERSION / TYPE
BJPP                CNES                20241031 143236 UTC PGM / RUN BY / DATE 
MARKER                                                      MARKER NAME         
SPACECRAFT                                                  MARKER TYPE         
OBSERVER            CNES                                    OBSERVER / AGENCY   
RECNUM              BLACKJACK           RECVERS             REC # / TYPE / VERS 
ANTNUM              BLACKJACK                               ANT # / TYPE        
        0.0000        0.0000        0.0000                  ANTENNA: DELTA H/E/N
G   12 C1C C1W C2W C2X L1C L1W L2X L2W S1C S1W S2W S2X      SYS / # / OBS TYPES 
DBHZ                                                        SIGNAL STRENGTH UNIT
This rinex produced from the following file(s):             COMMENT             
/tmp/mesos_work/slaves/d197f515-9ebc-49f2-8adc-fe7a9d3e6458-COMMENT             
S7/frameworks/8c1b9f46-52ed-4aff-9edf-38d17bf6761e-3211/execCOMMENT             
utors/toil-81240/runs/089cc9f7-14d2-4652-8954-195bbc8b92b6/2COMMENT             
db3543ada83507baf154b9f8354fade/9b9f/347a/tmptyybcqvs1vxy0upCOMMENT             
2/stg17e1d1d4-c725-47f7-be1a-f69c347c1095/SWOT_KRX_20241031TCOMMENT             
135025_20241031T104519_20241031T122340_O_APID1280.PTM_0     COMMENT             
  2024    10    31    10    44   50.0000000                 TIME OF FIRST OBS   
G L1C                                                       SYS / PHASE SHIFT   
G L1W -0.25000                                              SYS / PHASE SHIFT   
G L2W                                                       SYS / PHASE SHIFT   
G L2X  0.25000                                              SYS / PHASE SHIFT   
                                                            END OF HEADER       
> 2024 10 31 10 44 50.0000000  0  1
G16  23255982.992    23255980.934    23255982.647                    -7175206.887 8  -7175206.882 6                  -5591076.274 6       131.000          21.000          46.000                  
> 2024 10 31 10 45  0.0000000  0  8
G04  19919839.159    19919838.600    19919840.871                   -19008344.134 8 -19008344.124 8                 -14811698.467 8       499.000         366.000         424.000                  
G07  21685403.384    21685402.826    21685403.354                   -19165188.389 8 -19165188.390 8                 -14933915.538 8       460.000         486.000         409.000                  
G08  19377789.241    19377788.510    19377792.311                   -21563547.901 9 -21563547.905 9                 -16802766.846 9       791.000        1493.000        2061.000                  
G09  19443817.562    19443817.459    19443820.462                   -26762664.506 9 -26762664.509 9                 -20854026.340 9       733.000        1578.000        2347.000                  
G14  24756931.860    24756928.364    24756932.112                     -456060.435 7   -456060.451 6                   -355372.452 6        80.000          24.000          21.000                  
G16  23300347.889    23300346.215    23300347.769                    -6942066.477 8  -6942066.459 6                  -5409408.529 6       127.000          23.000          43.000                  
G27  20768943.560    20768943.234    20768946.366                   -19222347.240 8 -19222347.243 8                 -14978450.693 9       411.000         461.000         965.000                  
G30  24196907.095    24196906.842    24196910.865                    -4338516.110 8  -4338516.108 6                  -3380666.753 8       133.000          47.000         202.000                  
> 2024 10 31 10 45 10.0000000  0  8
G04  19885610.008    19885609.760    19885612.108                   -19188217.903 9 -19188217.895 8                 -14951859.886 8       508.000         382.000         435.000                  
G07  21730672.135    21730671.847    21730672.248                   -18927298.582 8 -18927298.583 8                 -14748546.937 8       453.000         462.000         404.000                  
G08  19361088.232    19361087.596    19361091.397                   -21651311.936 9 -21651311.941 9                 -16871154.447 9       790.000        1491.000        2045.000                  
G09  19444014.583    19444014.141    19444017.091                   -26761631.505 9 -26761631.506 9                 -20853221.461 9       730.000        1578.000        2407.000                  
G14  24737336.582    24737334.342    24737338.997                     -559032.848 7   -559032.852 6                   -435610.731 6        77.000          21.000          24.000                  
G16  23345089.882    23345087.480    23345089.044                    -6706948.869 8  -6706948.863 6                  -5226200.143 6       121.000          26.000          38.000                  
G27  20792773.750    20792773.193    20792776.392                   -19097120.225 8 -19097120.227 8                 -14880871.273 9       400.000         441.000         954.000                  
G30  24241360.212    24241359.611    24241363.655                    -4104916.408 8  -4104916.419 6                  -3198641.161 8       135.000          48.000         205.000                  
> 2024 10 31 10 45 20.0000000  0  9
G04  19852011.921    19852011.547    19852013.962                   -19364777.912 9 -19364777.904 8                 -15089439.153 8       525.000         403.000         445.000                  
G07  21776509.403    21776509.110    21776509.564                   -18686422.789 8 -18686422.791 8                 -14560851.599 8       435.000         441.000         394.000                  
G08  19345579.520    19345579.023    19345582.858                   -21732810.178 9 -21732810.182 9                 -16934659.613 9       788.000        1476.000        2010.000                  
G09  19444938.441    19444937.949    19444940.997                   -26756777.013 9 -26756777.015 9                 -20849438.800 9       732.000        1564.000        2495.000                  
G14  24718121.641    24718119.637    24718122.547                     -660007.467 7   -660007.477 6                   -514292.534 6        77.000          18.000          17.000                  
G16  23390202.040    23390200.754    23390201.877                    -6469880.676 8  -6469880.695 6                  -5041471.846 6       121.000          21.000          37.000                  
G21  23818654.680    23818685.360    23818713.604                     -635173.001 7   -635173.019 6                   -494944.893 6        63.000          17.000          16.000                  
G27  20817566.563    20817565.887    20817569.071                   -18966834.031 8 -18966834.033 8                 -14779349.638 9       392.000         429.000         914.000                  
G30  24286123.034    24286122.014    24286125.948                    -3869690.144 8  -3869690.128 6                  -3015348.127 8       129.000          41.000         198.000                  
> 2024 10 31 10 45 30.0000000  0  9
G04  19819046.859    19819046.661    19819048.792                   -19538010.563 9 -19538010.552 8                 -15224425.678 8       537.000         415.000         421.000                  
G07  21822904.330    21822903.742    21822904.543                   -18442617.151 8 -18442617.151 8                 -14370873.271 8       417.000         393.000         402.000                  
G08  19331264.398    19331263.874    19331267.703                   -21808036.929 9 -21808036.933 9                 -16993277.914 9       782.000        1456.000        1930.000                  
G09  19446586.127    19446585.707    19446588.908                   -26748117.847 9 -26748117.850 9                 -20842691.467 9       729.000        1582.000        2549.000                  
G14  24699288.994    24699287.089    24699291.632                     -758975.396 7   -758975.392 6                   -591410.593 6        74.000          20.000          19.000                  
G16  23435673.959    23435672.394    23435673.250                    -6230926.396 8  -6230926.395 6                  -4855273.866 6       119.000          27.000          29.000                  
G21  23747081.618    23747109.750    23747126.717                    -1011299.093 7  -1011299.124 6                   -788027.739 6        68.000          19.000          17.000                  
G27  20843310.894    20843310.586    20843313.566                   -18831545.737 8 -18831545.736 8                 -14673930.270 9       392.000         415.000         843.000                  
G30  24331186.766    24331185.358    24331189.802                    -3632879.668 8  -3632879.688 6                  -2830820.662 8       124.000          35.000         183.000                  
> 2024 10 31 10 45 40.0000000  0  9
G04  19786725.694    19786725.443    19786727.521                   -19707860.296 9 -19707860.286 8                 -15356776.169 8       548.000         449.000         436.000                  
G07  21869853.480    21869853.322    21869854.241                   -18195895.841 8 -18195895.842 8                 -14178622.995 8       397.000         367.000         431.000                  
G08  19318151.399    19318150.959    19318154.730                   -21876946.077 9 -21876946.082 9                 -17046973.412 9       772.000        1428.000        1976.000                  
G09  19448962.725    19448962.296    19448965.444                   -26735629.212 9 -26735629.213 9                 -20832960.136 9       734.000        1598.000        2636.000                  
G14  24680846.193    24680845.397    24680849.563                     -855885.603 7   -855885.619 6                   -666925.234 6        73.000          20.000          19.000                  
G16  23481499.454    23481498.956    23481500.392                    -5990108.359 8  -5990108.354 6                  -4667623.635 6       112.000          24.000          27.000                  
G21  23675754.707    23675785.236    23675823.858                    -1386112.123 7  -1386112.135 6                  -1080092.247 6        72.000          19.000          18.000                  
G27  20870004.677    20870004.007    20870006.912                   -18691271.275 8 -18691271.275 8                 -14564625.587 9       384.000         401.000         839.000                  
G30  24376550.720    24376550.742    24376555.074                    -3394485.029 8  -3394485.039 6                  -2645058.793 8       122.000          44.000         193.000                  
> 2024 10 31 10 45 50.0000000  0  9
G04  19755047.545    19755047.125    19755049.203                   -19874330.748 9 -19874330.737 8                 -15486493.458 8       559.000         460.000         423.000                  
G07  21917344.162    21917343.701    21917344.754                   -17946331.988 8 -17946331.987 8                 -13984157.758 8       377.000         329.000         422.000                  
G08  19306238.011    19306237.468    19306241.228                   -21939552.215 9 -21939552.219 9                 -17095757.476 9       780.000        1444.000        1925.000                  
G09  19452061.519    19452061.084    19452064.097                   -26719345.780 9 -26719345.782 9                 -20820271.827 9       752.000        1660.000        2579.000                  
G14  24662796.903    24662793.480    24662799.901                     -950746.180 7   -950746.171 6                   -740842.755 6        75.000          22.000          18.000                  
G16  23527665.613    23527664.295    23527666.560                    -5747507.533 8  -5747507.515 6                  -4478584.216 6       104.000          22.000          29.000                  
G21  23604685.067    23604714.521    23604730.138                    -1759589.615 7  -1759589.609 6                  -1371111.187 6        72.000          26.000          17.000                  
G27  20897632.516    20897631.795    20897634.722                   -18546086.505 8 -18546086.506 8                 -14451494.702 9       376.000         393.000         806.000                  
G30  24422206.220    24422206.052    24422210.457                    -3154565.203 8  -3154565.185 6                  -2458108.487 8       120.000          39.000         186.000                  
> 2024 10 31 10 46  0.0000000  0  9
G04  19724024.131    19724024.072    19724026.214                   -20037358.701 9 -20037358.691 8                 -15613528.288 8       559.000         460.000         422.000                  
G07  21965374.593    21965374.077    21965374.854                   -17693931.582 8 -17693931.582 8                 -13787482.232 8       342.000         272.000         408.000                  
G08  19295533.642    19295533.075    19295536.778                   -21995804.606 9 -21995804.611 9                 -17139590.573 9       775.000        1443.000        1932.000                  
G09  19455888.166    19455887.854    19455891.056                   -26699235.642 9 -26699235.644 9                 -20804601.673 9       732.000        1607.000        2621.000                  
G14  24645144.471    24645143.569    24645149.928                    -1043498.217 7  -1043498.198 6                   -813122.352 6        73.000          26.000          20.000                  
G16  23574168.030    23574166.453    23574167.681                    -5503137.496 7  -5503137.495 6                  -4288166.278 6       100.000          19.000          28.000                  
G21  23533884.900    23533914.789    23533950.705                    -2131641.472 7  -2131641.497 6                  -1661024.153 6        75.000          22.000          18.000                  
G27  20926192.806    20926192.186    20926195.141                   -18396001.066 8 -18396001.069 8                 -14334545.126 9       360.000         367.000         817.000                  
G30  24468155.058    24468153.229    24468157.692                    -2913111.889 8  -2913111.906 6                  -2269963.273 8       113.000          32.000         173.000                  
> 2024 10 31 10 46 10.0000000  0  9
G04  19693656.816    19693656.195    19693658.621                   -20196941.662 9 -20196941.651 8                 -15737878.711 8       569.000         469.000         414.000                  
G07  22013932.541    22013931.447    22013932.353                   -17438761.027 8 -17438761.030 8                 -13588648.164 8       324.000         234.000         399.000                  
G08  19286036.172    19286035.478    19286039.313                   -22045714.786 9 -22045714.790 9                 -17178481.691 9       782.000        1466.000        1912.000                  
G09  19460437.765    19460437.342    19460440.634                   -26675327.933 9 -26675327.935 9                 -20785972.373 9       741.000        1615.000        2575.000                  
G14  24627894.958    24627894.575    24627897.728                    -1134143.410 7  -1134143.430 6                   -883756.655 6        72.000          23.000          20.000                  
G16  23620991.956    23620990.988    23620992.700                    -5257072.121 7  -5257072.124 6                  -4096427.186 6       100.000          24.000          26.000                  
G21  23463363.423    23463393.457    23463409.464                    -2502237.626 7  -2502237.648 6                  -1949797.816 6        75.000          22.000          17.000                  
G27  20955671.662    20955671.540    20955674.734                   -18241086.076 8 -18241086.076 8                 -14213832.265 9       363.000         362.000         803.000                  
G30  24514383.934    24514382.302    24514386.529                    -2670177.234 8  -2670177.217 6                  -2080663.794 8       111.000          40.000         160.000                  
> 2024 10 31 10 46 20.0000000  0  9
G04  19663952.219    19663951.919    19663954.366                   -20353039.464 9 -20353039.453 9                 -15859513.429 8       580.000         504.000         412.000                  
G07  22063011.406    22063010.700    22063011.590                   -17180849.014 8 -17180849.013 8                 -13387677.906 8       311.000         226.000         394.000                  
G08  19277750.140    19277749.491    19277753.309                   -22089258.160 9 -22089258.164 9                 -17212411.668 9       779.000        1457.000        1960.000                  
G09  19465711.663    19465711.252    19465714.404                   -26647614.317 9 -26647614.319 9                 -20764377.434 9       741.000        1619.000        2586.000                  
G14  24611055.566    24611052.868    24611057.455                    -1222645.678 7  -1222645.679 6                   -952721.289 6        72.000          22.000          17.000                  
G16  23668132.882    23668131.005    23668134.537                    -5009347.083 8  -5009347.097 6                  -3903394.955 6       101.000          23.000          26.000                  
G21  23393132.250    23393160.968    23393193.335                    -2871309.617 7  -2871309.584 6                  -2237388.837 6        82.000          18.000          16.000                  
G27  20986064.049    20986063.560    20986066.770                   -18081375.526 8 -18081375.528 8                 -14089382.609 9       359.000         351.000         833.000                  
G30  24560892.059    24560890.433    24560895.381                    -2425775.293 8  -2425775.291 6                  -1890220.986 8       110.000          31.000         153.000                  
> 2024 10 31 10 46 30.0000000  0  9
G04  19634919.475    19634919.072    19634921.255                   -20505608.361 9 -20505608.350 9                 -15978398.356 8       590.000         514.000         411.000                  
G07  22112607.414    22112606.862    22112607.694                   -16920220.203 8 -16920220.206 8                 -13184590.674 8       300.000         204.000         391.000                  
G08  19270680.729    19270680.213    19270683.994                   -22126408.086 9 -22126408.090 9                 -17241359.742 9       770.000        1415.000        1981.000                  
G09  19471712.004    19471711.505    19471714.730                   -26616083.153 9 -26616083.156 9                 -20739807.790 9       739.000        1605.000        2630.000                  
G14  24594628.811    24594626.672    24594632.685                    -1308965.211 7  -1308965.219 6                  -1019983.524 6        67.000          19.000          20.000                  
G16  23715583.113    23715581.648    23715585.827                    -4759993.967 7  -4759993.928 6                  -3709094.078 6       100.000          21.000          30.000                  
G21  23323204.437    23323232.649    23323248.481                    -3238784.664 7  -3238784.674 6                  -2523730.497 6        84.000          19.000          16.000                  
G27  21017362.888    21017362.261    21017365.632                   -17916900.407 8 -17916900.407 8                 -13961220.313 9       342.000         330.000         862.000                  
G30  24607676.993    24607675.605    24607680.703                    -2179916.126 8  -2179916.122 6                  -1698642.710 8       106.000          28.000         145.000                  
> 2024 10 31 10 46 40.0000000  0  9
G04  19606556.201    19606555.804    19606558.025                   -20654658.676 9 -20654658.663 9                 -16094541.534 8       597.000         521.000         412.000                  
G07  22162705.639    22162704.827    22162705.995                   -16656953.038 8 -16656953.038 8                 -12979447.586 8       277.000         184.000         382.000                  
G08  19264822.496    19264821.956    19264825.803                   -22157193.513 9 -22157193.517 9                 -17265348.473 9       761.000        1384.000        1991.000                  
G09  19478430.521    19478430.127    19478433.384                   -26580777.059 9 -26580777.062 9                 -20712296.644 9       737.000        1613.000        2640.000                  
G14  24578616.119    24578613.837    24578618.086                    -1393116.137 7  -1393116.155 6                  -1085556.012 6        72.000          22.000          21.000                  
G16  23763327.945    23763325.908    23763328.267                    -4509097.788 7  -4509097.806 6                  -3513590.893 6        96.000          20.000          23.000                  
G21  23253584.628    23253612.114    23253641.702                    -3604643.305 7  -3604643.294 6                  -2808817.582 6        86.000          23.000          21.000                  
G27  21049551.827    21049551.319    21049554.697                   -17747746.300 8 -17747746.303 8                 -13829412.062 9       327.000         301.000         869.000                  
G30  24654727.708    24654726.747    24654731.728                    -1932663.363 8  -1932663.375 6                  -1505978.542 8       102.000          32.000         140.000                  
> 2024 10 31 10 46 50.0000000  0  9
G04  19578874.027    19578873.819    19578875.851                   -20800129.619 9 -20800129.607 9                 -16207895.603 8       607.000         541.000         408.000                  
G07  22213304.707    22213303.731    22213304.898                   -16391054.454 8 -16391054.452 8                 -12772254.056 8       267.000         178.000         372.000                  
G08  19260183.118    19260182.581    19260186.482                   -22181573.838 9 -22181573.842 9                 -17284346.223 9       752.000        1349.000        1989.000                  
G09  19485872.995    19485872.536    19485875.709                   -26541667.795 9 -26541667.797 9                 -20681821.998 9       736.000        1592.000        2515.000                  
G14  24563028.502    24563024.100    24563030.667                    -1475041.329 7  -1475041.287 6                  -1149389.189 6        69.000          24.000          19.000                  
G16  23811363.059    23811361.085    23811364.001                    -4256671.812 7  -4256671.800 6                  -3316895.640 6        94.000          22.000          28.000                  
G21  23184287.879    23184315.414    23184331.873                    -3968794.145 7  -3968794.143 6                  -3092568.909 6        87.000          21.000          16.000                  
G27  21082628.553    21082627.828    21082631.301                   -17573928.163 8 -17573928.164 8                 -13693969.514 9       315.000         275.000         839.000                  
G30  24702045.782    24702044.571    24702049.467                    -1684009.412 8  -1684009.386 6                  -1312222.577 8       101.000          29.000         121.000                  
> 2024 10 31 10 47  0.0000000  0  9
G04  19551876.679    19551876.442    19551878.689                   -20942002.027 9 -20942002.014 9                 -16318445.623 8       619.000         567.000         435.000                  
G07  22264394.845    22264394.230    22264395.444                   -16122572.592 8 -16122572.594 8                 -12563047.595 8       271.000         168.000         407.000                  
G08  19256762.008    19256761.623    19256765.546                   -22199551.594 9 -22199551.596 9                 -17298354.966 9       746.000        1332.000        2042.000                  
G09  19494036.476    19494035.952    19494039.118                   -26498768.912 9 -26498768.914 9                 -20648394.409 9       731.000        1570.000        2491.000                  
G14  24547863.405    24547860.893    24547868.172                    -1554725.137 7  -1554725.110 6                  -1211480.867 6        76.000          26.000          18.000                  
G16  23859678.532    23859676.868    23859679.902                    -4002770.426 7  -4002770.419 6                  -3119050.766 6        92.000          21.000          23.000                  
G21  23115327.498    23115353.262    23115385.012                    -4331186.730 7  -4331186.742 6                  -3374955.197 6        87.000          23.000          20.000                  
G27  21116581.610    21116581.245    21116584.724                   -17395502.994 8 -17395502.993 8                 -13554937.085 9       305.000         260.000         881.000                  
G30  24749623.058    24749622.459    24749627.111                    -1433987.583 8  -1433987.575 6                  -1117400.762 8       101.000          29.000         118.000                  
> 2024 10 31 10 47 10.0000000  0  9
G04  19525566.474    19525566.294    19525568.458                   -21080263.338 9 -21080263.326 9                 -16426181.811 8       617.000         563.000         451.000                  
G07  22315966.705    22315966.297    22315967.301                   -15851561.895 8 -15851561.894 8                 -12351870.634 8       273.000         174.000         415.000                  
G08  19254557.658    19254556.987    19254560.931                   -22211137.435 9 -22211137.439 9                 -17307383.009 9       739.000        1315.000        2023.000                  
G09  19502916.968    19502916.664    19502919.917                   -26452100.733 9 -26452100.735 9                 -20612029.720 9       720.000        1533.000        2437.000                  
G14  24533129.491    24533126.027    24533132.175                    -1632158.313 7  -1632158.274 6                  -1271818.845 6        76.000          22.000          18.000                  
G16  23908265.692    23908262.708    23908265.688                    -3747453.948 7  -3747453.939 6                  -2920103.183 6        91.000          20.000          21.000                  
G21  23046709.818    23046734.397    23046749.745                    -4691776.403 7  -4691776.434 6                  -3655931.614 6        86.000          20.000          19.000                  
G27  21151399.491    21151398.951    21151402.585                   -17212534.779 8 -17212534.780 8                 -13412364.636 9       294.000         243.000         856.000                  
G30  24797454.449    24797453.429    24797458.431                    -1182637.302 8  -1182637.314 6                   -921543.828 8       103.000          29.000         109.000                  
> 2024 10 31 10 47 20.0000000  0 10
G03  24718918.040    24718917.486    24718940.837                     -514178.681 7   -514178.667 6                   -400662.629 6        67.000          21.000          15.000                  
G04  19499953.600    19499953.186    19499955.495                   -21214861.014 9 -21214861.003 9                 -16531063.229 8       612.000         552.000         468.000                  
G07  22368016.998    22368016.511    22368017.666                   -15578036.507 8 -15578036.505 8                 -12138734.193 8       269.000         168.000         430.000                  
G08  19253574.601    19253573.940    19253577.947                   -22216303.533 9 -22216303.536 9                 -17311408.664 9       738.000        1304.000        2009.000                  
G09  19512518.918    19512518.489    19512521.747                   -26401643.768 9 -26401643.771 9                 -20572712.743 9       725.000        1560.000        2512.000                  
G14  24518832.442    24518829.030    24518836.283                    -1707291.586 7  -1707291.598 6                  -1330364.785 6        74.000          21.000          20.000                  
G16  23957115.386    23957113.950    23957116.822                    -3490742.021 7  -3490742.018 6                  -2720068.314 6        86.000          23.000          23.000                  
G21  22978450.735    22978474.144    22978505.328                    -5050477.711 7  -5050477.694 6                  -3935441.587 6        90.000          22.000          16.000                  
G27  21187077.420    21187076.705    21187080.398                   -17025047.873 8 -17025047.872 8                 -13266271.145 9       282.000         213.000         818.000                  
G30  24845537.898    24845536.606    24845541.909                     -929957.628 7   -929957.641 6                   -724651.053 8        98.000          33.000         103.000                  
> 2024 10 31 10 47 30.0000000  0 10
G03  24656333.755    24656331.997    24656339.923                     -843065.302 7   -843065.271 6                   -656936.293 6        67.000          22.000          45.000                  
G04  19475035.942    19475035.775    19475037.963                   -21345803.965 9 -21345803.952 9                 -16633096.818 8       605.000         530.000         477.000                  
G07  22420531.902    22420531.097    22420532.322                   -15302071.334 8 -15302071.333 8                 -11923696.639 8       271.000         164.000         422.000                  
G08  19253806.293    19253805.900    19253809.997                   -22215085.011 9 -22215085.015 9                 -17310459.302 9       730.000        1283.000        1989.000                  
G09  19522833.685    19522833.168    19522836.510                   -26347440.121 9 -26347440.123 9                 -20530476.284 9       722.000        1558.000        2560.000                  
G14  24504970.890    24504967.993    24504972.549                    -1780136.859 7  -1780136.839 6                  -1387127.884 6        78.000          22.000          20.000                  
G16  24006217.112    24006213.743    24006218.584                    -3232714.970 7  -3232714.977 6                  -2519008.618 6        84.000          22.000          19.000                  
G21  22910556.308    22910577.832    22910593.168                    -5407266.002 7  -5407266.026 6                  -4213455.876 6        89.000          21.000          19.000                  
G27  21223598.456    21223597.824    21223601.601                   -16833128.359 8 -16833128.363 8                 -13116723.700 9       269.000         206.000         760.000                  
G30  24893862.096    24893861.808    24893867.764                     -676008.534 8   -676008.556 6                   -526769.158 8       101.000          24.000         101.000                  
> 2024 10 31 10 47 40.0000000  0 10
G03  24593790.323    24593789.540    24593796.982                    -1171730.770 7  -1171730.776 6                   -913039.494 6        72.000          24.000          44.000                  
G04  19450824.804    19450824.522    19450826.887                   -21473034.756 9 -21473034.745 9                 -16732237.824 8       598.000         527.000         477.000                  
G07  22473508.899    22473508.508    22473509.807                   -15023674.586 8 -15023674.587 8                 -11706764.375 8       265.000         159.000         411.000                  
G08  19255259.240    19255258.559    19255262.623                   -22207452.142 9 -22207452.147 9                 -17304511.765 9       737.000        1299.000        1933.000                  
G09  19533865.858    19533865.402    19533868.789                   -26289465.664 9 -26289465.666 9                 -20485301.548 9       720.000        1530.000        2498.000                  
G14  24491555.192    24491552.546    24491559.547                    -1850639.559 7  -1850639.561 6                  -1442066.548 6        79.000          25.000          18.000                  
G16  24055565.098    24055563.003    24055567.607                    -2973386.232 7  -2973386.220 6                  -2316934.952 6        82.000          20.000          21.000                  
G21  22843042.646    22843061.988    22843095.195                    -5762049.548 7  -5762049.563 6                  -4489913.036 6        96.000          18.000          18.000                  
G27  21260959.293    21260958.930    21260962.501                   -16636796.213 8 -16636796.216 8                 -12963737.859 9       259.000         187.000         702.000                  
G30  24942430.389    24942430.067    24942435.625                     -420783.135 7   -420783.095 6                   -327892.820 7        95.000          24.000          89.000                  
> 2024 10 31 10 47 50.0000000  0 10
G03  24531291.071    24531290.349    24531296.921                    -1500171.813 7  -1500171.808 6                  -1168967.797 7        74.000          28.000          57.000                  
G04  19427319.025    19427318.638    19427321.095                   -21596559.904 9 -21596559.891 9                 -16828491.333 8       590.000         513.000         500.000                  
G07  22526935.887    22526934.761    22526936.311                   -14742917.860 8 -14742917.858 8                 -11487993.190 8       255.000         160.000         410.000                  
G08  19257925.495    19257925.004    19257929.112                   -22193440.573 9 -22193440.577 9                 -17293593.821 9       747.000        1326.000        1966.000                  
G09  19545608.043    19545607.705    19545611.090                   -26227760.308 9 -26227760.310 9                 -20437219.631 9       721.000        1546.000        2537.000                  
G14  24478583.171    24478580.628    24478587.560                    -1918808.868 7  -1918808.884 6                  -1495186.204 6        83.000          21.000          22.000                  
G16  24105148.141    24105144.658    24105150.266                    -2712832.517 7  -2712832.509 6                  -2113906.544 6        80.000          23.000          19.000                  
G21  22775916.605    22775931.291    22775944.506                    -6114799.714 8  -6114799.714 6                  -4764780.755 6       102.000          21.000          19.000                  
G27  21299143.813    21299143.255    21299147.278                   -16436135.579 8 -16436135.580 8                 -12807379.196 9       252.000         170.000         689.000                  
G30  24991231.805    24991230.529    24991236.725                     -164337.934 7   -164337.933 6                   -128066.047 7        96.000          25.000          85.000                  
> 2024 10 31 10 48  0.0000000  0 10
G03  24468846.534    24468843.862    24468850.627                    -1828330.325 7  -1828330.326 6                  -1424675.931 7        75.000          29.000          56.000                  
G04  19404527.088    19404526.927    19404529.246                   -21716331.974 9 -21716331.962 9                 -16921820.382 9       582.000         511.000         502.000                  
G07  22580807.957    22580807.077    22580808.555                   -14459818.182 8 -14459818.184 8                 -11267396.370 8       247.000         148.000         413.000                  
G08  19261809.116    19261808.521    19261812.644                   -22173033.474 9 -22173033.478 9                 -17277692.365 9       749.000        1340.000        1940.000                  
G09  19558062.936    19558062.551    19558066.047                   -26162310.124 9 -26162310.127 9                 -20386219.684 9       707.000        1494.000        2556.000                  
G14  24466065.673    24466061.067    24466067.939                    -1984599.905 7  -1984599.889 6                  -1546452.594 6        82.000          23.000          21.000                  
G16  24154957.905    24154955.639    24154961.992                    -2451075.631 7  -2451075.678 6                  -1909940.860 6        84.000          19.000          20.000                  
G21  22709192.036    22709201.535    22709239.260                    -6465433.089 8  -6465433.114 6                  -5038003.994 6       110.000          23.000          18.000                  
G27  21338146.738    21338145.939    21338149.934                   -16231176.798 8 -16231176.800 8                 -12647671.356 9       238.000         154.000         655.000                  
G30  25040264.733    25040262.858    25040268.454                       93325.076 7     93325.093 6                     72709.579 7        92.000          28.000          83.000                  
> 2024 10 31 10 48 10.0000000  0 10
G03  24406455.297    24406455.367    24406463.035                    -2156183.775 7  -2156183.781 6                  -1680146.361 7        79.000          34.000          61.000                  
G04  19382451.536    19382451.338    19382453.838                   -21832339.986 9 -21832339.975 8                 -17012216.416 8       577.000         487.000         476.000                  
G07  22635115.614    22635114.998    22635116.784                   -14174428.602 8 -14174428.603 8                 -11045015.243 8       256.000         156.000         398.000                  
G08  19266905.571    19266904.978    19266909.197                   -22146251.919 9 -22146251.923 9                 -17256823.820 9       748.000        1350.000        1847.000                  
G09  19571226.173    19571225.796    19571229.357                   -26093137.687 9 -26093137.689 9                 -20332319.297 9       707.000        1464.000        2480.000                  
G14  24453999.057    24453996.722    24454003.884                    -2048003.934 7  -2048003.928 6                  -1595859.110 6        82.000          26.000          23.000                  
G16  24204989.062    24204983.618    24204988.718                    -2188173.105 7  -2188173.121 6                  -1705082.501 6        79.000          20.000          17.000                  
G21  22642882.589    22642885.038    22642886.733                    -6813902.037 8  -6813902.027 6                  -5309535.781 6       118.000          23.000          27.000                  
G27  21377954.309    21377953.516    21377957.794                   -16021986.791 8 -16021986.792 8                 -12484666.486 9       224.000         142.000         626.000                  
G30  25089520.944    25089519.173    25089525.830                      352167.983 7    352167.998 6                    274404.522 7        89.000          23.000          78.000                  
> 2024 10 31 10 48 20.0000000  0 10
G03  24344133.790    24344132.939    24344140.557                    -2483689.509 7  -2483689.524 6                  -1935345.783 7        78.000          26.000          60.000                  
G04  19361098.185    19361097.926    19361100.530                   -21944553.615 9 -21944553.604 8                 -17099655.800 8       574.000         481.000         480.000                  
G07  22689853.588    22689853.070    22689854.544                   -13886782.091 8 -13886782.090 8                 -10820875.502 8       272.000         168.000         388.000                  
G08  19273214.537    19273213.943    19273218.213                   -22113098.991 9 -22113098.995 9                 -17230990.582 9       743.000        1306.000        1839.000                  
G09  19585097.210    19585096.715    19585100.366                   -26020246.264 9 -26020246.268 9                 -20275521.016 9       693.000        1429.000        2447.000                  
G14  24442392.123    24442391.851    24442399.383                    -2108992.734 7  -2108992.717 6                  -1643383.557 6        85.000          20.000          20.000                  
G16  24255229.588    24255223.718    24255230.804                    -1924162.316 7  -1924162.303 6                  -1499353.480 6        78.000          19.000          18.000                  
G21  22576997.225    22576995.270    22576998.167                    -7160138.744 8  -7160138.743 6                  -5579330.935 6       119.000          30.000          31.000                  
G27  21418557.929    21418557.555    21418561.858                   -15808613.177 8 -15808613.179 8                 -12318401.695 9       219.000         137.000         627.000                  
G30  25138999.092    25138997.376    25139003.972                      612172.882 7    612172.882 6                    477004.806 7        86.000          30.000          69.000                  
> 2024 10 31 10 48 30.0000000  0 10
G03  24281881.722    24281883.713    24281891.091                    -2810813.325 7  -2810813.324 6                  -2190247.614 7        82.000          33.000          65.000                  
G04  19340470.838    19340470.603    19340473.160                   -22052952.070 9 -22052952.058 9                 -17184122.332 9       589.000         505.000         503.000                  
G07  22745012.847    22745011.932    22745013.775                   -13596920.855 8 -13596920.855 8                 -10595010.027 8       280.000         194.000         391.000                  
G08  19280733.197    19280732.663    19280736.956                   -22073588.727 9 -22073588.732 9                 -17200203.592 9       744.000        1323.000        1883.000                  
G09  19599673.389    19599672.926    19599676.703                   -25943648.691 9 -25943648.693 9                 -20215834.840 9       689.000        1418.000        2577.000                  
G14  24431252.084    24431249.645    24431255.505                    -2167547.398 7  -2167547.394 6                  -1689011.454 6        81.000          18.000          23.000                  
G16  24305671.140    24305666.372    24305673.678                    -1659089.332 7  -1659089.345 6                  -1292804.192 6        73.000          17.000          16.000                  
G21  22511545.532    22511543.543    22511548.123                    -7504084.131 8  -7504084.125 6                  -5847340.622 6       129.000          24.000          41.000                  
G27  21459947.969    21459946.926    21459951.158                   -15591113.135 8 -15591113.133 8                 -12148921.545 9       216.000         126.000         663.000                  
G30  25188692.573    25188691.442    25188697.973                      873312.903 7    873312.897 6                    680489.498 7        82.000          30.000          64.000                  
> 2024 10 31 10 48 40.0000000  0 11
G02  23289662.033    23289663.806    23289679.080                     -382264.276 8   -382264.279 6                   -297870.745 6       107.000          24.000          20.000                  
G03  24219710.659    24219711.279    24219717.988                    -3137534.647 7  -3137534.666 6                  -2444835.756 7        84.000          27.000          60.000                  
G04  19320570.643    19320570.424    19320573.213                   -22157529.050 9 -22157529.039 9                 -17265611.099 9       599.000         531.000         515.000                  
G07  22800582.132    22800581.830    22800583.893                   -13304900.768 8 -13304900.769 8                 -10367462.366 8       284.000         197.000         383.000                  
G08  19289456.095    19289455.514    19289459.831                   -22027750.976 9 -22027750.980 9                 -17164486.110 9       736.000        1298.000        1832.000                  
G09  19614949.625    19614949.227    19614953.080                   -25863372.287 9 -25863372.289 9                 -20153282.056 9       675.000        1358.000        2582.000                  
G14  24420573.628    24420571.384    24420580.032                    -2223663.299 7  -2223663.301 6                  -1732738.965 6        82.000          22.000          18.000                  
G16  24356303.151    24356299.185    24356305.822                    -1393014.017 7  -1393014.006 6                  -1085473.745 6        71.000          20.000          19.000                  
G21  22446540.211    22446537.669    22446542.054                    -7845692.791 8  -7845692.788 6                  -6113529.429 6       127.000          30.000          37.000                  
G27  21502108.032    21502107.506    21502112.058                   -15369558.276 8 -15369558.278 8                 -11976281.826 9       212.000         130.000         681.000                  
G30  25238595.810    25238593.540    25238601.020                     1135547.328 7   1135547.321 6                    884826.869 7        79.000          27.000          63.000                  
> 2024 10 31 10 48 50.0000000  0 11
G02  23216162.490    23216161.848    23216169.721                     -768508.110 8   -768508.126 6                   -598838.827 6       108.000          22.000          26.000                  
G03  24157626.134    24157627.179    24157633.986                    -3463790.251 7  -3463790.258 6                  -2699060.928 7        87.000          30.000          69.000                  
G04  19301406.943    19301406.630    19301409.377                   -22258236.547 9 -22258236.535 9                 -17344084.691 9       614.000         561.000         505.000                  
G07  22856561.041    22856560.208    22856562.283                   -13010735.355 8 -13010735.354 8                 -10138243.054 8       287.000         192.000         353.000                  
G08  19299384.774    19299384.415    19299388.776                   -21975575.240 9 -21975575.245 9                 -17123829.947 9       736.000        1293.000        1699.000                  
G09  19630928.758    19630928.332    19630932.268                   -25779402.645 9 -25779402.648 9                 -20087851.435 9       681.000        1356.000        2419.000                  
G14  24410369.055    24410366.667    24410374.951                    -2277293.910 7  -2277293.904 6                  -1774529.838 6        83.000          21.000          20.000                  
G16  24407126.677    24407120.478    24407126.743                    -1125953.440 7  -1125953.449 6                   -877375.709 6        70.000          21.000          19.000                  
G21  22381996.011    22381993.388    22381998.634                    -8184876.983 8  -8184876.951 6                  -6377829.047 6       136.000          28.000          32.000                  
G27  21545034.640    21545034.399    21545039.083                   -15143978.485 8 -15143978.482 8                 -11800505.818 9       211.000         114.000         673.000                  
G30  25288705.528    25288704.036    25288712.226                     1398877.795 7   1398877.782 6                   1090018.172 7        73.000          21.000          57.000                  
> 2024 10 31 10 49  0.0000000  0 11
G02  23142963.227    23142960.721    23142965.021                    -1153175.828 8  -1153175.840 6                   -898580.122 6       112.000          22.000          29.000                  
G03  24095631.017    24095631.117    24095637.706                    -3789579.270 7  -3789579.293 6                  -2952922.456 7        90.000          31.000          70.000                  
G04  19282976.604    19282976.156    19282979.099                   -22355089.905 9 -22355089.896 9                 -17419555.054 9       619.000         566.000         552.000                  
G07  22912932.857    22912932.150    22912934.364                   -12714500.794 8 -12714500.792 8                  -9907411.445 8       284.000         193.000         355.000                  
G08  19310509.535    19310509.067    19310513.549                   -21917115.671 9 -21917115.674 9                 -17078277.291 9       728.000        1266.000        1741.000                  
G09  19647601.432    19647600.993    19647604.837                   -25691788.741 9 -25691788.744 9                 -20019581.133 9       674.000        1342.000        2390.000                  
G14  24400633.193    24400631.081    24400638.620                    -2328455.825 7  -2328455.842 6                  -1814397.059 6        86.000          22.000          22.000                  
G16  24458119.139    24458113.446    24458120.933                     -857987.283 7   -857987.305 6                   -668570.078 6        64.000          20.000          16.000                  
G21  22317917.767    22317915.944    22317919.620                    -8521611.472 8  -8521611.455 6                  -6640219.736 6       140.000          29.000          36.000                  
G27  21588709.772    21588709.070    21588714.073                   -14914466.864 8 -14914466.864 8                 -11621666.061 9       205.000         115.000         693.000                  
G30  25339012.516    25339012.809    25339021.006                     1663243.247 7   1663243.264 6                   1296015.852 7        71.000          18.000          57.000                  
> 2024 10 31 10 49 10.0000000  0 11
G02  23070081.350    23070079.086    23070082.767                    -1536172.791 8  -1536172.783 6                  -1197019.265 6       120.000          23.000          37.000                  
G03  24033737.807    24033736.602    24033744.655                    -4114832.509 7  -4114832.485 6                  -3206366.402 7        91.000          32.000          75.000                  
G04  19265289.361    19265289.089    19265292.065                   -22448036.993 9 -22448036.984 9                 -17491981.561 9       612.000         566.000         549.000                  
G07  22969697.012    22969696.314    22969698.561                   -12416205.049 8 -12416205.050 8                  -9674973.733 8       281.000         175.000         329.000                  
G08  19322832.539    19322831.812    19322836.450                   -21852360.179 9 -21852360.182 9                 -17027818.720 9       725.000        1277.000        1705.000                  
G09  19664970.807    19664970.566    19664974.473                   -25600511.970 9 -25600511.972 9                 -19948456.644 9       661.000        1302.000        2204.000                  
G14  24391378.660    24391375.463    24391383.556                    -2377097.938 7  -2377097.929 6                  -1852300.744 6        89.000          25.000          23.000                  
G16  24509281.491    24509276.971    24509282.214                     -589126.812 7   -589126.792 6                   -459070.161 6        62.000          20.000          21.000                  
G21  22254322.781    22254320.806    22254325.632                    -8855802.818 8  -8855802.826 6                  -6900628.682 6       138.000          25.000          46.000                  
G27  21633127.483    21633127.504    21633132.631                   -14681048.860 8 -14681048.861 8                 -11439782.376 9       195.000         109.000         706.000                  
G30  25389521.995    25389517.976    25389527.041                     1928650.868 7   1928650.860 6                   1502825.520 6        66.000          20.000          49.000                  
> 2024 10 31 10 49 20.0000000  0 11
G02  22997523.544    22997521.304    22997524.300                    -1917468.434 8  -1917468.435 6                  -1494132.631 6       132.000          30.000          33.000                  
G03  23971947.070    23971946.150    23971953.407                    -4439545.013 7  -4439545.002 6                  -3459388.929 7        98.000          30.000          96.000                  
G04  19248343.100    19248342.720    19248345.724                   -22537090.917 9 -22537090.906 9                 -17561374.418 9       615.000         565.000         576.000                  
G07  23026839.252    23026838.891    23026841.434                   -12115920.678 8 -12115920.678 8                  -9440986.450 8       281.000         181.000         315.000                  
G08  19336342.743    19336342.283    19336346.941                   -21781363.194 9 -21781363.198 9                 -16972496.639 9       727.000        1262.000        1759.000                  
G09  19683028.739    19683028.312    19683032.362                   -25505618.873 9 -25505618.877 9                 -19874514.229 9       665.000        1312.000        2257.000                  
G14  24382600.316    24382597.018    24382603.147                    -2423234.201 7  -2423234.195 6                  -1888251.689 6        90.000          18.000          21.000                  
G16  24560600.572    24560595.466    24560601.907                     -319447.556 7   -319447.562 6                   -248934.826 6        63.000          21.000          21.000                  
G21  22191217.678    22191215.885    22191220.620                    -9187422.071 8  -9187422.050 6                  -7159033.364 6       142.000          29.000          50.000                  
G27  21678272.559    21678272.014    21678277.330                   -14443814.968 8 -14443814.971 8                 -11254925.263 9       199.000         111.000         743.000                  
G30  25440217.173    25440212.342    25440222.360                     2195043.338 7   2195043.340 6                   1710402.508 6        62.000          22.000          38.000                  
> 2024 10 31 10 49 30.0000000  0 11
G02  22925305.008    22925303.540    22925305.958                    -2296974.571 8  -2296974.565 6                  -1789851.546 6       143.000          30.000          35.000                  
G03  23910271.346    23910270.452    23910277.372                    -4763654.216 8  -4763654.210 6                  -3711941.266 8       101.000          34.000         101.000                  
G04  19232146.063    19232145.779    19232148.534                   -22622208.147 9 -22622208.138 9                 -17627699.704 9       615.000         554.000         584.000                  
G07  23084357.636    23084357.432    23084359.665                   -11813662.773 8 -11813662.772 8                  -9205461.349 8       272.000         178.000         290.000                  
G08  19351041.187    19351040.685    19351045.435                   -21704123.686 9 -21704123.690 9                 -16912310.239 9       719.000        1237.000        1678.000                  
G09  19701776.579    19701776.159    19701780.256                   -25407099.301 9 -25407099.303 9                 -19797745.971 9       658.000        1283.000        2172.000                  
G14  24374304.906    24374303.175    24374311.873                    -2466821.665 7  -2466821.629 6                  -1922216.473 6        87.000          26.000          19.000                  
G16  24612074.073    24612066.589    24612075.932                      -48967.458 7    -48967.459 6                    -38172.902 6        62.000          22.000          17.000                  
G21  22128618.928    22128616.599    22128621.459                    -9516383.010 8  -9516383.009 6                  -7415366.573 6       140.000          31.000          45.000                  
G27  21724136.954    21724136.018    21724141.463                   -14202798.868 8 -14202798.868 8                 -11067120.968 9       204.000         115.000         694.000                  
G30  25491096.787    25491093.216    25491103.841                     2462421.196 7   2462421.184 6                   1918747.601 6        59.000          21.000          47.000                  
> 2024 10 31 10 49 40.0000000  0 11
G02  22853438.293    22853437.227    22853439.979                    -2674634.284 8  -2674634.303 6                  -2084131.645 6       150.000          26.000          40.000                  
G03  23848714.530    23848714.900    23848721.997                    -5087128.981 8  -5087128.970 6                  -3963999.178 8       103.000          41.000         107.000                  
G04  19216700.192    19216699.803    19216702.714                   -22703377.567 9 -22703377.557 9                 -17690948.748 9       611.000         552.000         618.000                  
G07  23142242.713    23142242.271    23142244.726                   -11509478.249 8 -11509478.248 8                  -8968434.991 8       265.000         168.000         253.000                  
G08  19366921.432    19366920.795    19366925.555                   -21620674.226 9 -21620674.230 9                 -16847284.897 9       722.000        1242.000        1609.000                  
G09  19721210.266    19721209.800    19721213.959                   -25304975.402 9 -25304975.405 9                 -19718169.130 9       645.000        1231.000        2034.000                  
G14  24366497.169    24366496.297    24366504.172                    -2507849.655 7  -2507849.683 6                  -1954186.653 6        88.000          23.000          22.000                  
G16  24663686.479    24663680.003    24663690.086                      222263.774 7    222263.788 6                    173176.702 6        58.000          22.000          19.000                  
G21  22066535.631    22066533.054    22066538.233                    -9842630.984 8  -9842630.987 6                  -7669585.710 7       141.000          23.000          53.000                  
G27  21770708.232    21770707.700    21770713.075                   -13958066.299 8 -13958066.296 8                 -10876420.712 9       200.000         115.000         670.000                  
G30  25542158.830    25542155.106    25542166.124                     2730751.092 7   2730751.111 6                   2127834.235 6        59.000          19.000          36.000                  
> 2024 10 31 10 49 50.0000000  0 11
G02  22781932.911    22781930.819    22781934.118                    -3050400.035 8  -3050400.016 6                  -2376935.873 6       157.000          29.000          42.000                  
G03  23787284.557    23787283.820    23787291.162                    -5409947.463 8  -5409947.461 6                  -4215545.670 8       113.000          38.000         121.000                  
G04  19202005.535    19202005.149    19202008.269                   -22780598.335 9 -22780598.324 9                 -17751120.900 9       611.000         551.000         626.000                  
G07  23200482.765    23200482.828    23200485.243                   -11203423.533 8 -11203423.533 8                  -8729951.309 8       252.000         148.000         232.000                  
G08  19383974.722    19383974.146    19383978.952                   -21531058.807 9 -21531058.810 9                 -16777454.890 9       712.000        1202.000        1564.000                  
G09  19741323.598    19741323.267    19741327.383                   -25199279.498 9 -25199279.500 9                 -19635808.885 9       643.000        1208.000        1892.000                  
G14  24359177.973    24359175.919    24359185.323                    -2546317.517 7  -2546317.541 6                  -1984162.013 6        84.000          25.000          19.000                  
G16  24715434.082    24715426.382    24715439.393                      494187.449 7    494187.460 6                    385063.871 6        57.000          24.000          19.000                  
G21  22004977.159    22004975.352    22004979.872                   -10166120.904 8 -10166120.910 6                  -7921655.678 7       140.000          27.000          53.000                  
G27  21817972.426    21817971.883    21817977.323                   -13709693.001 8 -13709693.002 8                 -10682883.504 9       199.000         116.000         617.000                  
G30  25593395.214    25593390.920    25593402.985                     2999992.591 7   2999992.577 6                   2337631.219 6        57.000          22.000          40.000                  
> 2024 10 31 10 50  0.0000000  0 11
G02  22710804.983    22710802.884    22710806.239                    -3424180.987 8  -3424180.976 6                  -2668193.491 7       162.000          27.000          55.000                  
G03  23725991.187    23725990.933    23725997.629                    -5732044.683 8  -5732044.667 6                  -4466530.118 8       120.000          45.000         134.000                  
G04  19188070.532    19188070.272    19188073.405                   -22853827.447 9 -22853827.438 9                 -17808182.650 9       621.000         577.000         677.000                  
G07  23259077.086    23259076.793    23259079.317                   -10895511.984 8 -10895511.981 8                  -8490020.729 8       245.000         135.000         235.000                  
G08  19402200.865    19402200.205    19402205.159                   -21435280.352 9 -21435280.357 9                 -16702822.497 9       696.000        1165.000        1622.000                  
G09  19762118.639    19762118.363    19762122.512                   -25090001.554 9 -25090001.555 9                 -19550657.422 9       644.000        1243.000        1928.000                  
G14  24352353.108    24352351.774    24352359.599                    -2582182.226 7  -2582182.209 6                  -2012108.787 6        89.000          23.000          18.000                  
G16  24767307.691    24767301.946    24767310.820                      766787.854 7    766787.869 6                    597479.049 6        56.000          19.000          16.000                  
G21  21943959.703    21943959.375    21943963.556                   -10486764.830 8 -10486764.828 6                  -8171507.958 7       142.000          31.000          55.000                  
G27  21865923.133    21865922.565    21865928.052                   -13457712.208 8 -13457712.207 8                 -10486535.240 9       203.000         111.000         616.000                  
G30  25644804.457    25644802.077    25644813.650                     3270147.254 7   3270147.267 6                   2548139.758 6        56.000          24.000          35.000                  
> 2024 10 31 10 50 10.0000000  0 11
G02  22640059.523    22640057.431    22640061.185                    -3795947.101 8  -3795947.107 6                  -2957881.081 7       169.000          33.000          55.000                  
G03  23664835.708    23664835.507    23664842.435                    -6053416.319 8  -6053416.321 6                  -4716949.168 8       128.000          49.000         148.000                  
G04  19174891.517    19174891.290    19174894.415                   -22923083.647 9 -22923083.638 9                 -17862148.601 9       640.000         609.000         708.000                  
G07  23318010.298    23318009.869    23318012.750                   -10585817.903 8 -10585817.908 8                  -8248701.152 8       240.000         142.000         228.000                  
G08  19421587.253    19421586.670    19421591.591                   -21333404.578 9 -21333404.582 9                 -16623438.928 9       689.000        1150.000        1648.000                  
G09  19783585.549    19783585.232    19783589.354                   -24977193.145 9 -24977193.147 9                 -19462754.927 9       650.000        1255.000        1887.000                  
G14  24346020.303    24346018.662    24346026.230                    -2615462.270 7  -2615462.271 6                  -2038041.458 6        84.000          23.000          19.000                  
G16  24819299.559    24819291.397    24819302.246                     1039988.688 7   1039988.687 6                    810352.199 6        52.000          22.000          22.000                  
G21  21883490.568    21883489.300    21883493.470                   -10804535.852 8 -10804535.869 6                  -8419121.587 7       144.000          27.000          58.000                  
G27  21914542.619    21914541.704    21914547.300                   -13202218.463 8 -13202218.466 8                 -10287449.594 9       204.000         114.000         600.000                  
G30  25696377.819    25696373.659    25696386.716                     3541156.129 7   3541156.139 6                   2759314.013 6        56.000          23.000          34.000                  
> 2024 10 31 10 50 20.0000000  0 10
G02  22569714.689    22569712.372    22569715.776                    -4165611.690 8  -4165611.696 6                  -3245931.105 7       172.000          28.000          57.000                  
G03  23603829.852    23603829.686    23603836.858                    -6374001.520 8  -6374001.515 7                  -4966755.414 8       130.000          51.000         159.000                  
G04  19162475.619    19162475.368    19162478.586                   -22988330.132 9 -22988330.123 9                 -17912990.081 9       663.000         653.000         737.000                  
G07  23377279.620    23377278.911    23377281.923                   -10274359.288 8 -10274359.290 8                  -8006006.604 8       236.000         123.000         223.000                  
G08  19442131.851    19442131.273    19442136.231                   -21225442.695 9 -21225442.698 9                 -16539312.920 9       687.000        1135.000        1683.000                  
G09  19805725.097    19805724.622    19805728.813                   -24860850.105 9 -24860850.108 9                 -19372098.158 9       640.000        1209.000        1876.000                  
G14  24340186.555    24340184.535    24340193.507                    -2646120.301 7  -2646120.308 6                  -2061928.865 6        89.000          24.000          19.000                  
G16  24871396.802    24871390.155    24871400.734                     1313769.513 7   1313769.510 6                   1023680.599 6        55.000          26.000          17.000                  
G21  21823582.443    21823581.419    21823586.257                   -11119350.638 8 -11119350.640 6                  -8664431.631 7       150.000          30.000          61.000                  
G27  21963822.472    21963822.215    21963827.571                   -12943250.378 8 -12943250.377 8                 -10085656.656 9       211.000         121.000         587.000                  
> 2024 10 31 10 50 30.0000000  0 10
G02  22499779.765    22499778.527    22499781.260                    -4533118.503 8  -4533118.524 6                  -3532299.737 7       175.000          26.000          66.000                  
G03  23542979.640    23542979.414    23542986.440                    -6693769.818 8  -6693769.824 6                  -5215925.118 8       135.000          44.000         167.000                  
G04  19150823.926    19150823.591    19150826.581                   -23049561.549 9 -23049561.540 9                 -17960702.923 9       688.000         702.000         738.000                  
G07  23436874.926    23436874.527    23436877.723                    -9961184.685 8  -9961184.681 8                  -7761974.914 8       227.000         120.000         207.000                  
G08  19463826.261    19463825.737    19463830.638                   -21111438.341 9 -21111438.344 9                 -16450478.483 9       687.000        1124.000        1655.000                  
G09  19828531.847    19828531.568    19828535.735                   -24740999.529 9 -24740999.531 9                 -19278708.234 9       630.000        1168.000        1824.000                  
G14  24334854.528    24334850.451    24334860.516                    -2674150.222 7  -2674150.210 6                  -2083770.531 6        88.000          26.000          19.000                  
G16  24923599.067    24923590.442    24923602.443                     1588081.048 7   1588081.046 6                   1237428.113 6        51.000          19.000          16.000                  
G21  21764248.499    21764246.865    21764251.771                   -11431156.832 8 -11431156.821 6                  -8907397.297 7       150.000          35.000          52.000                  
G27  22013751.402    22013750.251    22013755.871                   -12680877.512 8 -12680877.518 8                  -9881210.641 9       212.000         126.000         566.000                  
> 2024 10 31 10 50 40.0000000  0  9
G02  22430266.049    22430264.158    22430266.983                    -4898416.285 8  -4898416.279 6                  -3816947.050 7       179.000          34.000          64.000                  
G03  23482289.820    23482289.409    23482296.354                    -7012695.870 8  -7012695.887 6                  -5464438.526 8       134.000          47.000         182.000                  
G04  19139935.689    19139935.488    19139938.682                   -23106778.641 9 -23106778.633 9                 -18005287.707 9       701.000         748.000         767.000                  
G07  23496786.932    23496786.327    23496789.632                    -9646347.948 8  -9646347.953 8                  -7516648.053 8       212.000         106.000         192.000                  
G08  19486660.850    19486660.310    19486665.235                   -20991442.204 9 -20991442.207 9                 -16356975.113 9       673.000        1096.000        1668.000                  
G09  19852000.044    19851999.658    19852003.907                   -24617674.380 9 -24617674.383 9                 -19182610.839 9       617.000        1128.000        1893.000                  
G14  24330019.851    24330016.666    24330025.438                    -2699551.757 7  -2699551.763 6                  -2103563.923 6        88.000          23.000          15.000                  
G21  21705495.482    21705492.983    21705497.233                   -11739907.564 8 -11739907.560 6                  -9147982.087 7       151.000          32.000          58.000                  
G27  22064312.797    22064312.168    22064317.659                   -12415175.060 8 -12415175.063 8                  -9674170.133 9       211.000         131.000         564.000                  
> 2024 10 31 10 50 50.0000000  0  9
G02  22361191.129    22361189.873    22361192.556                    -5261403.038 8  -5261403.055 6                  -4099793.571 7       184.000          34.000          67.000                  
G03  23421775.117    23421774.798    23421781.070                    -7330703.564 8  -7330703.565 6                  -5712236.333 8       133.000          48.000         204.000                  
G04  19129820.989    19129820.733    19129823.746                   -23159932.466 9 -23159932.457 9                 -18046706.299 9       723.000         791.000         758.000                  
G07  23557014.292    23557013.349    23557017.107                    -9329852.297 8  -9329852.299 8                  -7270028.531 8       206.000         104.000         165.000                  
G08  19510635.116    19510634.730    19510639.685                   -20865456.182 9 -20865456.186 9                 -16258804.293 9       675.000        1089.000        1576.000                  
G09  19876132.478    19876132.131    19876136.534                   -24490857.692 9 -24490857.694 9                 -19083792.756 9       607.000        1090.000        1882.000                  
G14  24325695.138    24325693.260    24325701.009                    -2722274.707 7  -2722274.682 6                  -2121270.161 6        89.000          28.000          21.000                  
G21  21647341.707    21647339.094    21647343.983                   -12045505.516 8 -12045505.520 6                  -9386110.171 7       150.000          30.000          61.000                  
G27  22115503.404    22115502.713    22115508.393                   -12146167.945 8 -12146167.941 8                  -9464554.554 9       214.000         125.000         549.000                  
> 2024 10 31 10 51  0.0000000  0  9
G02  22292561.729    22292561.200    22292563.124                    -5622051.096 8  -5622051.095 6                  -4380817.744 7       181.000          37.000          79.000                  
G03  23361434.241    23361434.786    23361441.072                    -7647790.970 8  -7647790.972 6                  -5959317.038 8       137.000          50.000         237.000                  
G04  19120474.404    19120474.139    19120477.230                   -23209049.302 9 -23209049.293 9                 -18084979.176 9       728.000         801.000         824.000                  
G07  23617542.317    23617542.032    23617545.432                    -9011775.230 8  -9011775.229 7                  -7022176.734 8       204.000         100.000         152.000                  
G08  19535734.820    19535734.098    19535739.074                   -20733558.244 9 -20733558.249 9                 -16156026.783 9       672.000        1078.000        1626.000                  
G09  19900918.498    19900918.093    19900922.395                   -24360607.473 9 -24360607.476 9                 -18982299.189 9       602.000        1076.000        2043.000                  
G14  24321876.739    24321874.682    24321882.895                    -2742343.795 7  -2742343.793 6                  -2136908.492 6        90.000          23.000          20.000                  
G21  21589793.222    21589790.360    21589794.718                   -12347927.837 8 -12347927.816 6                  -9621763.716 7       159.000          31.000          64.000                  
G27  22167304.263    22167303.348    22167309.069                   -11873955.766 8 -11873955.767 8                  -9252441.522 9       216.000         128.000         587.000                  
> 2024 10 31 10 51 10.0000000  0  9
G02  22224393.835    22224391.654    22224394.406                    -5980279.897 8  -5980279.889 6                  -4659956.778 7       179.000          35.000          79.000                  
G03  23301280.139    23301279.818    23301286.227                    -7963903.342 8  -7963903.337 7                  -6205637.975 8       141.000          59.000         259.000                  
G04  19111900.871    19111900.527    19111903.656                   -23254103.620 9 -23254103.611 9                 -18120086.449 9       727.000         800.000         815.000                  
G07  23678367.430    23678366.494    23678370.228                    -8692141.768 8  -8692141.766 7                  -6773112.157 8       204.000          98.000         141.000                  
G08  19561954.036    19561953.433    19561958.309                   -20595775.375 9 -20595775.378 9                 -16048663.605 9       654.000        1018.000        1611.000                  
G09  19926356.595    19926356.104    19926360.501                   -24226929.669 9 -24226929.671 9                 -18878134.770 9       589.000        1030.000        2069.000                  
G14  24318567.585    24318566.439    24318573.732                    -2759731.756 7  -2759731.759 6                  -2150457.509 6        88.000          24.000          21.000                  
G21  21532861.517    21532860.162    21532864.546                   -12647099.361 8 -12647099.353 6                  -9854884.174 7       158.000          25.000          66.000                  
G27  22219705.546    22219704.457    22219710.670                   -11598585.746 8 -11598585.744 8                  -9037867.827 9       221.000         129.000         605.000                  
> 2024 10 31 10 51 20.0000000  0 10
G02  22156698.328    22156696.649    22156698.977                    -6336019.062 8  -6336019.069 6                  -4937155.827 7       178.000          33.000          87.000                  
G03  23241319.372    23241319.839    23241325.904                    -8278995.993 8  -8278995.992 7                  -6451164.333 8       151.000          63.000         282.000                  
G04  19104103.140    19104102.865    19104105.888                   -23295081.020 9 -23295081.012 9                 -18152016.899 9       723.000         795.000         820.000                  
G07  23739480.887    23739480.801    23739484.174                    -8370987.011 8  -8370987.003 7                  -6522862.160 8       202.000          94.000         124.000                  
G08  19589285.614    19589285.103    19589290.136                   -20452146.438 9 -20452146.442 9                 -15936745.045 9       637.000         963.000        1659.000                  
G09  19952443.793    19952443.282    19952447.692                   -24089841.014 9 -24089841.016 9                 -18771312.539 9       576.000         977.000        2043.000                  
G14  24315772.507    24315771.338    24315778.919                    -2774422.151 7  -2774422.162 6                  -2161904.583 6        94.000          23.000          17.000                  
G21  21476561.514    21476560.108    21476564.318                   -12942955.377 8 -12942955.377 6                 -10085421.107 7       155.000          31.000          70.000                  
G27  22272696.987    22272696.111    22272702.166                   -11320115.526 8 -11320115.527 8                  -8820878.389 9       219.000         136.000         619.000                  
G31  25029296.151    25029298.156    25029321.109                     -130104.931 7   -130104.938 6                   -101382.916 6        78.000          22.000          19.000                  
> 2024 10 31 10 51 30.0000000  0 10
G02  22089486.079    22089485.383    22089487.273                    -6689218.521 8  -6689218.539 6                  -5212375.898 7       182.000          35.000          91.000                  
G03  23181557.701    23181557.981    23181564.193                    -8593044.565 8  -8593044.574 7                  -6695877.122 8       159.000          72.000         300.000                  
G04  19097079.810    19097079.544    19097082.547                   -23331988.465 9 -23331988.457 9                 -18180775.947 9       722.000         778.000         831.000                  
G07  23800874.885    23800874.239    23800877.674                    -8048366.420 8  -8048366.422 7                  -6271469.967 8       195.000          93.000         115.000                  
G08  19617718.286    19617717.772    19617722.794                   -20302732.449 9 -20302732.453 9                 -15820318.644 9       624.000         927.000        1657.000                  
G09  19979172.677    19979172.293    19979176.755                   -23949379.348 9 -23949379.350 9                 -18661861.976 9       557.000         926.000        2013.000                  
G14  24313489.925    24313487.653    24313495.079                    -2786419.664 7  -2786419.669 6                  -2171253.288 6        91.000          23.000          20.000                  
G21  21420901.668    21420899.786    21420903.647                   -13235451.857 8 -13235451.878 6                 -10313340.231 7       160.000          28.000          70.000                  
G27  22326263.239    22326262.613    22326268.601                   -11038623.500 8 -11038623.504 8                  -8601534.300 9       220.000         132.000         606.000                  
G31  25005939.759    25005941.066    25005947.795                     -252838.254 7   -252838.255 6                   -197019.438 6        79.000          25.000          28.000                  
> 2024 10 31 10 51 40.0000000  0 10
G02  22022771.625    22022770.965    22022772.943                    -7039802.156 8  -7039802.174 6                  -5485557.668 7       191.000          37.000         100.000                  
G03  23122004.541    23122004.793    23122010.423                    -8905998.559 8  -8905998.559 7                  -6939737.004 8       167.000          80.000         308.000                  
G04  19090834.414    19090834.109    19090837.350                   -23364807.820 9 -23364807.812 9                 -18206349.467 9       714.000         761.000         838.000                  
G07  23862540.587    23862540.426    23862543.906                    -7724309.593 8  -7724309.591 7                  -6018958.640 8       186.000          78.000         102.000                  
G08  19647244.705    19647244.253    19647249.359                   -20147569.960 9 -20147569.966 9                 -15699412.890 9       617.000         915.000        1693.000                  
G09  20006541.279    20006540.804    20006545.318                   -23805557.076 9 -23805557.078 9                 -18549792.760 9       538.000         861.000        2026.000                  
G14  24311722.945    24311721.099    24311729.878                    -2795703.643 7  -2795703.628 6                  -2178487.497 6        92.000          23.000          21.000                  
G21  21365894.125    21365891.576    21365896.056                   -13524519.230 8 -13524519.208 6                 -10538587.327 7       165.000          35.000          77.000                  
G27  22380394.286    22380393.980    22380400.105                   -10754162.273 8 -10754162.280 8                  -8379876.548 9       214.000         128.000         595.000                  
G31  24982710.049    24982709.917    24982717.827                     -374912.625 7   -374912.622 6                   -292141.995 6        82.000          24.000          31.000                  
> 2024 10 31 10 51 50.0000000  0 10
G02  21956569.113    21956567.462    21956570.190                    -7387699.939 8  -7387699.958 6                  -5756646.561 8       201.000          32.000         107.000                  
G03  23062667.845    23062667.936    23062673.709                    -9217813.359 8  -9217813.356 7                  -7182709.189 8       171.000          82.000         311.000                  
G04  19085369.324    19085368.842    19085372.016                   -23393527.915 9 -23393527.907 9                 -18228728.752 9       708.000         761.000         827.000                  
G07  23924473.577    23924473.292    23924476.987                    -7398852.005 8  -7398851.996 7                  -5765355.817 7       174.000          65.000          86.000                  
G08  19677856.723    19677856.241    19677861.424                   -19986703.105 9 -19986703.109 9                 -15574062.169 9       603.000         878.000        1707.000                  
G09  20034545.681    20034545.131    20034549.724                   -23658393.200 9 -23658393.204 9                 -18435119.690 9       532.000         845.000        2000.000                  
G14  24310473.998    24310472.874    24310481.013                    -2802260.093 7  -2802260.111 6                  -2183596.348 6        94.000          29.000          20.000                  
G21  21311550.528    21311548.888    21311552.455                   -13810094.364 8 -13810094.368 6                 -10761113.183 7       164.000          32.000          85.000                  
G27  22435079.995    22435079.308    22435085.582                   -10466790.684 8 -10466790.681 8                  -8155950.976 9       211.000         128.000         592.000                  
G31  24959607.463    24959607.591    24959614.663                     -496316.126 7   -496316.121 6                   -386741.790 6        81.000          28.000          28.000                  
> 2024 10 31 10 52  0.0000000  0 10
G02  21890887.240    21890885.380    21890887.637                    -7732861.385 8  -7732861.406 6                  -6025603.239 8       212.000          38.000         105.000                  
G03  23003552.154    23003552.973    23003558.437                    -9528463.964 8  -9528463.961 7                  -7424774.218 8       175.000          85.000         334.000                  
G04  19080682.125    19080681.805    19080685.039                   -23418158.207 9 -23418158.199 9                 -18247921.170 9       705.000         745.000         838.000                  
G07  23986661.873    23986661.585    23986665.953                    -7072048.885 8  -7072048.889 7                  -5510704.541 7       162.000          63.000          82.000                  
G08  19709542.016    19709541.284    19709546.454                   -19820197.279 9 -19820197.282 9                 -15444317.435 9       589.000         834.000        1709.000                  
G09  20063178.674    20063177.985    20063182.601                   -23507927.053 9 -23507927.056 9                 -18317873.405 9       533.000         847.000        1957.000                  
G14  24309744.024    24309743.132    24309751.029                    -2806095.415 7  -2806095.410 6                  -2186584.821 6        97.000          23.000          21.000                  
G21  21257878.939    21257878.211    21257882.292                   -14092134.202 8 -14092134.214 6                 -10980884.261 7       166.000          32.000          91.000                  
G27  22490303.883    22490303.241    22490309.669                   -10176587.415 8 -10176587.420 8                  -7929818.915 9       214.000         122.000         579.000                  
G31  24936632.323    24936631.328    24936638.681                     -617056.669 7   -617056.653 6                   -480824.987 6        87.000          20.000          26.000                  
> 2024 10 31 10 52 10.0000000  0 10
G02  21825739.634    21825738.131    21825740.444                    -8075209.485 8  -8075209.496 6                  -6292367.693 8       215.000          44.000         109.000                  
G03  22944668.506    22944669.083    22944674.809                    -9837898.635 8  -9837898.639 7                  -7665891.765 8       182.000          94.000         350.000                  
G04  19076776.606    19076776.280    19076779.366                   -23438682.483 9 -23438682.474 9                 -18263914.090 9       710.000         756.000         825.000                  
G07  24049102.813    24049101.294    24049105.695                    -6743928.805 8  -6743928.808 7                  -5255027.082 7       153.000          53.000          77.000                  
G08  19742292.105    19742291.682    19742296.892                   -19648092.738 9 -19648092.742 9                 -15310210.061 9       582.000         808.000        1684.000                  
G09  20092437.128    20092436.590    20092441.316                   -23354171.867 9 -23354171.868 9                 -18198064.228 9       525.000         830.000        1925.000                  
G14  24309536.409    24309533.737    24309542.435                    -2807190.119 7  -2807190.107 6                  -2187437.741 6        95.000          26.000          22.000                  
G21  21204895.367    21204892.973    21204897.176                   -14370569.410 8 -14370569.411 6                 -11197846.525 7       169.000          36.000          89.000                  
G27  22546057.364    22546056.587    22546062.879                    -9883604.754 8  -9883604.756 8                  -7701521.091 9       209.000         120.000         548.000                  
G31  24913784.990    24913784.492    24913790.563                     -737115.671 7   -737115.678 6                   -574377.073 6        85.000          24.000          29.000                  
> 2024 10 31 10 52 20.0000000  0 10
G02  21761141.352    21761140.116    21761142.543                    -8414674.293 8  -8414674.276 6                  -6556885.428 8       227.000          45.000         122.000                  
G03  22886025.051    22886025.248    22886030.868                   -10146072.650 8 -10146072.655 7                  -7906026.974 8       195.000          97.000         374.000                  
G04  19073653.646    19073653.442    19073656.562                   -23455092.565 9 -23455092.557 9                 -18276701.135 9       713.000         765.000         804.000                  
G07  24111785.253    24111784.513    24111788.965                    -6414527.436 8  -6414527.432 7                  -4998351.223 7       151.000          52.000          67.000                  
G08  19776099.101    19776098.281    19776103.475                   -19470438.258 9 -19470438.263 9                 -15171778.054 9       575.000         804.000        1664.000                  
G09  20122317.878    20122317.227    20122321.944                   -23197148.562 9 -23197148.563 9                 -18075708.454 9       533.000         837.000        1867.000                  
G14  24309853.306    24309850.281    24309858.127                    -2805532.420 7  -2805532.436 6                  -2186145.941 6        96.000          27.000          20.000                  
G21  21152608.347    21152606.270    21152610.488                   -14645338.322 8 -14645338.330 6                 -11411951.939 7       179.000          38.000          92.000                  
G27  22602327.393    22602327.116    22602333.482                    -9587902.176 8  -9587902.179 8                  -7471103.862 8       207.000         117.000         500.000                  
G31  24891072.982    24891069.351    24891075.626                     -856481.725 7   -856481.735 6                   -667389.151 6        83.000          24.000          29.000                  
> 2024 10 31 10 52 30.0000000  0 10
G02  21697101.770    21697100.387    21697102.146                    -8751204.896 8  -8751204.906 6                  -6819116.763 8       246.000          45.000         129.000                  
G03  22827626.195    22827626.017    22827631.723                   -10452960.177 8 -10452960.177 8                  -8145159.713 8       197.000         106.000         394.000                  
G04  19071311.545    19071311.353    19071314.332                   -23467400.258 9 -23467400.249 9                 -18286291.503 9       718.000         772.000         775.000                  
G07  24174702.900    24174701.633    24174706.063                    -6083899.426 8  -6083899.436 7                  -4740719.542 7       147.000          51.000          61.000                  
G08  19810948.253    19810947.722    19810952.996                   -19287303.115 9 -19287303.118 9                 -15029075.388 9       563.000         766.000        1620.000                  
G09  20152812.367    20152812.086    20152816.637                   -23036897.612 9 -23036897.615 9                 -17950837.621 9       537.000         842.000        1759.000                  
G14  24310688.644    24310687.910    24310695.078                    -2801130.298 7  -2801130.283 6                  -2182715.581 6        94.000          24.000          20.000                  
G21  21101027.457    21101025.693    21101028.872                   -14916398.731 8 -14916398.711 6                 -11623167.580 7       188.000          41.000          90.000                  
G27  22659101.182    22659100.370    22659106.627                    -9289558.379 8  -9289558.383 8                  -7238628.554 8       208.000         130.000         463.000                  
G31  24868486.130    24868484.690    24868491.401                     -975162.553 7   -975162.547 6                   -759867.214 6        82.000          28.000          30.000                  
> 2024 10 31 10 52 40.0000000  0 10
G02  21633635.348    21633633.913    21633635.701                    -9084724.461 8  -9084724.467 7                  -7079001.817 8       264.000          62.000         141.000                  
G03  22769481.826    22769481.843    22769487.188                   -10758509.270 8 -10758509.271 8                  -8383249.500 8       205.000         109.000         418.000                  
G04  19069752.600    19069752.413    19069755.389                   -23475592.239 9 -23475592.229 9                 -18292674.810 9       718.000         776.000         790.000                  
G07  24237847.084    24237846.446    24237850.581                    -5752073.232 8  -5752073.232 6                  -4482154.225 6       141.000          47.000          50.000                  
G08  19846832.151    19846831.644    19846836.891                   -19098731.804 9 -19098731.808 9                 -14882136.736 9       551.000         730.000        1527.000                  
G09  20183918.689    20183918.176    20183922.716                   -22873433.975 9 -22873433.978 9                 -17823463.385 9       537.000         860.000        1653.000                  
G14  24312053.166    24312051.502    24312058.288                    -2793966.351 7  -2793966.341 6                  -2177133.045 6        94.000          26.000          23.000                  
G21  21050164.073    21050162.651    21050166.212                   -15183682.844 8 -15183682.850 6                 -11831440.656 7       196.000          39.000         100.000                  
G27  22716366.248    22716366.116    22716372.745                    -8988625.965 8  -8988625.969 8                  -7004136.129 8       208.000         116.000         432.000                  
G31  24846034.070    24846033.396    24846040.225                    -1093139.929 7  -1093139.934 6                   -851797.086 6        85.000          28.000          29.000                  
> 2024 10 31 10 52 50.0000000  0 10
G02  21570754.685    21570753.394    21570755.045                    -9415161.974 8  -9415161.972 7                  -7336485.253 8       280.000          69.000         142.000                  
G03  22711601.018    22711600.846    22711606.306                   -11062673.609 8 -11062673.610 8                  -8620260.247 8       206.000         109.000         433.000                  
G04  19068978.233    19068977.973    19068981.026                   -23479661.861 9 -23479661.853 9                 -18295845.872 9       720.000         778.000         807.000                  
G07  24301213.907    24301212.950    24301217.684                    -5419083.003 8  -5419083.007 6                  -4222681.861 6       133.000          42.000          43.000                  
G08  19883740.775    19883740.173    19883745.398                   -18904775.878 9 -18904775.881 9                 -14731002.261 9       546.000         715.000        1454.000                  
G09  20215632.098    20215631.628    20215636.096                   -22706778.844 9 -22706778.845 9                 -17693602.250 9       547.000         870.000        1569.000                  
G14  24313943.870    24313942.597    24313949.308                    -2784029.587 7  -2784029.590 6                  -2169389.865 6        94.000          25.000          24.000                  
G21  21000032.233    21000030.795    21000034.079                   -15447129.117 8 -15447129.138 6                 -12036723.182 7       211.000          43.000          96.000                  
G27  22774113.965    22774113.436    22774119.813                    -8685163.472 8  -8685163.471 8                  -6767672.204 8       207.000         116.000         398.000                  
G31  24823718.928    24823719.634    24823725.475                    -1210401.455 7  -1210401.455 6                   -943169.068 6        86.000          28.000          34.000                  
> 2024 10 31 10 53  0.0000000  0 10
G02  21508470.340    21508468.717    21508470.501                    -9742466.966 8  -9742466.966 7                  -7591527.750 8       294.000          74.000         155.000                  
G03  22653988.856    22653988.533    22653993.568                   -11365427.177 8 -11365427.178 8                  -8856171.663 8       211.000         115.000         443.000                  
G04  19068985.293    19068985.076    19068988.137                   -23479623.834 9 -23479623.825 9                 -18295816.148 9       711.000         751.000         795.000                  
G07  24364791.352    24364789.836    24364795.501                    -5084983.296 8  -5084983.301 6                  -3962344.984 6       122.000          42.000          49.000                  
G08  19921660.032    19921659.508    19921664.705                   -18705508.586 9 -18705508.590 9                 -14575729.039 9       540.000         706.000        1439.000                  
G09  20247944.658    20247944.349    20247948.777                   -22536974.362 9 -22536974.365 9                 -17561287.051 9       548.000         892.000        1534.000                  
G14  24316359.278    24316358.592    24316364.430                    -2771330.114 7  -2771330.102 6                  -2159493.811 6        97.000          28.000          26.000                  
G21  20950638.128    20950636.045    20950639.592                   -15706697.091 8 -15706697.093 7                 -12238983.637 8       231.000          52.000         109.000                  
G27  22832327.860    22832326.931    22832333.691                    -8379249.807 8  -8379249.809 8                  -6529298.257 8       204.000         114.000         379.000                  
G31  24801539.676    24801540.046    24801545.689                    -1326955.147 7  -1326955.157 6                  -1033989.367 6        91.000          27.000          34.000                  
> 2024 10 31 10 53 10.0000000  0 10
G02  21446796.635    21446795.373    21446796.763                   -10066562.546 8 -10066562.549 7                  -7844069.391 8       304.000          76.000         162.000                  
G03  22596654.519    22596654.409    22596659.415                   -11666717.421 8 -11666717.421 8                  -9090942.818 8       218.000         120.000         453.000                  
G04  19069776.233    19069775.954    19069778.879                   -23475467.345 9 -23475467.336 9                 -18292577.213 9       701.000         743.000         804.000                  
G07  24428574.135    24428573.448    24428578.584                    -4749802.223 8  -4749802.214 6                  -3701165.446 6       113.000          32.000          48.000                  
G08  19960581.097    19960580.453    19960585.642                   -18500977.922 9 -18500977.926 9                 -14416354.459 9       546.000         705.000        1393.000                  
G09  20280853.701    20280853.301    20280857.685                   -22364036.644 9 -22364036.646 9                 -17426530.336 9       554.000         911.000        1497.000                  
G14  24319304.721    24319303.825    24319310.043                    -2755852.277 7  -2755852.284 6                  -2147432.760 6        86.000          20.000          22.000                  
G21  20901994.262    20901992.796    20901995.894                   -15962320.339 8 -15962320.334 7                 -12438170.252 8       238.000          54.000         109.000                  
G27  22890997.773    22890997.312    22891003.887                    -8070937.472 8  -8070937.476 8                  -6289055.184 8       200.000         110.000         366.000                  
G31  24779496.346    24779498.536    24779503.353                    -1442782.725 7  -1442782.730 6                  -1124243.733 6        90.000          30.000          29.000                  
> 2024 10 31 10 53 20.0000000  0 10
G02  21385747.331    21385746.189    21385747.346                   -10387377.938 8 -10387377.940 7                  -8094055.023 8       319.000          84.000         174.000                  
G03  22539607.514    22539607.861    22539612.563                   -11966497.609 8 -11966497.617 8                  -9324537.291 8       219.000         120.000         463.000                  
G04  19071351.565    19071351.290    19071354.260                   -23467188.444 9 -23467188.435 9                 -18286125.988 9       698.000         734.000         823.000                  
G07  24492557.889    24492556.073    24492561.046                    -4413573.532 7  -4413573.538 6                  -3439169.567 6        98.000          26.000          43.000                  
G08  20000492.915    20000492.461    20000497.562                   -18291238.953 9 -18291238.957 9                 -14252921.431 9       542.000         704.000        1373.000                  
G09  20314354.636    20314354.231    20314358.478                   -22187988.226 9 -22187988.228 9                 -17289349.667 9       558.000         911.000        1486.000                  
G14  24322780.879    24322778.940    24322785.542                    -2737587.035 7  -2737587.049 6                  -2133199.547 6        92.000          24.000          20.000                  
G21  20854112.270    20854111.033    20854113.860                   -16213938.741 8 -16213938.745 7                 -12634236.184 8       250.000          62.000         116.000                  
G27  22950113.336    22950112.690    22950119.285                    -7760284.906 8  -7760284.910 8                  -6046988.514 8       196.000         113.000         345.000                  
G31  24757595.212    24757596.244    24757602.367                    -1557872.071 7  -1557872.073 6                  -1213922.801 6        93.000          26.000          38.000                  
> 2024 10 31 10 53 30.0000000  0 10
G02  21325331.607    21325330.364    21325331.523                   -10704862.831 8 -10704862.825 7                  -8341445.446 8       339.000          89.000         180.000                  
G03  22482853.402    22482853.442    22482858.340                   -12264741.330 8 -12264741.327 8                  -9556934.511 8       215.000         126.000         485.000                  
G04  19073707.916    19073707.719    19073710.690                   -23454804.453 9 -23454804.444 9                 -18276475.967 9       704.000         745.000         816.000                  
G07  24556728.270    24556727.963    24556732.968                    -4076351.255 7  -4076351.250 6                  -3176399.412 6        89.000          27.000          39.000                  
G08  20041381.452    20041380.924    20041386.085                   -18076368.238 9 -18076368.241 9                 -14085489.607 9       545.000         713.000        1353.000                  
G09  20348438.986    20348438.700    20348442.920                   -22008872.473 9 -22008872.475 9                 -17149778.840 9       528.000         830.000        1488.000                  
G14  24326783.670    24326781.727    24326788.665                    -2716546.427 7  -2716546.434 6                  -2116803.750 6        87.000          25.000          25.000                  
G21  20807000.512    20806998.794    20807001.470                   -16461513.717 8 -16461513.722 7                 -12827151.380 8       268.000          65.000         112.000                  
G27  23009658.887    23009658.276    23009664.949                    -7447370.868 8  -7447370.863 8                  -5803159.588 8       193.000         107.000         326.000                  
G31  24735833.056    24735833.604    24735838.918                    -1672231.312 7  -1672231.331 6                  -1303032.837 6        97.000          31.000          33.000                  
> 2024 10 31 10 53 40.0000000  0 10
G02  21265564.434    21265563.016    21265564.142                   -11018940.182 8 -11018940.181 7                  -8586180.642 8       349.000          99.000         197.000                  
G03  22426401.453    22426401.517    22426406.486                   -12561395.154 8 -12561395.156 8                  -9788092.839 9       205.000         110.000         517.000                  
G04  19076847.441    19076847.055    19076849.922                   -23438306.716 9 -23438306.706 9                 -18263620.413 9       717.000         784.000         838.000                  
G07  24621082.578    24621083.317    24621088.271                    -3738162.624 7  -3738162.610 6                  -2912876.198 6        85.000          25.000          40.000                  
G08  20083236.883    20083236.260    20083241.447                   -17856416.494 9 -17856416.498 9                 -13914098.513 9       536.000         691.000        1339.000                  
G09  20383103.946    20383103.521    20383107.914                   -21826706.265 9 -21826706.268 9                 -17007831.009 9       505.000         765.000        1494.000                  
G14  24331317.101    24331315.886    24331322.184                    -2692716.230 7  -2692716.210 6                  -2098234.092 6        84.000          22.000          24.000                  
G21  20760669.633    20760668.450    20760671.052                   -16704980.134 8 -16704980.139 7                 -13016865.089 8       275.000          68.000         117.000                  
G27  23069624.850    23069624.424    23069631.171                    -7132247.161 8  -7132247.160 7                  -5557608.770 8       189.000          94.000         304.000                  
G31  24714213.377    24714213.599    24714218.086                    -1785841.859 7  -1785841.852 6                  -1391559.448 6        98.000          33.000          35.000                  
> 2024 10 31 10 53 50.0000000  0 10
G02  21206459.087    21206457.740    21206458.510                   -11329539.550 8 -11329539.552 8                  -8828205.721 8       359.000         104.000         202.000                  
G03  22370261.335    22370261.236    22370266.288                   -12856411.875 8 -12856411.879 7                 -10017975.506 9       191.000          98.000         526.000                  
G04  19080769.642    19080769.474    19080772.296                   -23417693.823 9 -23417693.813 9                 -18247558.234 9       738.000         809.000         870.000                  
G07  24685616.176    24685615.963    24685622.318                    -3399040.891 7  -3399040.876 6                  -2648625.780 6        80.000          24.000          33.000                  
G08  20126048.059    20126047.460    20126052.443                   -17631441.793 9 -17631441.797 9                 -13738793.402 9       533.000         660.000        1275.000                  
G09  20418344.811    20418344.621    20418348.867                   -21641513.219 8 -21641513.220 9                 -16863524.573 9       490.000         713.000        1512.000                  
G14  24336383.354    24336382.101    24336388.371                    -2666089.259 7  -2666089.235 6                  -2077485.089 6        83.000          21.000          23.000                  
G21  20715132.708    20715131.010    20715133.232                   -16944279.745 8 -16944279.749 7                 -13203331.944 8       295.000          79.000         124.000                  
G27  23130000.966    23130000.095    23130006.768                    -6814971.892 8  -6814971.897 7                  -5310381.342 8       182.000          88.000         307.000                  
G31  24692738.338    24692738.379    24692742.438                    -1898691.571 8  -1898691.556 6                  -1479493.188 6       102.000          30.000          27.000                  
> 2024 10 31 10 54  0.0000000  0 10
G02  21148024.845    21148023.542    21148024.668                   -11636611.137 8 -11636611.138 8                  -9067481.886 8       373.000         116.000         211.000                  
G03  22314438.204    22314437.944    22314442.633                   -13149764.706 8 -13149764.703 7                 -10246561.644 9       191.000          99.000         526.000                  
G04  19085471.432    19085471.203    19085473.896                   -23392985.744 9 -23392985.733 9                 -18228304.995 9       754.000         855.000         904.000                  
G07  24750317.073    24750315.905    24750321.982                    -3059039.861 7  -3059039.841 6                  -2383690.159 6        80.000          22.000          31.000                  
G08  20169799.862    20169799.347    20169804.128                   -17401523.652 9 -17401523.656 9                 -13559636.241 9       518.000         647.000        1229.000                  
G09  20454153.067    20454152.938    20454157.301                   -21453337.829 8 -21453337.831 9                 -16716894.216 9       468.000         652.000        1525.000                  
G14  24341979.714    24341977.763    24341985.197                    -2636679.472 7  -2636679.428 6                  -2054567.603 6        84.000          25.000          28.000                  
G21  20670395.098    20670393.574    20670395.748                   -17179375.582 8 -17179375.579 7                 -13386523.120 8       306.000          90.000         127.000                  
G27  23190770.958    23190770.211    23190776.740                    -6495623.587 8  -6495623.588 7                  -5061538.498 8       176.000          83.000         297.000                  
G31  24671405.901    24671406.415    24671409.805                    -2010788.803 7  -2010788.798 6                  -1566840.506 6        98.000          34.000          36.000                  
> 2024 10 31 10 54 10.0000000  0 11
G02  21090276.637    21090275.432    21090276.225                   -11940077.910 8 -11940077.918 8                  -9303949.121 8       389.000         122.000         229.000                  
G03  22258941.281    22258941.048    22258945.894                   -13441399.276 8 -13441399.280 7                 -10473808.904 9       199.000          98.000         507.000                  
G04  19090953.766    19090953.353    19090955.989                   -23364175.853 9 -23364175.841 9                 -18205855.537 9       772.000         885.000         906.000                  
G07  24815180.148    24815178.433    24815184.031                    -2718185.643 7  -2718185.639 6                  -2118089.598 6        82.000          25.000          29.000                  
G08  20214482.026    20214481.760    20214486.653                   -17166715.001 9 -17166715.005 9                 -13376668.282 9       512.000         628.000        1191.000                  
G09  20490525.876    20490525.452    20490529.813                   -21262197.534 8 -21262197.537 9                 -16567953.539 9       454.000         610.000        1522.000                  
G14  24348110.418    24348106.206    24348111.977                    -2604474.023 7  -2604474.043 6                  -2029471.686 6        85.000          25.000          23.000                  
G17  24050150.296    24050154.877    24050182.950                     -431033.492 8   -431033.501 6                   -335872.600 6       101.000          33.000          16.000                  
G21  20626469.625    20626467.831    20626470.259                   -17410203.968 8 -17410203.976 7                 -13566389.021 8       323.000         100.000         129.000                  
G27  23251924.851    23251924.785    23251931.674                    -6174253.162 8  -6174253.163 7                  -4811119.929 8       168.000          71.000         293.000                  
G31  24650219.807    24650220.992    24650224.176                    -2122114.450 8  -2122114.444 6                  -1653586.649 6       104.000          32.000          38.000                  
> 2024 10 31 10 54 20.0000000  0 11
G02  21033226.798    21033225.613    21033226.004                   -12239876.655 8 -12239876.655 8                  -9537558.169 8       414.000         138.000         233.000                  
G03  22203779.573    22203779.574    22203783.992                   -13731274.705 8 -13731274.704 8                 -10699685.436 8       202.000         115.000         497.000                  
G04  19097214.830    19097214.704    19097217.224                   -23331271.979 9 -23331271.967 9                 -18180215.965 9       776.000         906.000         931.000                  
G07  24880196.132    24880194.948    24880201.684                    -2376517.800 7  -2376517.821 6                  -1851854.998 6        75.000          26.000          23.000                  
G08  20260082.265    20260082.101    20260086.834                   -16927083.233 9 -16927083.238 9                 -13189942.045 9       506.000         607.000        1112.000                  
G09  20527456.684    20527456.496    20527460.728                   -21068123.659 8 -21068123.660 9                 -16416726.950 9       447.000         609.000        1491.000                  
G14  24354769.692    24354766.758    24354772.032                    -2569474.290 7  -2569474.293 6                  -2002198.454 6        87.000          38.000          22.000                  
G17  23990157.403    23990158.666    23990161.105                     -746295.554 8   -746295.559 6                   -581529.167 7       102.000          29.000          61.000                  
G21  20583365.307    20583364.077    20583366.243                   -17636715.528 8 -17636715.529 8                 -13742891.182 8       343.000         127.000         126.000                  
G27  23313452.068    23313451.888    23313458.749                    -5850924.969 8  -5850924.967 7                  -4559175.767 8       157.000          72.000         275.000                  
G31  24629182.376    24629183.074    24629185.890                    -2232662.953 8  -2232662.947 6                  -1739727.291 6       105.000          29.000          38.000                  
> 2024 10 31 10 54 30.0000000  0 11
G02  20976886.664    20976885.591    20976885.962                   -12535943.990 8 -12535943.993 8                  -9768259.645 8       436.000         153.000         242.000                  
G03  22148960.601    22148960.508    22148964.746                   -14019349.566 8 -14019349.574 8                 -10924158.956 9       204.000         110.000         502.000                  
G04  19104253.514    19104253.408    19104255.954                   -23294282.404 9 -23294282.391 9                 -18151392.737 9       776.000         908.000         959.000                  
G07  24945363.373    24945359.746    24945366.627                    -2034075.333 7  -2034075.342 6                  -1585016.768 6        73.000          24.000          21.000                  
G08  20306587.569    20306587.220    20306591.834                   -16682696.108 8 -16682696.113 9                 -12999510.337 9       494.000         593.000        1006.000                  
G09  20564940.148    20564939.700    20564943.896                   -20871147.436 8 -20871147.438 9                 -16263238.790 9       451.000         599.000        1413.000                  
G14  24361960.387    24361958.695    24361964.238                    -2531681.844 7  -2531681.835 6                  -1972749.116 6        82.000          32.000          38.000                  
G17  23930429.864    23930430.474    23930433.006                    -1060162.431 8  -1060162.437 6                   -826099.900 7       107.000          31.000          76.000                  
G21  20541092.362    20541090.992    20541092.694                   -17858861.175 8 -17858861.175 8                 -13915991.353 8       360.000         127.000         140.000                  
G27  23375340.725    23375339.262    23375346.378                    -5525702.787 8  -5525702.784 7                  -4305755.739 8       147.000          65.000         262.000                  
G31  24608294.229    24608294.491    24608297.901                    -2342428.425 7  -2342428.426 6                  -1825257.790 6        99.000          30.000          38.000                  
> 2024 10 31 10 54 40.0000000  0 11
G02  20921271.456    20921269.935    20921270.113                   -12828204.475 8 -12828204.475 8                  -9995994.767 8       454.000         169.000         261.000                  
G03  22094493.849    22094494.188    22094498.453                   -14305569.954 8 -14305569.955 8                 -11147187.454 9       200.000         111.000         516.000                  
G04  19112070.616    19112070.309    19112072.890                   -23253203.811 9 -23253203.798 9                 -18119383.271 9       768.000         881.000         992.000                  
G07  25010667.184    25010666.438    25010673.109                    -1690884.598 7  -1690884.588 6                  -1317595.383 6        65.000          21.000          22.000                  
G08  20353987.464    20353986.755    20353991.179                   -16433609.717 8 -16433609.722 9                 -12805416.869 9       486.000         558.000         925.000                  
G09  20602972.001    20602971.611    20602975.620                   -20671287.992 8 -20671287.993 9                 -16107503.974 9       453.000         603.000        1350.000                  
G14  24369684.661    24369683.143    24369687.231                    -2491086.426 7  -2491086.422 6                  -1941115.692 6        82.000          24.000          24.000                  
G17  23870981.343    23870980.485    23870983.514                    -1372566.614 8  -1372566.607 6                  -1069530.945 7       109.000          31.000          77.000                  
G21  20499661.466    20499660.239    20499662.106                   -18076580.132 8 -18076580.135 8                 -14085642.177 8       369.000         131.000         148.000                  
G27  23437578.162    23437577.605    23437584.635                    -5198637.763 8  -5198637.767 7                  -4050899.700 8       144.000          56.000         250.000                  
G31  24587557.861    24587559.084    24587561.006                    -2451392.635 8  -2451392.617 6                  -1910164.015 6       101.000          29.000          37.000                  
> 2024 10 31 10 54 50.0000000  0 11
G02  20866388.352    20866387.225    20866387.491                   -13116614.494 8 -13116614.496 8                 -10220729.551 8       477.000         183.000         279.000                  
G03  22040385.286    22040385.370    22040389.433                   -14589913.411 8 -14589913.410 8                 -11368753.437 9       207.000         113.000         518.000                  
G04  19120659.962    19120659.687    19120662.245                   -23208065.295 9 -23208065.281 9                 -18084210.243 9       748.000         832.000         999.000                  
G07  25076106.535    25076104.837    25076113.648                    -1347003.323 7  -1347003.293 6                  -1049635.922 6        60.000          23.000          16.000                  
G08  20402264.057    20402263.581    20402267.996                   -16179912.423 8 -16179912.427 9                 -12607730.502 9       483.000         549.000         881.000                  
G09  20641542.866    20641542.337    20641546.322                   -20468596.327 8 -20468596.330 9                 -15949562.250 9       453.000         598.000        1297.000                  
G14  24377937.742    24377937.123    24377940.521                    -2447710.005 7  -2447709.957 6                  -1907315.305 6        82.000          24.000          29.000                  
G17  23811816.454    23811816.679    23811819.630                    -1683472.048 8  -1683472.063 6                  -1311794.223 7       113.000          33.000          81.000                  
G21  20459078.630    20459077.135    20459079.121                   -18289844.050 8 -18289844.043 8                 -14251821.567 8       387.000         125.000         147.000                  
G27  23500151.483    23500150.757    23500157.684                    -4869812.483 8  -4869812.481 7                  -3794672.027 8       142.000          61.000         240.000                  
G31  24566973.470    24566972.696    24566975.566                    -2559568.801 7  -2559568.801 6                  -1994456.248 6       100.000          29.000          47.000                  
> 2024 10 31 10 55  0.0000000  0 11
G02  20812253.576    20812252.411    20812252.547                   -13401093.518 8 -13401093.520 8                 -10442401.251 8       496.000         195.000         298.000                  
G03  21986644.976    21986644.825    21986648.810                   -14872320.237 8 -14872320.238 8                 -11588810.387 8       214.000         114.000         472.000                  
G04  19130023.146    19130023.129    19130025.695                   -23158859.607 9 -23158859.594 9                 -18045868.004 9       730.000         795.000        1013.000                  
G07  25141670.735    25141671.172    25141677.474                    -1002451.961 7  -1002451.973 6                   -781154.255 6        55.000          22.000          17.000                  
G08  20451408.489    20451407.966    20451412.407                   -15921656.037 8 -15921656.042 9                 -12406491.612 9       476.000         546.000         852.000                  
G09  20680650.099    20680649.472    20680653.427                   -20263086.540 8 -20263086.542 9                 -15789424.601 9       452.000         599.000        1207.000                  
G14  24386722.750    24386722.489    24386726.328                    -2401537.943 7  -2401537.939 6                  -1871336.580 6        80.000          24.000          28.000                  
G17  23752952.948    23752952.307    23752954.864                    -1992805.297 8  -1992805.284 6                  -1552832.477 7       115.000          33.000          81.000                  
G21  20419355.453    20419354.354    20419355.994                   -18498588.236 8 -18498588.238 8                 -14414479.112 8       390.000         150.000         155.000                  
G27  23563051.348    23563050.828    23563057.207                    -4539272.080 8  -4539272.078 7                  -3537107.906 8       141.000          56.000         233.000                  
G31  24546541.253    24546541.338    24546544.016                    -2666933.068 8  -2666933.078 6                  -2078115.917 6       101.000          35.000          47.000                  
> 2024 10 31 10 55 10.0000000  0 10
G02  20758876.305    20758875.099    20758875.026                   -13681593.180 9 -13681593.181 8                 -10660972.176 8       511.000         215.000         317.000                  
G03  21933278.401    21933278.046    21933281.938                   -15152762.337 8 -15152762.335 8                 -11807336.417 8       213.000         116.000         442.000                  
G04  19140155.920    19140155.682    19140158.252                   -23105612.040 9 -23105612.026 9                 -18004376.264 9       706.000         741.000        1028.000                  
G08  20501404.799    20501404.055    20501408.409                   -15658924.766 8 -15658924.770 9                 -12201765.818 9       466.000         520.000         849.000                  
G09  20720284.643    20720284.108    20720288.026                   -20054804.689 8 -20054804.691 9                 -15627126.926 9       458.000         630.000        1155.000                  
G14  24396038.194    24396036.322    24396042.258                    -2352587.938 7  -2352587.916 6                  -1833193.221 6        75.000          21.000          27.000                  
G17  23694395.044    23694394.174    23694397.619                    -2300524.453 8  -2300524.450 6                  -1792613.073 7       118.000          35.000          83.000                  
G21  20380498.977    20380497.627    20380499.493                   -18702780.423 8 -18702780.427 8                 -14573589.676 8       400.000         153.000         157.000                  
G27  23626262.536    23626262.552    23626268.600                    -4207093.145 8  -4207093.133 7                  -3278266.999 8       138.000          55.000         212.000                  
G31  24526264.520    24526262.720    24526265.471                    -2773493.250 7  -2773493.231 6                  -2161149.118 7       100.000          24.000          59.000                  
> 2024 10 31 10 55 20.0000000  0 10
G02  20706271.788    20706270.337    20706270.176                   -13958031.481 9 -13958031.481 8                 -10876378.431 8       525.000         221.000         341.000                  
G03  21880296.830    21880297.362    21880301.025                   -15431177.583 8 -15431177.582 8                 -12024283.112 8       210.000         118.000         398.000                  
G04  19151059.273    19151058.819    19151061.399                   -23048314.712 9 -23048314.699 9                 -17959728.881 9       689.000         703.000        1003.000                  
G08  20552242.432    20552241.768    20552246.278                   -15391769.351 8 -15391769.356 8                 -11993592.664 9       455.000         491.000         852.000                  
G09  20760444.420    20760443.873    20760447.656                   -19843763.142 8 -19843763.142 9                 -15462678.860 9       473.000         667.000        1107.000                  
G14  24405884.529    24405881.875    24405887.977                    -2300843.828 7  -2300843.827 6                  -1792872.619 6        85.000          22.000          28.000                  
G17  23636159.534    23636158.609    23636160.942                    -2606553.479 8  -2606553.502 6                  -2031076.751 7       124.000          34.000          94.000                  
G21  20342520.743    20342519.677    20342521.266                   -18902355.681 8 -18902355.684 8                 -14729102.656 8       408.000         160.000         162.000                  
G27  23689778.747    23689777.241    23689783.699                    -3873318.077 8  -3873318.071 6                  -3018182.382 8       135.000          46.000         180.000                  
G31  24506143.212    24506142.516    24506144.947                    -2879223.292 7  -2879223.281 6                  -2243535.527 6        99.000          25.000          50.000                  
> 2024 10 31 10 55 30.0000000  0 10
G02  20654451.267    20654450.307    20654450.058                   -14230347.049 9 -14230347.050 8                 -11088572.182 8       531.000         228.000         359.000                  
G03  21827709.392    21827710.128    21827713.794                   -15707523.845 8 -15707523.840 8                 -12239617.636 8       215.000         120.000         409.000                  
G04  19162730.452    19162730.290    19162732.788                   -22986980.611 9 -22986980.595 9                 -17911935.970 9       681.000         667.000         963.000                  
G08  20603908.467    20603908.142    20603912.568                   -15120261.159 8 -15120261.164 8                 -11782027.745 9       445.000         487.000         861.000                  
G09  20801122.982    20801122.680    20801126.382                   -19629994.547 8 -19629994.549 9                 -15296105.836 9       480.000         673.000        1050.000                  
G14  24416260.144    24416258.601    24416264.872                    -2246311.641 7  -2246311.654 6                  -1750379.672 6        83.000          25.000          28.000                  
G17  23578256.220    23578255.281    23578257.589                    -2910836.162 8  -2910836.147 6                  -2268179.675 7       129.000          45.000          97.000                  
G21  20305429.880    20305428.744    20305430.163                   -19097269.695 8 -19097269.696 8                 -14880983.520 8       426.000         172.000         169.000                  
G27  23753585.302    23753584.118    23753590.909                    -3538009.128 8  -3538009.127 6                  -2756902.580 8       132.000          50.000         177.000                  
G31  24486181.386    24486181.070    24486184.169                    -2984117.080 7  -2984117.098 6                  -2325270.400 7        99.000          35.000          65.000                  
> 2024 10 31 10 55 40.0000000  0 10
G02  20603425.605    20603424.465    20603424.182                   -14498488.683 9 -14498488.685 8                 -11297513.535 8       536.000         234.000         375.000                  
G03  21775523.263    21775523.070    21775526.579                   -15981768.679 8 -15981768.679 8                 -12453314.697 8       226.000         134.000         434.000                  
G04  19175165.690    19175165.406    19175167.909                   -22921633.250 9 -22921633.235 9                 -17861015.853 9       677.000         674.000         956.000                  
G08  20656387.900    20656387.188    20656391.739                   -14844481.747 8 -14844481.749 8                 -11567134.613 9       427.000         447.000         881.000                  
G09  20842312.329    20842312.202    20842315.895                   -19413541.510 8 -19413541.514 9                 -15127441.052 9       464.000         641.000         974.000                  
G14  24427165.464    24427162.784    24427169.710                    -2189006.187 7  -2189006.179 6                  -1705725.780 6        76.000          24.000          28.000                  
G17  23520694.178    23520693.006    23520695.519                    -3213325.953 8  -3213325.951 6                  -2503885.582 7       127.000          40.000          93.000                  
G21  20269232.206    20269230.979    20269232.534                   -19287488.900 8 -19287488.901 8                 -15029206.106 8       442.000         184.000         175.000                  
G27  23817669.709    23817669.404    23817676.259                    -3201237.923 8  -3201237.914 7                  -2494483.381 8       127.000          53.000         164.000                  
G31  24466379.495    24466379.366    24466381.603                    -3088178.292 7  -3088178.298 6                  -2406356.562 7        95.000          32.000          73.000                  
> 2024 10 31 10 55 50.0000000  0 10
G02  20553208.306    20553207.138    20553206.898                   -14762381.565 9 -14762381.567 8                 -11503144.190 8       544.000         239.000         392.000                  
G03  21723746.225    21723746.386    21723750.136                   -16253855.623 8 -16253855.622 8                 -12665330.305 8       234.000         143.000         473.000                  
G04  19188364.266    19188364.192    19188366.597                   -22852272.960 9 -22852272.945 9                 -17806968.792 9       673.000         661.000         922.000                  
G08  20709668.581    20709667.890    20709672.429                   -14564489.192 8 -14564489.197 8                 -11348958.529 9       413.000         391.000         875.000                  
G09  20884009.257    20884008.962    20884012.651                   -19194422.842 8 -19194422.845 9                 -14956699.161 9       452.000         605.000         880.000                  
G14  24438598.109    24438596.943    24438603.180                    -2128919.416 7  -2128919.420 6                  -1658904.670 6        78.000          27.000          24.000                  
G17  23463486.676    23463485.174    23463487.479                    -3513952.252 8  -3513952.253 6                  -2738139.452 7       129.000          41.000         100.000                  
G21  20233938.779    20233937.336    20233939.078                   -19472956.746 8 -19472956.748 8                 -15173726.351 8       459.000         202.000         180.000                  
G27  23882024.249    23882024.218    23882030.793                    -2863051.766 8  -2863051.772 6                  -2230961.644 8       122.000          48.000         150.000                  
G31  24446739.965    24446738.407    24446741.605                    -3191386.572 7  -3191386.571 6                  -2486778.155 7        99.000          23.000          80.000                  
> 2024 10 31 10 56  0.0000000  0 10
G02  20503807.948    20503806.739    20503806.229                   -15021982.691 9 -15021982.692 8                 -11705430.628 8       559.000         250.000         413.000                  
G03  21672385.306    21672385.121    21672388.952                   -16523759.384 8 -16523759.387 8                 -12875644.743 9       241.000         148.000         512.000                  
G04  19202320.622    19202320.399    19202322.846                   -22778932.093 9 -22778932.077 9                 -17749819.990 9       670.000         648.000         887.000                  
G08  20763733.796    20763733.234    20763737.779                   -14280373.169 8 -14280373.173 8                 -11127569.367 9       392.000         368.000         861.000                  
G09  20926203.942    20926203.528    20926207.247                   -18972688.872 8 -18972688.873 9                 -14783919.377 9       438.000         571.000         857.000                  
G14  24450558.339    24450555.724    24450561.103                    -2066075.167 7  -2066075.172 6                  -1609934.879 6        79.000          22.000          31.000                  
G17  23406640.208    23406639.905    23406642.074                    -3812675.615 8  -3812675.603 6                  -2970910.541 8       138.000          43.000         103.000                  
G21  20199554.166    20199552.878    20199554.211                   -19653648.863 8 -19653648.867 8                 -15314525.259 8       479.000         209.000         190.000                  
G27  23946633.610    23946633.154    23946639.711                    -2523529.005 8  -2523528.996 6                  -1966398.416 8       122.000          44.000         143.000                  
G31  24427258.608    24427258.045    24427261.165                    -3293752.953 7  -3293752.938 6                  -2566543.769 7        96.000          25.000          88.000                  
> 2024 10 31 10 56 10.0000000  0 10
G02  20455240.649    20455239.566    20455239.102                   -15277204.202 9 -15277204.203 8                 -11904304.392 8       565.000         261.000         434.000                  
G03  21621452.625    21621453.227    21621456.764                   -16791409.106 8 -16791409.112 8                 -13084202.796 9       249.000         161.000         546.000                  
G04  19217036.743    19217036.637    19217038.903                   -22701598.191 9 -22701598.176 9                 -17689559.742 9       664.000         647.000         847.000                  
G08  20818575.414    20818574.822    20818579.503                   -13992178.169 8 -13992178.176 8                 -10903001.791 9       373.000         325.000         839.000                  
G09  20968895.310    20968894.749    20968898.593                   -18748344.488 8 -18748344.490 9                 -14609105.518 9       421.000         527.000         847.000                  
G14  24463045.865    24463043.353    24463048.834                    -2000452.251 7  -2000452.240 6                  -1558800.003 6        81.000          25.000          28.000                  
G17  23350173.568    23350172.891    23350174.810                    -4109410.808 8  -4109410.795 6                  -3202132.446 8       142.000          44.000         119.000                  
G21  20166091.113    20166090.027    20166091.422                   -19829496.446 8 -19829496.449 8                 -15451549.213 8       491.000         231.000         200.000                  
G27  24011491.307    24011490.974    24011496.780                    -2182702.121 8  -2182702.127 6                  -1700819.016 8       119.000          41.000         127.000                  
G31  24407946.220    24407945.305    24407948.364                    -3395242.789 7  -3395242.801 6                  -2645626.394 7        97.000          25.000          99.000                  
> 2024 10 31 10 56 20.0000000  0 10
G02  20407512.086    20407510.817    20407510.386                   -15528019.837 9 -15528019.841 8                 -12099745.016 8       576.000         275.000         438.000                  
G03  21570951.696    21570951.844    21570955.460                   -17056795.090 8 -17056795.091 8                 -13290996.918 9       274.000         201.000         589.000                  
G04  19232503.105    19232503.022    19232505.426                   -22620320.728 9 -22620320.714 9                 -17626226.596 9       656.000         633.000         822.000                  
G08  20874173.274    20874172.551    20874177.068                   -13700010.214 8 -13700010.217 8                 -10675338.415 9       361.000         313.000         791.000                  
G09  21012070.629    21012070.213    21012073.998                   -18521455.981 8 -18521455.983 8                 -14432309.244 9       404.000         488.000         849.000                  
G14  24476053.035    24476051.774    24476056.436                    -1932091.285 7  -1932091.266 6                  -1505531.530 6        79.000          25.000          27.000                  
G17  23294089.133    23294088.702    23294090.448                    -4404133.564 8  -4404133.566 6                  -3431786.247 8       150.000          48.000         136.000                  
G21  20133551.693    20133550.203    20133551.770                   -20000492.910 9 -20000492.912 8                 -15584793.087 8       507.000         245.000         211.000                  
G27  24076578.710    24076578.427    24076584.269                    -1840664.395 8  -1840664.414 6                  -1434296.139 8       114.000          42.000         119.000                  
G31  24388794.477    24388793.667    24388796.881                    -3495882.686 7  -3495882.678 6                  -2724046.768 7        98.000          28.000         100.000                  
> 2024 10 31 10 56 30.0000000  0 10
G02  20360639.454    20360638.305    20360637.677                   -15774336.213 9 -15774336.217 8                 -12291679.729 8       582.000         268.000         446.000                  
G03  21520895.768    21520895.786    21520899.640                   -17319839.790 8 -17319839.789 8                 -13495966.675 9       289.000         215.000         635.000                  
G04  19248723.684    19248723.299    19248725.769                   -22535082.108 9 -22535082.094 9                 -17559806.839 9       647.000         592.000         818.000                  
G08  20930519.510    20930518.990    20930523.380                   -13403907.762 8 -13403907.766 8                 -10444609.207 9       348.000         288.000         741.000                  
G09  21055730.366    21055729.962    21055733.854                   -18292021.923 8 -18292021.928 8                 -14253529.433 9       397.000         469.000         831.000                  
G14  24489588.275    24489586.774    24489591.116                    -1860965.653 7  -1860965.624 6                  -1450108.803 6        78.000          28.000          27.000                  
G17  23238405.007    23238404.883    23238407.185                    -4696751.933 8  -4696751.941 7                  -3659800.285 8       153.000          55.000         147.000                  
G21  20101949.183    20101947.857    20101949.077                   -20166564.899 9 -20166564.902 8                 -15714199.722 8       531.000         264.000         213.000                  
G27  24141892.583    24141891.180    24141897.701                    -1497441.024 8  -1497441.041 6                  -1166849.411 8       111.000          35.000         109.000                  
G31  24369813.384    24369811.822    24369814.811                    -3595631.369 8  -3595631.362 6                  -2801772.691 8       101.000          28.000         111.000                  
> 2024 10 31 10 56 40.0000000  0 10
G02  20314629.204    20314628.295    20314627.659                   -16016120.283 9 -16016120.285 8                 -12480082.784 8       583.000         273.000         474.000                  
G03  21471288.813    21471289.007    21471292.743                   -17580525.358 8 -17580525.360 8                 -13699098.157 9       299.000         237.000         672.000                  
G04  19265689.582    19265689.283    19265691.659                   -22445925.135 9 -22445925.119 9                 -17490333.825 9       632.000         570.000         798.000                  
G08  20987595.690    20987595.361    20987599.790                   -13103969.254 8 -13103969.257 8                 -10210890.878 9       334.000         274.000         687.000                  
G09  21099863.471    21099863.136    21099867.013                   -18060100.789 8 -18060100.792 8                 -14072811.648 9       390.000         449.000         819.000                  
G14  24503642.898    24503641.232    24503646.049                    -1787108.950 7  -1787108.980 6                  -1392558.034 6        72.000          19.000          21.000                  
G17  23183129.083    23183128.012    23183130.102                    -4987233.482 8  -4987233.476 7                  -3886149.285 8       162.000          65.000         158.000                  
G21  20071286.162    20071284.914    20071286.128                   -20327699.768 9 -20327699.770 8                 -15839759.257 8       538.000         268.000         219.000                  
G27  24207415.706    24207414.247    24207420.599                    -1153116.482 8  -1153116.493 6                   -898544.673 8       109.000          36.000         109.000                  
G31  24350996.003    24350996.489    24350999.516                    -3694507.330 7  -3694507.340 6                  -2878818.616 8        95.000          25.000         110.000                  
> 2024 10 31 10 56 50.0000000  0 10
G02  20269495.781    20269494.604    20269494.143                   -16253298.724 9 -16253298.725 8                 -12664897.040 8       593.000         283.000         494.000                  
G03  21422142.433    21422142.207    21422145.774                   -17838793.065 8 -17838793.067 8                 -13900345.589 9       313.000         243.000         673.000                  
G04  19283400.674    19283400.377    19283402.844                   -22352852.453 9 -22352852.438 9                 -17417809.615 9       630.000         567.000         774.000                  
G08  21045391.593    21045390.564    21045395.094                   -12800252.412 8 -12800252.415 8                  -9974228.409 9       321.000         252.000         658.000                  
G09  21144466.111    21144466.034    21144470.155                   -17825710.275 8 -17825710.277 8                 -13890169.679 9       369.000         411.000         843.000                  
G14  24518218.066    24518216.569    24518220.666                    -1710514.507 7  -1710514.493 6                  -1332873.955 6        74.000          20.000          36.000                  
G17  23128272.405    23128271.754    23128273.875                    -5275504.866 8  -5275504.862 7                  -4110776.100 8       166.000          60.000         175.000                  
G21  20041572.325    20041571.255    20041572.593                   -20483845.222 9 -20483845.224 8                 -15961430.947 8       548.000         281.000         226.000                  
G27  24273139.289    24273138.363    24273144.952                     -807734.023 8   -807734.013 6                   -629415.604 7       104.000          37.000          98.000                  
G31  24332352.454    24332351.399    24332353.411                    -3792488.098 7  -3792488.090 6                  -2955167.019 8        98.000          29.000         118.000                  
> 2024 10 31 10 57  0.0000000  0 10
G02  20225249.378    20225248.192    20225247.654                   -16485814.724 9 -16485814.727 8                 -12846078.234 9       598.000         296.000         517.000                  
G03  21373463.900    21373463.702    21373467.240                   -18094599.917 8 -18094599.921 8                 -14099675.483 9       326.000         276.000         691.000                  
G04  19301853.381    19301853.090    19301855.421                   -22255883.127 9 -22255883.113 9                 -17342249.064 9       617.000         549.000         772.000                  
G08  21103892.275    21103890.882    21103895.510                   -12492830.893 8 -12492830.899 8                  -9734679.186 9       307.000         236.000         637.000                  
G09  21189533.159    21189532.566    21189536.721                   -17588883.894 8 -17588883.898 8                 -13705629.635 9       362.000         389.000         893.000                  
G14  24533313.503    24533310.814    24533315.020                    -1631191.898 7  -1631191.886 6                  -1271064.065 6        72.000          25.000          23.000                  
G17  23073846.750    23073846.785    23073848.452                    -5561508.432 8  -5561508.442 7                  -4333635.785 8       171.000          65.000         185.000                  
G21  20012815.158    20012813.844    20012815.111                   -20634965.908 9 -20634965.911 8                 -16079187.240 8       561.000         304.000         240.000                  
G27  24339052.570    24339052.670    24339059.493                     -461352.250 7   -461352.248 6                   -359507.865 7        99.000          34.000          87.000                  
G31  24313877.167    24313877.983    24313880.129                    -3889566.941 7  -3889566.943 6                  -3030812.646 8        99.000          32.000         126.000                  
> 2024 10 31 10 57 10.0000000  0 10
G02  20181897.931    20181897.033    20181896.625                   -16713625.532 9 -16713625.533 8                 -13023593.050 9       596.000         287.000         528.000                  
G03  21325258.976    21325259.238    21325262.691                   -18347916.207 8 -18347916.211 8                 -14297064.685 9       340.000         297.000         717.000                  
G04  19321041.197    19321040.887    19321043.295                   -22155050.176 9 -22155050.161 9                 -17263677.897 9       608.000         527.000         742.000                  
G08  21163080.343    21163079.643    21163084.457                   -12181791.731 8 -12181791.733 8                  -9492311.020 9       294.000         209.000         649.000                  
G09  21235054.352    21235053.730    21235057.968                   -17349668.568 8 -17349668.572 8                 -13519228.076 9       352.000         367.000         893.000                  
G14  24548921.706    24548919.336    24548925.022                    -1549164.601 7  -1549164.622 6                  -1207146.643 6        72.000          22.000          24.000                  
G17  23019863.164    23019862.042    23019863.722                    -5845199.722 8  -5845199.724 7                  -4554693.703 8       178.000          74.000         201.000                  
G21  19985017.808    19985016.484    19985017.831                   -20781041.100 9 -20781041.102 8                 -16193011.978 8       570.000         309.000         244.000                  
G27  24405145.302    24405143.818    24405150.408                     -114042.683 7   -114042.691 6                    -88877.197 7        94.000          31.000          88.000                  
G31  24295574.066    24295574.575    24295576.635                    -3985750.380 7  -3985750.385 6                  -3105760.565 8        95.000          39.000         122.000                  
> 2024 10 31 10 57 20.0000000  0 10
G02  20139458.402    20139457.354    20139456.872                   -16936647.613 9 -16936647.613 8                 -13197376.393 9       600.000         294.000         555.000                  
G03  21277541.870    21277542.086    21277545.557                   -18598670.707 8 -18598670.710 8                 -14492457.688 9       348.000         318.000         761.000                  
G04  19340965.657    19340965.453    19340967.786                   -22050345.727 9 -22050345.715 9                 -17182089.980 9       603.000         515.000         710.000                  
G08  21222949.642    21222948.337    21222953.000                   -11867180.536 8 -11867180.538 8                  -9247159.461 9       273.000         182.000         643.000                  
G09  21281029.064    21281028.470    21281032.664                   -17108069.734 8 -17108069.738 8                 -13330969.245 9       331.000         324.000         885.000                  
G14  24565048.384    24565046.402    24565052.852                    -1464414.961 7  -1464414.963 6                  -1141107.877 6        70.000          24.000          19.000                  
G17  22966334.310    22966333.596    22966335.219                    -6126492.793 8  -6126492.790 7                  -4773882.883 8       180.000          71.000         212.000                  
G21  19958192.476    19958191.307    19958192.430                   -20922009.461 9 -20922009.464 8                 -16302857.371 8       593.000         325.000         256.000                  
G27  24471406.962    24471405.698    24471412.044                      234165.122 7    234165.108 6                    182453.376 7        88.000          29.000          80.000                  
G31  24277447.359    24277448.678    24277450.464                    -4081003.403 7  -4081003.409 6                  -3179983.498 8        99.000          30.000         126.000                  
> 2024 10 31 10 57 30.0000000  0 10
G02  20097933.920    20097932.858    20097932.393                   -17154859.708 9 -17154859.709 8                 -13367411.697 9       605.000         294.000         572.000                  
G03  21230314.421    21230314.219    21230317.730                   -18846853.657 8 -18846853.657 8                 -14685846.887 9       368.000         348.000         768.000                  
G04  19361616.824    19361616.328    19361618.702                   -21941823.996 9 -21941823.983 9                 -17097527.556 9       604.000         523.000         684.000                  
G08  21283476.597    21283475.958    21283480.961                   -11549104.381 8 -11549104.382 8                  -8999307.937 9       257.000         166.000         660.000                  
G09  21327444.310    21327444.006    21327448.207                   -16864154.342 8 -16864154.344 8                 -13140905.310 9       299.000         271.000         861.000                  
G14  24581685.347    24581683.097    24581688.735                    -1376987.405 7  -1376987.412 6                  -1072982.414 6        69.000          25.000          23.000                  
G17  22913266.807    22913266.293    22913267.938                    -6405362.882 8  -6405362.884 7                  -4991184.042 8       185.000          75.000         221.000                  
G21  19932338.602    19932337.291    19932338.556                   -21057872.195 9 -21057872.195 8                 -16408724.357 8       601.000         337.000         278.000                  
G27  24537820.585    24537821.308    24537828.115                      583180.567 7    583180.578 6                    454413.269 7        88.000          29.000          78.000                  
G31  24259493.424    24259493.980    24259495.838                    -4175352.466 7  -4175352.441 6                  -3253502.056 8        96.000          30.000         134.000                  
> 2024 10 31 10 57 40.0000000  0 10
G02  20057341.577    20057340.198    20057339.902                   -17368174.675 9 -17368174.676 8                 -13533631.060 9       611.000         299.000         604.000                  
G03  21183590.389    21183590.413    21183593.871                   -19092388.664 8 -19092388.666 8                 -14877172.762 9       381.000         364.000         759.000                  
G04  19382996.372    19382996.119    19382998.292                   -21829473.181 9 -21829473.167 9                 -17009981.430 9       610.000         524.000         646.000                  
G08  21344656.190    21344655.625    21344660.593                   -11227603.740 8 -11227603.742 8                  -8748787.982 9       251.000         143.000         667.000                  
G09  21374300.673    21374300.316    21374304.458                   -16617922.741 8 -16617922.743 8                 -12949036.547 9       279.000         236.000         843.000                  
G14  24598836.622    24598832.985    24598839.784                    -1286860.132 7  -1286860.132 6                  -1002753.312 6        66.000          22.000          28.000                  
G17  22860678.180    22860677.393    22860678.667                    -6681718.784 8  -6681718.789 7                  -5206526.100 8       190.000          81.000         234.000                  
G21  19907468.485    19907467.140    19907468.516                   -21188565.257 9 -21188565.257 8                 -16510563.025 8       603.000         338.000         294.000                  
G27  24604387.493    24604385.637    24604392.745                      932980.116 7    932980.088 6                    726984.104 7        81.000          29.000          69.000                  
G31  24241719.855    24241719.598    24241721.620                    -4268757.064 7  -4268757.067 6                  -3326284.669 8       100.000          31.000         137.000                  
> 2024 10 31 10 57 50.0000000  0 10
G02  20017685.815    20017684.912    20017684.471                   -17576564.772 9 -17576564.774 8                 -13696012.862 9       612.000         300.000         619.000                  
G03  21137374.200    21137373.738    21137377.135                   -19335258.011 8 -19335258.013 8                 -15066421.497 9       385.000         389.000         794.000                  
G04  19405095.446    19405095.316    19405097.553                   -21713340.646 9 -21713340.633 9                 -16919488.513 9       618.000         533.000         614.000                  
G08  21406468.146    21406467.919    21406473.124                   -10902777.614 8 -10902777.618 8                  -8495676.737 9       237.000         142.000         673.000                  
G09  21421586.439    21421586.095    21421590.375                   -16369433.924 8 -16369433.925 8                 -12755408.907 9       274.000         220.000         826.000                  
G14  24616494.979    24616490.664    24616496.160                    -1194070.511 7  -1194070.518 6                   -930449.683 6        64.000          26.000          27.000                  
G17  22808574.144    22808572.788    22808574.421                    -6955527.751 8  -6955527.753 7                  -5419883.542 8       200.000          80.000         241.000                  
G21  19883583.070    19883581.696    19883583.095                   -21314084.342 9 -21314084.342 8                 -16608370.021 8       602.000         335.000         307.000                  
G27  24671085.016    24671084.305    24671091.524                     1283482.109 7   1283482.105 6                   1000102.270 7        80.000          24.000          68.000                  
G31  24224121.313    24224120.948    24224123.417                    -4361235.469 7  -4361235.503 6                  -3398345.584 8        97.000          30.000         139.000                  
> 2024 10 31 10 58  0.0000000  0 10
G02  19978980.617    19978979.677    19978979.103                   -17779962.102 9 -17779962.103 8                 -13854504.201 9       615.000         310.000         632.000                  
G03  21091675.634    21091675.782    21091679.073                   -19575402.842 8 -19575402.843 8                 -15253547.227 9       408.000         425.000         858.000                  
G04  19427913.061    19427912.993    19427915.165                   -21593433.219 9 -21593433.206 9                 -16826054.123 9       620.000         542.000         589.000                  
G08  21468902.663    21468902.054    21468907.351                   -10574683.855 8 -10574683.859 8                  -8240019.292 9       233.000         138.000         675.000                  
G09  21469298.694    21469298.220    21469302.273                   -16118705.742 8 -16118705.745 8                 -12560036.308 9       263.000         218.000         809.000                  
G14  24634658.261    24634655.045    24634662.503                    -1098615.262 7  -1098615.248 6                   -856068.802 6        64.000          27.000          26.000                  
G17  22756968.268    22756967.741    22756968.956                    -7226716.017 8  -7226716.022 7                  -5631198.892 8       196.000          87.000         268.000                  
G21  19860690.464    19860688.967    19860690.538                   -21434385.332 9 -21434385.334 8                 -16702110.966 8       594.000         337.000         321.000                  
G27  24737909.398    24737908.841    24737915.752                     1634646.450 7   1634646.453 6                   1273736.544 7        74.000          21.000          62.000                  
G31  24206704.276    24206703.887    24206705.722                    -4452764.748 7  -4452764.775 6                  -3469666.920 8        98.000          30.000         145.000                  
> 2024 10 31 10 58 10.0000000  0 10
G02  19941235.245    19941233.863    19941233.509                   -17978315.955 9 -17978315.959 8                 -14009065.555 9       607.000         296.000         635.000                  
G03  21046504.301    21046504.204    21046507.333                   -19812780.673 8 -19812780.672 8                 -15438516.854 9       426.000         448.000         877.000                  
G04  19451444.728    19451444.367    19451446.656                   -21469774.554 9 -21469774.542 9                 -16729696.686 9       623.000         558.000         561.000                  
G08  21531945.290    21531943.767    21531949.278                   -10243396.459 8 -10243396.459 8                  -7981873.292 9       233.000         136.000         640.000                  
G09  21517430.149    21517429.660    21517433.856                   -15865772.340 8 -15865772.344 8                 -12362945.349 9       247.000         181.000         764.000                  
G14  24653327.914    24653324.094    24653332.266                    -1000507.767 7  -1000507.768 6                   -779621.408 6        60.000          20.000          22.000                  
G17  22705872.395    22705871.633    22705872.960                    -7495226.071 8  -7495226.064 7                  -5840427.318 8       202.000          82.000         305.000                  
G21  19838795.559    19838794.529    19838795.795                   -21549441.729 9 -21549441.731 8                 -16791765.215 8       583.000         319.000         331.000                  
G27  24804848.447    24804848.261    24804855.649                     1986417.218 7   1986417.214 6                   1547843.312 7        72.000          29.000          54.000                  
G31  24189468.490    24189467.968    24189470.079                    -4543338.156 8  -4543338.144 6                  -3540243.406 8       101.000          33.000         148.000                  
> 2024 10 31 10 58 20.0000000  0 10
G02  19904456.147    19904455.039    19904454.334                   -18171590.642 9 -18171590.643 8                 -14159669.121 9       607.000         306.000         636.000                  
G03  21001864.663    21001864.614    21001867.585                   -20047363.092 8 -20047363.093 8                 -15621308.240 9       418.000         451.000         883.000                  
G04  19475682.753    19475682.339    19475684.647                   -21342402.908 9 -21342402.898 9                 -16630446.012 9       621.000         554.000         545.000                  
G08  21595577.446    21595577.363    21595582.009                    -9909003.370 8  -9909003.373 8                  -7721307.266 9       234.000         133.000         596.000                  
G09  21565972.589    21565971.820    21565975.974                   -15610681.879 8 -15610681.880 8                 -12164173.563 9       242.000         175.000         772.000                  
G14  24672497.490    24672492.099    24672498.370                     -899776.037 7   -899776.052 6                   -701129.124 6        62.000          24.000          26.000                  
G17  22655293.941    22655293.566    22655295.148                    -7761014.353 8  -7761014.353 7                  -6047534.882 8       202.000          95.000         336.000                  
G21  19817901.314    19817900.124    19817901.226                   -21659242.283 9 -21659242.285 8                 -16877324.004 8       582.000         318.000         328.000                  
G27  24871893.171    24871890.970    24871897.923                     2338724.955 7   2338724.966 6                   1822368.475 7        71.000          24.000          56.000                  
G31  24172412.534    24172412.603    24172415.155                    -4632962.967 8  -4632962.966 6                  -3610080.746 8       106.000          34.000         157.000                  
> 2024 10 31 10 58 30.0000000  0 10
G02  19868658.117    19868657.045    19868656.650                   -18359709.101 9 -18359709.104 8                 -14306254.850 9       606.000         295.000         671.000                  
G03  20957770.458    20957770.243    20957773.335                   -20279079.432 8 -20279079.431 8                 -15801866.316 9       417.000         447.000         895.000                  
G04  19500627.715    19500627.617    19500629.716                   -21211314.695 9 -21211314.685 9                 -16528299.310 9       624.000         541.000         541.000                  
G08  21659793.074    21659792.514    21659797.215                    -9571550.018 8  -9571550.026 8                  -7458356.617 9       231.000         135.000         545.000                  
G09  21614924.202    21614923.444    21614927.420                   -15353440.122 8 -15353440.125 8                 -11963725.439 9       242.000         176.000         791.000                  
G14  24692167.965    24692163.600    24692169.978                     -796406.099 7   -796406.102 6                   -620581.054 6        60.000          18.000          21.000                  
G17  22605250.366    22605249.637    22605251.421                    -8023995.141 8  -8023995.144 7                  -6252454.809 8       206.000          99.000         360.000                  
G21  19798017.124    19798015.752    19798016.883                   -21763734.649 9 -21763734.647 8                 -16958746.546 8       577.000         309.000         342.000                  
G27  24939030.750    24939030.108    24939037.468                     2691543.051 7   2691543.053 6                   2097291.325 6        65.000          25.000          48.000                  
G31  24155544.037    24155544.851    24155547.086                    -4721603.911 8  -4721603.911 6                  -3679151.425 8       108.000          34.000         152.000                  
> 2024 10 31 10 58 40.0000000  0 10
G02  19833844.470    19833843.206    19833842.781                   -18542656.984 9 -18542656.983 8                 -14448811.562 9       618.000         311.000         679.000                  
G03  20914223.346    20914223.142    20914226.168                   -20507920.791 8 -20507920.793 8                 -15980184.152 9       441.000         499.000         952.000                  
G04  19526269.088    19526268.939    19526271.090                   -21076568.545 9 -21076568.536 9                 -16423302.266 9       626.000         554.000         518.000                  
G08  21724570.318    21724569.674    21724574.502                    -9231143.385 8  -9231143.388 8                  -7193104.709 9       232.000         124.000         504.000                  
G09  21664271.682    21664271.299    21664275.386                   -15094114.523 8 -15094114.527 8                 -11761653.544 9       243.000         176.000         822.000                  
G14  24712328.762    24712326.313    24712333.773                     -690446.180 7   -690446.195 6                   -538014.733 6        58.000          21.000          20.000                  
G17  22555745.069    22555744.778    22555746.401                    -8284144.582 8  -8284144.585 7                  -6455168.490 8       209.000          97.000         385.000                  
G21  19779140.697    19779139.506    19779140.657                   -21862929.641 9 -21862929.642 8                 -17036041.268 8       579.000         312.000         346.000                  
G27  25006250.604    25006250.011    25006257.015                     3044783.603 7   3044783.590 6                   2372543.341 6        66.000          26.000          38.000                  
G31  24138859.341    24138858.828    24138860.780                    -4809287.458 8  -4809287.478 6                  -3747476.081 8       113.000          31.000         151.000                  
> 2024 10 31 10 58 50.0000000  0 10
G02  19800029.663    19800028.670    19800028.033                   -18720353.898 9 -18720353.901 8                 -14587276.617 9       630.000         320.000         680.000                  
G03  20871237.840    20871237.778    20871240.639                   -20733811.203 8 -20733811.203 9                 -16156202.551 9       476.000         572.000        1021.000                  
G04  19552608.005    19552607.864    19552610.047                   -20938156.392 9 -20938156.384 9                 -16315448.598 9       627.000         554.000         506.000                  
G08  21789901.978    21789901.691    21789906.289                    -8887822.988 8  -8887822.991 8                  -6925582.341 8       232.000         137.000         456.000                  
G09  21714016.584    21714015.832    21714019.879                   -14832705.308 8 -14832705.313 8                 -11557958.056 9       240.000         178.000         826.000                  
G14  24732989.263    24732985.759    24732993.370                     -581878.235 7   -581878.232 6                   -453416.423 6        60.000          23.000          26.000                  
G17  22506796.617    22506796.182    22506797.509                    -8541371.436 8  -8541371.441 8                  -6655604.843 8       212.000         104.000         409.000                  
G21  19761282.949    19761281.788    19761282.854                   -21956772.273 9 -21956772.276 8                 -17109165.323 8       583.000         319.000         356.000                  
G27  25073545.833    25073545.964    25073553.614                     3398426.421 7   3398426.409 6                   2648108.755 6        60.000          26.000          37.000                  
G31  24122364.540    24122362.995    24122365.154                    -4895972.820 8  -4895972.816 6                  -3815022.930 8       114.000          33.000         143.000                  
> 2024 10 31 10 59  0.0000000  0 10
G02  19767218.122    19767217.126    19767216.348                   -18892779.777 9 -18892779.779 8                 -14721634.371 9       639.000         324.000         704.000                  
G03  20828816.820    20828816.918    20828819.775                   -20956734.165 8 -20956734.166 9                 -16329908.658 9       489.000         597.000        1101.000                  
G04  19579634.853    19579634.512    19579636.674                   -20796130.010 9 -20796130.002 9                 -16204778.649 9       624.000         539.000         516.000                  
G08  21855769.461    21855768.951    21855773.574                    -8541687.547 8  -8541687.552 8                  -6655866.433 8       230.000         131.000         414.000                  
G09  21764146.099    21764145.775    21764149.559                   -14569271.976 8 -14569271.978 8                 -11352685.336 9       241.000         168.000         834.000                  
G14  24754137.512    24754134.441    24754141.066                     -470742.494 7   -470742.486 6                   -366817.076 6        59.000          20.000          22.000                  
G17  22458410.648    22458409.543    22458410.828                    -8795644.167 8  -8795644.168 8                  -6853739.283 8       217.000         102.000         432.000                  
G21  19744442.942    19744441.445    19744442.779                   -22045268.147 9 -22045268.148 8                 -17178123.079 8       593.000         319.000         371.000                  
G27  25140902.555    25140903.660    25140911.697                     3752392.467 7   3752392.437 6                   2923926.032 6        61.000          23.000          35.000                  
G31  24106055.849    24106053.964    24106055.765                    -4981678.480 8  -4981678.494 6                  -3881806.404 8       117.000          35.000         142.000                  
> 2024 10 31 10 59 10.0000000  0 10
G02  19735420.889    19735419.902    19735419.281                   -19059875.034 9 -19059875.035 8                 -14851838.395 9       658.000         348.000         712.000                  
G03  20786971.761    20786971.526    20786974.411                   -21176632.639 8 -21176632.640 9                 -16501258.032 9       492.000         623.000        1178.000                  
G04  19607347.048    19607346.856    19607348.838                   -20650500.975 9 -20650500.968 9                 -16091301.436 9       622.000         549.000         524.000                  
G08  21922161.461    21922161.055    21922165.559                    -8192794.801 8  -8192794.809 8                  -6384001.982 8       220.000         115.000         363.000                  
G09  21814657.530    21814657.140    21814661.004                   -14303833.301 8 -14303833.306 8                 -11145850.010 9       236.000         169.000         822.000                  
G14  24775776.142    24775771.820    24775776.307                     -357040.482 7   -357040.447 6                   -278218.098 6        59.000          21.000          17.000                  
G17  22410599.117    22410598.836    22410600.160                    -9046890.585 8  -9046890.591 7                  -7049515.567 8       215.000         100.000         449.000                  
G21  19728626.339    19728625.146    19728626.266                   -22128383.623 9 -22128383.625 8                 -17242888.319 8       599.000         340.000         377.000                  
G27  25208316.440    25208315.703    25208323.475                     4106643.876 7   4106643.881 6                   3199965.621 6        57.000          23.000          34.000                  
G31  24089936.163    24089934.894    24089936.885                    -5066382.270 8  -5066382.260 6                  -3947809.203 8       122.000          37.000         147.000                  
> 2024 10 31 10 59 20.0000000  0 10
G02  19704646.460    19704645.304    19704644.506                   -19221596.456 9 -19221596.459 8                 -14977855.016 9       665.000         349.000         714.000                  
G03  20745709.534    20745709.460    20745712.547                   -21393464.979 8 -21393464.980 9                 -16670218.213 9       497.000         621.000        1256.000                  
G04  19635739.582    19635739.529    19635741.529                   -20501296.541 9 -20501296.536 9                 -15975038.199 9       619.000         541.000         534.000                  
G08  21989064.368    21989063.693    21989068.444                    -7841217.519 8  -7841217.525 8                  -6110045.680 8       214.000         109.000         326.000                  
G09  21865543.958    21865543.291    21865547.447                   -14036423.232 8 -14036423.235 8                 -10937478.529 9       234.000         164.000         796.000                  
G14  24797897.371    24797892.777    24797898.506                     -240788.893 7   -240788.923 6                   -187632.302 6        59.000          18.000          20.000                  
G17  22363375.137    22363374.945    22363375.931                    -9295053.863 8  -9295053.865 8                  -7242889.403 8       217.000         103.000         480.000                  
G21  19713837.115    19713835.900    19713836.979                   -22206101.734 9 -22206101.737 8                 -17303447.819 8       602.000         337.000         381.000                  
G27  25275773.895    25275772.316    25275780.545                     4461128.003 7   4461128.012 6                   3476186.543 6        56.000          23.000          33.000                  
G31  24074008.931    24074008.671    24074010.167                    -5150076.904 8  -5150076.886 6                  -4013025.640 8       124.000          41.000         145.000                  
> 2024 10 31 10 59 30.0000000  0 10
G02  19674899.700    19674898.549    19674897.992                   -19377915.733 9 -19377915.734 8                 -15099662.177 9       678.000         371.000         731.000                  
G03  20705036.591    20705036.352    20705039.405                   -21607203.277 8 -21607203.279 9                 -16836767.455 9       495.000         623.000        1305.000                  
G04  19664805.023    19664804.629    19664806.728                   -20348558.007 9 -20348558.003 9                 -15856021.115 9       608.000         517.000         548.000                  
G08  22056461.710    22056461.043    22056465.772                    -7487041.692 8  -7487041.701 8                  -5834064.539 8       208.000         105.000         298.000                  
G09  21916796.294    21916795.586    21916800.053                   -13767089.227 8 -13767089.232 8                 -10727607.885 9       223.000         150.000         795.000                  
G14  24820498.751    24820494.097    24820500.281                     -122018.395 7   -122018.363 6                    -95084.865 6        60.000          22.000          19.000                  
G17  22316746.232    22316745.730    22316746.997                    -9540091.087 8  -9540091.090 7                  -7433827.364 9       216.000         100.000         505.000                  
G21  19700075.194    19700073.913    19700075.222                   -22278420.480 9 -22278420.481 8                 -17359800.025 8       602.000         350.000         391.000                  
G27  25343263.033    25343260.272    25343268.482                     4815778.696 7   4815778.658 6                   3752537.138 6        57.000          21.000          27.000                  
G31  24058272.743    24058272.850    24058274.264                    -5232768.856 8  -5232768.865 6                  -4077460.752 8       134.000          39.000         140.000                  
> 2024 10 31 10 59 40.0000000  0 10
G02  19646194.191    19646192.977    19646192.188                   -19528765.046 9 -19528765.046 8                 -15217207.031 9       699.000         386.000         719.000                  
G03  20664965.068    20664965.088    20664968.087                   -21817779.082 9 -21817779.083 9                 -17000852.427 9       504.000         650.000        1321.000                  
G04  19694542.313    19694542.030    19694544.210                   -20192286.346 9 -20192286.340 9                 -15734250.948 9       596.000         502.000         554.000                  
G08  22124344.794    22124344.579    22124349.300                    -7130312.302 8  -7130312.303 8                  -5556093.612 8       200.000         103.000         292.000                  
G09  21968413.986    21968413.040    21968417.433                   -13495837.882 8 -13495837.886 8                 -10516243.209 9       226.000         151.000         785.000                  
G14  24843580.444    24843577.271    24843583.481                        -719.331 7      -719.310 6                      -565.987 6        61.000          22.000          20.000                  
G17  22270727.919    22270727.502    22270728.753                    -9781918.675 8  -9781918.676 8                  -7622264.315 9       210.000         104.000         535.000                  
G21  19687348.557    19687347.495    19687348.668                   -22345298.533 9 -22345298.534 8                 -17411912.731 8       607.000         340.000         404.000                  
G27  25410776.599    25410776.034    25410784.756                     5170572.390 7   5170572.377 6                   4028999.146 6        51.000          25.000          29.000                  
G31  24042734.316    24042734.120    24042735.385                    -5314423.750 8  -5314423.746 6                  -4141087.761 8       134.000          43.000         147.000                  
> 2024 10 31 10 59 50.0000000  0  9
G02  19618531.263    19618530.139    19618529.418                   -19674133.341 9 -19674133.344 8                 -15330480.968 9       704.000         394.000         714.000                  
G03  20625498.002    20625497.901    20625500.992                   -22025179.754 9 -22025179.756 9                 -17162463.274 9       514.000         657.000        1326.000                  
G04  19724941.224    19724941.011    19724943.065                   -20032538.546 9 -20032538.541 8                 -15609772.108 9       579.000         467.000         562.000                  
G08  22192694.926    22192694.682    22192699.621                    -6771129.605 8  -6771129.607 7                  -5276211.016 8       193.000          98.000         287.000                  
G09  22020383.863    22020383.878    22020387.828                   -13222731.372 8 -13222731.373 8                 -10303432.946 9       239.000         166.000         789.000                  
G14  24867135.411    24867131.920    24867138.118                      123061.918 7    123061.896 6                     95886.945 6        61.000          23.000          23.000                  
G17  22225325.279    22225324.878    22225326.336                   -10020508.851 8 -10020508.854 7                  -7808178.618 9       207.000          98.000         556.000                  
G21  19675654.417    19675653.303    19675654.400                   -22406751.644 9 -22406751.644 8                 -17459798.214 8       609.000         344.000         393.000                  
G31  24027389.193    24027388.831    24027390.069                    -5395062.782 8  -5395062.785 7                  -4203923.196 8       135.000          51.000         143.000                  
> 2024 10 31 11 00  0.0000000  0  9
G02  19591921.946    19591920.989    19591919.924                   -19813966.174 9 -19813966.176 8                 -15439441.558 9       710.000         413.000         713.000                  
G03  20586645.962    20586646.053    20586648.868                   -22229348.200 9 -22229348.202 9                 -17321555.504 9       521.000         700.000        1293.000                  
G04  19755999.326    19755999.016    19756001.069                   -19869327.340 9 -19869327.336 8                 -15482594.514 9       565.000         463.000         560.000                  
G08  22261502.015    22261501.038    22261506.328                    -6409548.820 8  -6409548.822 7                  -4994459.786 8       195.000          91.000         288.000                  
G09  22072704.513    22072703.974    22072708.094                   -12947787.058 8 -12947787.058 8                 -10089190.630 9       254.000         190.000         791.000                  
G14  24891161.336    24891158.637    24891165.540                      249323.285 7    249323.269 6                    194272.489 6        65.000          20.000          21.000                  
G17  22180552.775    22180552.209    22180553.855                   -10255789.256 8 -10255789.269 7                  -7991513.885 9       202.000          96.000         567.000                  
G21  19664997.834    19664996.619    19664997.680                   -22462752.371 9 -22462752.374 8                 -17503435.093 8       604.000         341.000         390.000                  
G31  24012241.564    24012241.154    24012243.142                    -5474662.445 8  -5474662.442 7                  -4265948.724 8       138.000          51.000         150.000                  
> 2024 10 31 11 00 10.0000000  0  9
G02  19566372.774    19566371.644    19566370.840                   -19948227.507 9 -19948227.508 8                 -15544060.724 9       712.000         400.000         718.000                  
G03  20548416.611    20548416.734    20548419.506                   -22430244.527 9 -22430244.528 9                 -17478098.037 9       550.000         772.000        1272.000                  
G04  19787710.772    19787710.354    19787712.531                   -19702682.817 9 -19702682.813 8                 -15352741.617 9       554.000         429.000         566.000                  
G08  22330751.546    22330750.708    22330755.478                    -6045641.802 8  -6045641.801 7                  -4710895.916 8       190.000          86.000         288.000                  
G09  22125368.274    22125367.499    22125371.535                   -12671039.225 8 -12671039.228 8                  -9873542.975 9       265.000         211.000         767.000                  
G14  24915656.316    24915653.016    24915661.573                      378045.293 7    378045.296 6                    294567.548 6        63.000          22.000          21.000                  
G17  22136421.269    22136419.984    22136421.552                   -10487705.303 8 -10487705.307 7                  -8172227.586 9       203.000          94.000         594.000                  
G21  19655380.622    19655379.287    19655380.339                   -22513291.602 9 -22513291.601 8                 -17542816.264 8       601.000         337.000         384.000                  
G31  23997293.036    23997292.899    23997294.655                    -5553216.085 8  -5553216.075 6                  -4327159.202 8       149.000          46.000         143.000                  
> 2024 10 31 11 00 20.0000000  0  9
G02  19541888.206    19541887.034    19541886.298                   -20076894.892 9 -20076894.893 8                 -15644320.971 9       726.000         417.000         719.000                  
G03  20510815.166    20510815.181    20510817.944                   -22627841.354 9 -22627841.357 9                 -17632069.542 9       560.000         782.000        1245.000                  
G04  19820067.261    19820067.023    19820069.183                   -19532647.669 9 -19532647.665 8                 -15220246.673 9       541.000         421.000         570.000                  
G08  22400427.007    22400426.718    22400431.546                    -5679492.233 8  -5679492.243 7                  -4425584.612 8       188.000          91.000         281.000                  
G09  22178366.103    22178365.245    22178369.367                   -12392534.217 8 -12392534.220 8                  -9656526.096 9       267.000         214.000         751.000                  
G14  24940613.302    24940610.032    24940615.212                      509195.863 7    509195.840 6                    396758.597 6        69.000          20.000          17.000                  
G17  22092936.806    22092936.050    22092937.687                   -10716214.528 8 -10716214.527 7                  -8350286.621 9       204.000          91.000         621.000                  
G21  19646801.594    19646800.436    19646801.330                   -22558374.112 9 -22558374.116 8                 -17577945.447 8       607.000         355.000         379.000                  
G31  23982543.846    23982542.770    23982544.009                    -5630729.195 8  -5630729.188 7                  -4387558.883 8       147.000          53.000         143.000                  
> 2024 10 31 11 00 30.0000000  0  9
G02  19518479.499    19518478.460    19518477.490                   -20199908.121 9 -20199908.123 8                 -15740175.383 9       736.000         430.000         725.000                  
G03  20473854.082    20473854.175    20473857.038                   -22822072.437 9 -22822072.438 9                 -17783418.384 9       552.000         774.000        1281.000                  
G04  19853068.152    19853067.979    19853070.246                   -19359225.786 9 -19359225.784 8                 -15085112.720 9       539.000         421.000         570.000                  
G08  22470521.222    22470520.801    22470525.781                    -5311144.258 8  -5311144.260 7                  -4138560.273 8       186.000          86.000         272.000                  
G09  22231696.428    22231696.221    22231700.141                   -12112279.151 8 -12112279.154 8                  -9438145.532 9       265.000         219.000         732.000                  
G14  24966033.367    24966031.206    24966036.182                      642781.679 7    642781.716 6                    500851.473 6        70.000          24.000          18.000                  
G17  22050116.581    22050115.874    22050117.515                   -10941235.746 8 -10941235.743 7                  -8525627.727 9       205.000          89.000         644.000                  
G21  19639267.447    19639266.108    19639266.980                   -22597966.891 9 -22597966.893 8                 -17608796.919 8       618.000         360.000         382.000                  
G31  23967996.883    23967996.734    23967998.172                    -5707168.143 8  -5707168.147 7                  -4447121.558 8       150.000          54.000         147.000                  
> 2024 10 31 11 00 40.0000000  0  9
G02  19496146.830    19496145.639    19496144.809                   -20317267.404 9 -20317267.407 8                 -15831624.125 9       744.000         437.000         722.000                  
G03  20437535.192    20437535.026    20437537.831                   -23012930.768 9 -23012930.768 9                 -17932139.100 9       557.000         790.000        1362.000                  
G04  19886701.911    19886701.539    19886703.774                   -19182480.381 9 -19182480.379 8                 -14947389.005 9       538.000         409.000         547.000                  
G08  22541013.955    22541013.822    22541018.955                    -4940700.591 8  -4940700.595 7                  -3849902.923 8       176.000          87.000         268.000                  
G09  22285347.711    22285347.361    22285351.317                   -11830339.986 8 -11830339.987 8                  -9218452.696 9       261.000         209.000         701.000                  
G14  24991910.308    24991905.711    24991910.411                      778750.097 7    778750.114 6                    606800.868 6        68.000          24.000          20.000                  
G17  22007964.238    22007963.474    22007964.972                   -11162747.084 8 -11162747.095 7                  -8698233.870 9       208.000          98.000         634.000                  
G21  19632772.491    19632771.289    19632772.167                   -22632097.353 9 -22632097.357 8                 -17635392.040 8       629.000         372.000         373.000                  
G31  23953650.480    23953650.772    23953651.688                    -5782558.081 8  -5782558.088 7                  -4505866.803 8       154.000          54.000         146.000                  
> 2024 10 31 11 00 50.0000000  0  9
G02  19474902.044    19474900.940    19474899.947                   -20428909.199 9 -20428909.203 8                 -15918617.685 9       758.000         452.000         734.000                  
G03  20401871.379    20401871.253    20401874.135                   -23200344.557 9 -23200344.559 9                 -18078175.760 9       558.000         802.000        1433.000                  
G04  19920968.105    19920967.751    19920970.005                   -19002409.880 9 -19002409.877 8                 -14807074.309 9       544.000         418.000         536.000                  
G08  22611899.637    22611898.935    22611904.138                    -4568198.387 8  -4568198.398 7                  -3559641.520 8       178.000          80.000         252.000                  
G09  22339319.341    22339318.754    22339322.858                   -11546717.456 8 -11546717.460 8                  -8997448.153 9       260.000         197.000         676.000                  
G14  25018239.619    25018234.603    25018239.384                      917113.205 7    917113.191 6                    714614.696 6        66.000          20.000          16.000                  
G17  21966495.912    21966495.576    21966497.103                   -11380661.850 8 -11380661.852 7                  -8868037.491 9       212.000         100.000         647.000                  
G21  19627323.875    19627322.775    19627323.596                   -22660729.361 9 -22660729.360 8                 -17657702.649 8       641.000         380.000         373.000                  
G31  23939511.486    23939511.252    23939512.393                    -5856859.149 8  -5856859.148 7                  -4563763.579 8       155.000          57.000         148.000                  
> 2024 10 31 11 01  0.0000000  0  9
G02  19454745.176    19454743.972    19454742.983                   -20534834.503 9 -20534834.505 8                 -16001156.839 9       757.000         452.000         753.000                  
G03  20366864.729    20366864.716    20366867.565                   -23384305.258 9 -23384305.259 9                 -18221521.705 9       565.000         816.000        1539.000                  
G04  19955855.379    19955855.137    19955857.165                   -18819075.973 9 -18819075.971 8                 -14664216.695 9       554.000         438.000         509.000                  
G08  22683157.294    22683156.759    22683161.683                    -4193737.311 8  -4193737.316 7                  -3267853.722 8       173.000          82.000         234.000                  
G09  22393599.174    22393598.545    22393602.627                   -11261475.088 8 -11261475.091 8                  -8775181.397 9       259.000         206.000         640.000                  
G14  25045014.885    25045011.620    25045017.167                     1057819.780 7   1057819.768 6                    824255.342 6        66.000          20.000          18.000                  
G17  21925717.272    21925716.579    21925718.092                   -11594956.729 8 -11594956.731 8                  -9035020.426 9       221.000         116.000         664.000                  
G21  19622916.286    19622915.189    19622916.047                   -22683891.251 9 -22683891.250 8                 -17675750.831 8       651.000         389.000         380.000                  
G31  23925575.943    23925575.026    23925576.198                    -5930094.245 8  -5930094.240 7                  -4620829.743 8       155.000          61.000         154.000                  
> 2024 10 31 11 01 10.0000000  0 10
G02  19435686.867    19435685.726    19435684.583                   -20634986.268 9 -20634986.269 8                 -16079197.136 9       769.000         472.000         762.000                  
G03  20332527.988    20332528.113    20332530.999                   -23564745.200 9 -23564745.202 9                 -18362124.208 9       562.000         802.000        1686.000                  
G04  19991363.228    19991363.190    19991364.954                   -18632481.159 9 -18632481.157 8                 -14518818.122 8       562.000         452.000         485.000                  
G08  22754779.873    22754779.575    22754784.525                    -3817357.137 8  -3817357.131 7                  -2974570.521 8       167.000          68.000         220.000                  
G09  22448186.371    22448186.105    22448190.084                   -10974616.770 8 -10974616.774 8                  -8551655.459 9       255.000         194.000         602.000                  
G14  25072236.418    25072234.812    25072240.401                     1200877.783 7   1200877.754 6                    935716.550 6        70.000          20.000          19.000                  
G17  21885642.942    21885642.434    21885643.698                   -11805549.369 8 -11805549.372 8                  -9199118.505 9       235.000         125.000         674.000                  
G21  19619555.566    19619554.312    19619555.113                   -22701553.281 9 -22701553.282 8                 -17689513.416 8       660.000         402.000         372.000                  
G28  24729837.404    24729850.845    24729863.276                     -243195.612 7   -243195.630 6                   -189504.584 6        72.000          21.000          15.000                  
G31  23911849.429    23911848.557    23911849.805                    -6002226.902 8  -6002226.902 7                  -4677036.887 8       157.000          61.000         159.000                  
> 2024 10 31 11 01 20.0000000  0 10
G02  19417726.364    19417725.267    19417724.174                   -20729369.104 9 -20729369.104 8                 -16152742.167 9       771.000         472.000         778.000                  
G03  20298862.739    20298862.726    20298865.783                   -23741657.212 9 -23741657.213 9                 -18499977.676 9       556.000         775.000        1834.000                  
G04  20027479.619    20027479.358    20027481.259                   -18442688.356 9 -18442688.355 8                 -14370927.615 8       567.000         455.000         462.000                  
G08  22826749.686    22826748.438    22826753.865                    -3439157.221 8  -3439157.226 7                  -2679869.343 8       161.000          62.000         196.000                  
G09  22503069.437    22503068.731    22503072.806                   -10686206.400 8 -10686206.406 8                  -8326920.138 9       251.000         189.000         563.000                  
G14  25099898.986    25099895.558    25099901.424                     1346235.124 7   1346235.130 6                   1048980.955 6        67.000          24.000          20.000                  
G17  21846277.493    21846276.635    21846277.773                   -12012418.052 8 -12012418.056 8                  -9360314.805 9       253.000         146.000         672.000                  
G21  19617234.841    19617233.717    19617234.677                   -22713747.400 9 -22713747.403 8                 -17699015.294 8       656.000         400.000         381.000                  
G28  24684360.179    24684369.812    24684378.640                     -482183.497 7   -482183.489 6                   -375726.332 6        76.000          23.000          19.000                  
G31  23898328.316    23898327.719    23898328.260                    -6073280.581 8  -6073280.576 7                  -4732403.290 8       155.000          62.000         154.000                  
> 2024 10 31 11 01 30.0000000  0 10
G02  19400874.510    19400873.369    19400872.273                   -20817926.307 9 -20817926.308 8                 -16221747.745 9       772.000         469.000         778.000                  
G03  20265882.179    20265882.050    20265885.115                   -23914971.676 9 -23914971.677 9                 -18635027.868 9       553.000         783.000        1968.000                  
G04  20064204.353    20064204.222    20064206.162                   -18249697.883 9 -18249697.882 8                 -14220545.413 8       570.000         462.000         445.000                  
G08  22899057.559    22899057.053    22899062.281                    -3059173.646 8  -3059173.652 7                  -2383778.304 8       153.000          57.000         181.000                  
G09  22558247.146    22558246.766    22558250.680                   -10396244.885 8 -10396244.885 8                  -8100976.132 9       243.000         177.000         527.000                  
G14  25127996.858    25127996.167    25128000.346                     1493900.823 7   1493900.835 6                   1164045.295 6        67.000          23.000          21.000                  
G17  21807635.434    21807635.379    21807636.475                   -12215478.599 8 -12215478.601 8                  -9518543.725 9       265.000         153.000         660.000                  
G21  19615960.565    19615959.335    19615960.206                   -22720444.230 9 -22720444.231 8                 -17704233.569 8       651.000         387.000         384.000                  
G28  24638959.586    24638963.469    24638987.774                     -720774.802 7   -720774.795 6                   -561644.071 6        80.000          19.000          19.000                  
G31  23885019.975    23885019.551    23885020.049                    -6143215.937 8  -6143215.926 7                  -4786898.294 8       157.000          56.000         153.000                  
> 2024 10 31 11 01 40.0000000  0 10
G02  19385130.458    19385129.161    19385128.051                   -20900661.935 9 -20900661.938 8                 -16286217.034 9       768.000         470.000         770.000                  
G03  20233587.722    20233587.778    20233590.964                   -24084678.494 9 -24084678.495 9                 -18767266.911 9       546.000         751.000        2153.000                  
G04  20101526.307    20101526.146    20101528.213                   -18053569.490 9 -18053569.487 8                 -14067718.082 8       566.000         463.000         424.000                  
G08  22971687.785    22971686.957    22971692.240                    -2677501.161 8  -2677501.163 7                  -2086371.240 8       148.000          53.000         162.000                  
G09  22613709.108    22613708.501    22613712.371                   -10104792.057 8 -10104792.059 8                  -7873870.068 9       233.000         167.000         501.000                  
G14  25156528.468    25156525.323    25156530.670                     1643825.837 7   1643825.828 6                   1280872.806 6        63.000          19.000          15.000                  
G17  21769724.141    21769723.486    21769724.578                   -12414706.527 8 -12414706.529 8                  -9673786.201 9       270.000         159.000         650.000                  
G21  19615726.195    19615725.239    19615726.070                   -22721674.944 9 -22721674.945 8                 -17705192.539 8       641.000         388.000         374.000                  
G28  24593629.941    24593633.415    24593641.699                     -958973.352 7   -958973.345 6                   -747250.761 6        83.000          25.000          25.000                  
G31  23871920.503    23871920.047    23871920.884                    -6212052.540 8  -6212052.534 7                  -4840537.119 8       157.000          66.000         157.000                  
> 2024 10 31 11 01 50.0000000  0 10
G02  19370500.734    19370499.702    19370498.491                   -20977540.757 9 -20977540.758 8                 -16346122.576 9       764.000         458.000         760.000                  
G03  20201989.809    20201989.787    20201993.004                   -24250727.068 9 -24250727.070 9                 -18896655.369 9       554.000         771.000        2291.000                  
G04  20139441.990    20139441.749    20139443.681                   -17854322.215 9 -17854322.214 8                 -13912460.455 8       569.000         452.000         418.000                  
G08  23044628.967    23044627.961    23044633.302                    -2294193.059 8  -2294193.058 7                  -1787689.672 8       140.000          57.000         139.000                  
G09  22669450.713    22669450.237    22669454.254                    -9811866.760 8  -9811866.766 8                  -7645616.628 8       226.000         151.000         487.000                  
G14  25185486.325    25185483.557    25185487.411                     1796001.264 7   1796001.270 6                   1399443.535 6        60.000          22.000          19.000                  
G17  21732554.352    21732553.470    21732554.252                   -12610036.968 8 -12610036.972 8                  -9825991.678 9       274.000         161.000         616.000                  
G21  19616533.660    19616532.456    19616533.477                   -22717431.295 9 -22717431.296 8                 -17701885.772 8       635.000         378.000         378.000                  
G28  24548385.580    24548386.366    24548406.704                    -1196741.887 7  -1196741.880 6                   -932527.440 6        86.000          29.000          17.000                  
G31  23859034.572    23859033.716    23859034.990                    -6279768.986 8  -6279768.970 7                  -4893303.093 8       159.000          59.000         161.000                  
> 2024 10 31 11 02  0.0000000  0 10
G02  19356990.058    19356988.760    19356987.728                   -21048540.354 9 -21048540.356 8                 -16401446.907 9       761.000         459.000         755.000                  
G03  20171095.395    20171095.349    20171098.464                   -24413078.531 9 -24413078.532 9                 -19023162.970 9       580.000         852.000        2346.000                  
G04  20177945.171    20177944.972    20177946.826                   -17651986.631 9 -17651986.629 8                 -13754796.353 8       566.000         457.000         382.000                  
G08  23117869.710    23117868.074    23117873.348                    -1909313.443 8  -1909313.457 7                  -1487783.550 8       132.000          51.000         125.000                  
G09  22725466.927    22725466.574    22725470.554                    -9517498.898 8  -9517498.895 8                  -7416239.103 8       224.000         147.000         477.000                  
G14  25214867.063    25214865.269    25214868.680                     1950406.646 7   1950406.639 6                   1519728.354 6        55.000          19.000          17.000                  
G17  21696135.415    21696135.088    21696135.798                   -12801416.805 8 -12801416.808 8                  -9975118.760 9       275.000         167.000         628.000                  
G21  19618382.091    19618380.894    19618381.893                   -22707717.892 9 -22707717.894 8                 -17694316.859 8       630.000         368.000         378.000                  
G28  24503227.218    24503226.900    24503234.660                    -1434054.183 7  -1434054.227 6                  -1117443.706 6        90.000          26.000          30.000                  
G31  23846363.053    23846362.973    23846363.744                    -6346355.352 8  -6346355.351 7                  -4945188.496 8       161.000          62.000         165.000                  
> 2024 10 31 11 02 10.0000000  0 10
G02  19344598.219    19344597.222    19344595.947                   -21113659.099 9 -21113659.100 8                 -16452188.759 9       759.000         455.000         752.000                  
G03  20140908.312    20140908.113    20140911.170                   -24571713.467 9 -24571713.468 9                 -19146774.581 9       609.000         943.000        2341.000                  
G04  20217026.510    20217026.247    20217028.177                   -17446612.512 9 -17446612.512 8                 -13594764.565 8       563.000         460.000         352.000                  
G08  23191393.373    23191391.991    23191397.038                    -1522944.870 8  -1522944.878 6                  -1186717.203 8       125.000          44.000         103.000                  
G09  22781748.468    22781748.016    22781752.237                    -9221737.234 8  -9221737.241 8                  -7185775.511 8       218.000         144.000         457.000                  
G14  25244666.637    25244663.939    25244668.289                     2107002.133 7   2107002.153 6                   1641708.837 6        55.000          18.000          18.000                  
G17  21660475.254    21660474.733    21660475.573                   -12988812.471 8 -12988812.475 8                 -10121141.298 9       282.000         168.000         642.000                  
G21  19621266.628    19621265.400    19621266.248                   -22692559.865 9 -22692559.864 8                 -17682505.385 8       629.000         365.000         371.000                  
G28  24458154.156    24458155.491    24458154.591                    -1670902.765 7  -1670902.766 6                  -1302000.957 6        92.000          24.000          43.000                  
G31  23833906.266    23833905.370    23833906.038                    -6411820.598 8  -6411820.599 7                  -4996200.311 8       162.000          64.000         165.000                  
> 2024 10 31 11 02 20.0000000  0 10
G02  19333334.056    19333332.938    19333331.700                   -21172853.094 9 -21172853.096 8                 -16498313.923 9       756.000         452.000         747.000                  
G03  20111440.069    20111440.154    20111443.036                   -24726569.183 9 -24726569.184 9                 -19267441.343 9       629.000        1000.000        2344.000                  
G04  20256685.096    20256684.653    20256686.488                   -17238206.069 9 -17238206.066 8                 -13432369.930 8       559.000         451.000         340.000                  
G08  23265191.417    23265191.630    23265196.689                    -1135125.628 8  -1135125.618 6                   -884520.478 7       116.000          33.000          83.000                  
G09  22838294.110    22838294.040    22838298.240                    -8924586.542 8  -8924586.546 8                  -6954229.564 8       210.000         131.000         423.000                  
G14  25274880.582    25274879.237    25274884.994                     2265791.462 7   2265791.431 6                   1765397.504 6        51.000          21.000          20.000                  
G17  21625587.436    21625587.158    21625588.029                   -13172147.405 8 -13172147.409 8                 -10263999.625 9       286.000         169.000         652.000                  
G21  19625190.483    19625189.226    19625190.163                   -22671939.926 9 -22671939.927 8                 -17666437.880 8       624.000         371.000         354.000                  
G28  24413181.421    24413182.987    24413184.430                    -1907236.170 7  -1907236.166 6                  -1486157.126 6        97.000          25.000          33.000                  
G31  23821667.526    23821667.529    23821668.299                    -6476129.759 8  -6476129.752 7                  -5046311.272 8       164.000          59.000         171.000                  
> 2024 10 31 11 02 30.0000000  0  9
G02  19323193.084    19323192.014    19323190.589                   -21226144.024 9 -21226144.025 8                 -16539839.297 9       759.000         446.000         751.000                  
G03  20082690.856    20082690.819    20082693.803                   -24877647.314 9 -24877647.315 9                 -19385164.533 9       635.000        1028.000        2298.000                  
G04  20296906.876    20296906.855    20296908.621                   -17026837.538 9 -17026837.539 8                 -13267667.175 8       552.000         435.000         332.000                  
G08  23339249.839    23339247.224    23339252.805                     -745957.291 8   -745957.289 6                   -581272.513 7       112.000          31.000          76.000                  
G09  22895092.112    22895091.435    22895095.421                    -8626115.309 8  -8626115.307 8                  -6721654.628 8       202.000         119.000         392.000                  
G17  21591475.425    21591474.645    21591475.553                   -13351409.552 8 -13351409.552 8                 -10403684.361 9       283.000         179.000         679.000                  
G21  19630144.453    19630143.313    19630144.019                   -22645906.191 9 -22645906.194 8                 -17646151.831 8       632.000         369.000         354.000                  
G28  24368304.780    24368305.250    24368306.526                    -2143066.504 7  -2143066.520 6                  -1669920.958 6        99.000          24.000          50.000                  
G31  23809645.026    23809644.305    23809645.010                    -6539311.689 8  -6539311.679 7                  -5095543.856 8       162.000          58.000         174.000                  
> 2024 10 31 11 02 40.0000000  0  9
G02  19314182.797    19314181.840    19314180.611                   -21273492.315 9 -21273492.317 8                 -16576734.043 9       762.000         458.000         758.000                  
G03  20054671.904    20054671.993    20054674.955                   -25024887.109 9 -25024887.111 9                 -19499896.812 9       650.000        1078.000        2252.000                  
G04  20337691.685    20337691.116    20337692.970                   -16812514.439 9 -16812514.438 8                 -13100662.158 8       543.000         427.000         328.000                  
G08  23413553.633    23413553.974    23413558.715                     -355478.005 8   -355478.007 6                   -277003.028 7       102.000          37.000          62.000                  
G09  22952139.341    22952139.030    22952142.890                    -8326328.934 8  -8326328.935 8                  -6488054.904 8       195.000         106.000         344.000                  
G17  21558152.031    21558151.333    21558152.249                   -13526524.475 8 -13526524.473 8                 -10540137.499 9       295.000         185.000         704.000                  
G21  19636131.300    19636130.047    19636130.783                   -22614445.195 9 -22614445.198 8                 -17621636.748 8       630.000         370.000         338.000                  
G28  24323532.366    24323532.556    24323535.003                    -2378342.855 8  -2378342.844 6                  -1853253.021 7       105.000          28.000          57.000                  
G31  23797842.199    23797842.076    23797842.863                    -6601332.427 8  -6601332.424 7                  -5143871.610 8       163.000          58.000         182.000                  
> 2024 10 31 11 02 50.0000000  0  9
G02  19306304.442    19306303.350    19306302.141                   -21314894.093 9 -21314894.094 8                 -16608995.148 9       761.000         456.000         777.000                  
G03  20027388.487    20027388.596    20027391.484                   -25168262.385 9 -25168262.386 9                 -19611617.778 9       656.000        1096.000        2186.000                  
G04  20379030.235    20379029.734    20379031.654                   -16595278.451 9 -16595278.450 8                 -12931387.357 8       535.000         409.000         315.000                  
G08  23488096.197    23488094.895    23488100.042                       36240.594 7     36240.593 6                     28232.144 7        96.000          27.000          52.000                  
G09  23009429.123    23009429.034    23009433.148                    -8025266.613 8  -8025266.618 8                  -6253460.942 8       192.000         112.000         313.000                  
G17  21525625.657    21525624.905    21525625.668                   -13697452.475 8 -13697452.477 8                 -10673328.104 9       303.000         193.000         729.000                  
G21  19643146.803    19643145.452    19643146.152                   -22577579.085 9 -22577579.087 8                 -17592909.886 8       629.000         368.000         338.000                  
G28  24278869.770    24278869.527    24278871.422                    -2613047.916 8  -2613047.924 6                  -2036139.935 7       108.000          28.000          53.000                  
G31  23786261.457    23786261.124    23786261.528                    -6662191.833 8  -6662191.827 7                  -5191294.443 8       169.000          66.000         174.000                  
> 2024 10 31 11 03  0.0000000  0  9
G02  19299557.813    19299556.552    19299555.455                   -21350348.365 9 -21350348.367 8                 -16636621.838 9       753.000         446.000         800.000                  
G03  20000845.325    20000845.166    20000848.081                   -25307748.655 9 -25307748.656 9                 -19720308.353 9       662.000        1111.000        2154.000                  
G04  20420914.720    20420914.486    20420916.311                   -16375172.607 9 -16375172.606 8                 -12759876.306 8       521.000         387.000         309.000                  
G08  23562858.877    23562859.307    23562863.634                      429126.285 7    429126.275 6                    334376.734 6        87.000          26.000          43.000                  
G09  23066955.383    23066954.373    23066958.592                    -7722968.557 8  -7722968.562 8                  -6017904.064 8       195.000         116.000         280.000                  
G17  21493902.503    21493902.312    21493903.027                   -13864155.729 8 -13864155.731 8                 -10803226.700 9       317.000         214.000         728.000                  
G21  19651185.948    19651184.587    19651185.461                   -22535332.642 9 -22535332.644 8                 -17559990.561 8       625.000         356.000         344.000                  
G28  24234318.693    24234318.413    24234320.292                    -2847165.577 8  -2847165.571 6                  -2218569.168 7       113.000          27.000          59.000                  
G31  23774900.613    23774900.563    23774900.972                    -6721891.081 8  -6721891.089 7                  -5237813.253 8       173.000          69.000         182.000                  
> 2024 10 31 11 03 10.0000000  0 10
G02  19293945.857    19293944.638    19293943.609                   -21379838.711 9 -21379838.713 8                 -16659601.312 9       746.000         445.000         814.000                  
G03  19975049.995    19975049.687    19975052.602                   -25443304.809 9 -25443304.812 9                 -19825936.508 9       672.000        1155.000        2194.000                  
G04  20463340.470    20463340.313    20463342.325                   -16152222.824 9 -16152222.822 8                 -12586149.205 8       508.000         371.000         309.000                  
G08  23637834.423    23637834.882    23637839.300                      823124.610 7    823124.590 6                    641388.312 6        85.000          24.000          38.000                  
G09  23124711.917    23124710.962    23124714.792                    -7419457.576 8  -7419457.576 8                  -5781402.054 8       194.000         111.000         246.000                  
G17  21462994.549    21462994.065    21462994.682                   -14026579.983 8 -14026579.988 8                 -10929791.016 9       331.000         237.000         742.000                  
G19  24305496.028    24305490.004    24305500.319                     -258318.748 8   -258318.783 6                   -201290.020 6       101.000          26.000          19.000                  
G21  19660247.164    19660245.969    19660246.710                   -22487714.726 9 -22487714.729 8                 -17522885.677 8       617.000         360.000         345.000                  
G28  24189886.923    24189885.646    24189887.318                    -3080662.074 8  -3080662.076 6                  -2400514.370 7       118.000          24.000          54.000                  
G31  23763764.350    23763763.785    23763764.466                    -6780413.909 8  -6780413.918 7                  -5283415.361 8       178.000          72.000         186.000                  
> 2024 10 31 11 03 20.0000000  0 10
G02  19289471.595    19289470.471    19289469.390                   -21403350.964 9 -21403350.966 8                 -16677922.537 9       746.000         438.000         818.000                  
G03  19950009.738    19950009.734    19950012.590                   -25574890.925 9 -25574890.927 9                 -19928471.123 9       668.000        1143.000        2258.000                  
G04  20506302.746    20506302.530    20506304.239                   -15926455.778 8 -15926455.775 8                 -12410226.836 8       500.000         358.000         307.000                  
G08  23713012.007    23713011.224    23713015.879                     1218181.043 7   1218181.024 6                    949224.385 6        81.000          24.000          29.000                  
G09  23182694.838    23182693.305    23182697.560                    -7114756.910 8  -7114756.913 8                  -5543973.022 8       190.000         115.000         223.000                  
G17  21432910.130    21432910.033    21432910.701                   -14184672.328 8 -14184672.330 8                 -11052979.815 9       340.000         250.000         758.000                  
G19  24253582.893    24253579.956    24253585.120                     -531114.342 8   -531114.344 6                   -413856.252 6       103.000          25.000          24.000                  
G21  19670328.756    19670327.463    19670328.350                   -22434736.259 9 -22434736.263 8                 -17481603.741 8       619.000         351.000         359.000                  
G28  24145576.479    24145577.642    24145578.375                    -3313504.123 8  -3313504.129 6                  -2581949.642 7       118.000          30.000          65.000                  
G31  23752854.378    23752854.229    23752854.748                    -6837744.710 8  -6837744.711 7                  -5328088.638 8       177.000          74.000         181.000                  
> 2024 10 31 11 03 30.0000000  0 10
G02  19286131.288    19286130.057    19286128.945                   -21420904.858 9 -21420904.860 8                 -16691600.882 9       739.000         435.000         819.000                  
G03  19925726.334    19925726.379    19925729.327                   -25702499.903 9 -25702499.905 9                 -20027906.666 9       664.000        1121.000        2296.000                  
G04  20549789.897    20549789.493    20549791.383                   -15697930.434 8 -15697930.433 8                 -12232155.148 8       488.000         339.000         307.000                  
G08  23788373.621    23788372.969    23788377.958                     1614209.403 7   1614209.429 6                   1257817.791 6        73.000          25.000          31.000                  
G09  23240893.083    23240892.283    23240895.868                    -6808921.733 8  -6808921.736 7                  -5305659.959 8       185.000         100.000         209.000                  
G17  21403654.477    21403654.073    21403654.826                   -14338412.842 8 -14338412.846 8                 -11172777.581 9       350.000         258.000         754.000                  
G19  24202057.470    24202054.819    24202072.896                     -801883.118 8   -801883.123 6                   -624846.557 6       111.000          24.000          20.000                  
G21  19681421.771    19681420.592    19681421.392                   -22376441.789 9 -22376441.793 8                 -17436179.470 8       614.000         353.000         358.000                  
G28  24101393.492    24101393.676    24101394.920                    -3545690.397 8  -3545690.408 6                  -2762873.884 7       125.000          27.000          60.000                  
G31  23742167.802    23742168.092    23742168.720                    -6893899.984 8  -6893899.991 7                  -5371845.938 8       178.000          66.000         188.000                  
> 2024 10 31 11 03 40.0000000  0 10
G02  19283929.539    19283928.409    19283927.145                   -21432474.769 9 -21432474.771 8                 -16700616.385 9       733.000         425.000         809.000                  
G03  19902210.314    19902210.331    19902213.246                   -25826078.059 9 -25826078.060 9                 -20124201.314 9       686.000        1197.000        2397.000                  
G04  20593799.505    20593798.963    20593800.959                   -15466658.677 8 -15466658.673 8                 -12051943.393 8       477.000         328.000         308.000                  
G08  23863915.037    23863912.035    23863917.348                     2011171.356 7   2011171.367 6                   1567138.668 6        77.000          28.000          27.000                  
G09  23299306.041    23299305.302    23299308.947                    -6501959.892 8  -6501959.892 7                  -5066468.980 8       167.000          87.000         187.000                  
G17  21375239.258    21375238.979    21375239.697                   -14487735.256 8 -14487735.263 8                 -11289132.673 9       359.000         281.000         741.000                  
G19  24150930.933    24150929.293    24150935.949                    -1070548.484 8  -1070548.490 6                   -834193.864 6       115.000          24.000          18.000                  
G21  19693526.637    19693525.493    19693526.277                   -22312830.056 9 -22312830.057 8                 -17386611.874 8       607.000         335.000         361.000                  
G28  24057344.241    24057343.812    24057344.919                    -3777172.174 8  -3777172.174 6                  -2943249.164 7       128.000          28.000          65.000                  
G31  23731711.925    23731711.685    23731712.241                    -6948849.124 8  -6948849.130 7                  -5414663.391 8       174.000          65.000         189.000                  
> 2024 10 31 11 03 50.0000000  0 10
G02  19282865.354    19282864.142    19282863.016                   -21438067.046 9 -21438067.049 8                 -16704973.991 9       733.000         441.000         808.000                  
G03  19879465.546    19879465.574    19879468.504                   -25945602.615 9 -25945602.617 9                 -20217337.313 9       709.000        1279.000        2544.000                  
G04  20638323.207    20638323.003    20638325.051                   -15232682.713 8 -15232682.712 8                 -11869624.467 8       457.000         297.000         300.000                  
G08  23939617.792    23939616.855    23939620.994                     2408998.831 7   2408998.837 6                   1877133.926 6        75.000          23.000          26.000                  
G09  23357925.468    23357925.323    23357929.164                    -6193909.239 8  -6193909.241 7                  -4826429.579 8       160.000          75.000         175.000                  
G17  21347672.102    21347671.384    21347671.978                   -14632604.336 8 -14632604.339 8                 -11402017.635 9       365.000         296.000         711.000                  
G19  24100215.882    24100213.284    24100233.230                    -1337063.948 8  -1337063.928 6                  -1041870.487 6       121.000          26.000          17.000                  
G21  19706637.476    19706636.277    19706637.192                   -22243931.401 9 -22243931.404 8                 -17332924.600 8       597.000         333.000         356.000                  
G28  24013432.667    24013431.852    24013433.119                    -4007930.819 8  -4007930.806 6                  -3123060.983 7       125.000          35.000          68.000                  
G31  23721484.421    23721484.865    23721485.349                    -7002591.515 8  -7002591.522 7                  -5456540.505 8       173.000          75.000         189.000                  
> 2024 10 31 11 04  0.0000000  0 10
G02  19282935.613    19282934.392    19282933.223                   -21437698.066 9 -21437698.069 8                 -16704686.464 9       739.000         428.000         802.000                  
G03  19857494.949    19857494.807    19857497.738                   -26061059.686 9 -26061059.687 9                 -20307303.844 9       726.000        1353.000        2595.000                  
G04  20683352.756    20683352.253    20683354.068                   -14996053.097 8 -14996053.095 8                 -11685237.764 8       447.000         296.000         306.000                  
G08  24015473.480    24015471.084    24015476.516                     2807616.072 7   2807616.069 6                   2187744.627 6        71.000          24.000          26.000                  
G09  23416743.977    23416744.030    23416747.674                    -5884815.698 8  -5884815.700 7                  -4585577.544 8       149.000          73.000         164.000                  
G17  21320956.602    21320955.789    21320956.601                   -14772994.305 8 -14772994.304 8                 -11511412.376 9       366.000         292.000         693.000                  
G19  24049915.986    24049913.368    24049920.460                    -1601391.329 8  -1601391.316 6                  -1247838.383 6       120.000          29.000          22.000                  
G21  19720747.059    19720745.759    19720746.633                   -22169785.771 9 -22169785.772 8                 -17275148.777 8       590.000         328.000         355.000                  
G28  23969660.516    23969659.480    23969660.592                    -4237955.659 8  -4237955.661 6                  -3302301.008 7       130.000          32.000          64.000                  
G31  23711485.956    23711485.726    23711486.741                    -7055134.983 8  -7055134.979 7                  -5497483.392 8       169.000          70.000         188.000                  
> 2024 10 31 11 04 10.0000000  0 10
G02  19284144.719    19284143.572    19284142.382                   -21431344.340 9 -21431344.342 8                 -16699735.499 9       737.000         429.000         806.000                  
G03  19836308.622    19836308.568    19836311.313                   -26172394.665 9 -26172394.667 9                 -20394058.351 9       743.000        1392.000        2646.000                  
G04  20728884.793    20728884.538    20728886.477                   -14756779.001 8 -14756778.999 8                 -11498790.422 8       435.000         278.000         303.000                  
G08  24091471.103    24091470.472    24091474.962                     3206989.388 7   3206989.381 6                   2498944.423 6        69.000          24.000          21.000                  
G09  23475759.572    23475760.078    23475764.091                    -5574683.545 8  -5574683.542 7                  -4343916.203 8       143.000          70.000         146.000                  
G17  21295106.162    21295105.476    21295106.231                   -14908838.552 8 -14908838.554 8                 -11617264.995 9       364.000         298.000         660.000                  
G19  24000046.120    24000044.719    24000046.310                    -1863450.867 8  -1863450.863 6                  -1452040.163 6       128.000          27.000          34.000                  
G21  19735854.932    19735853.793    19735854.560                   -22090392.990 9 -22090392.993 8                 -17213284.265 8       596.000         326.000         345.000                  
G28  23926037.594    23926037.367    23926037.615                    -4467194.434 8  -4467194.435 6                  -3480928.501 7       131.000          30.000          71.000                  
G31  23701722.383    23701721.369    23701722.363                    -7106445.835 8  -7106445.835 7                  -5537465.791 8       174.000          72.000         190.000                  
> 2024 10 31 11 04 20.0000000  0 10
G02  19286485.227    19286483.892    19286482.778                   -21419045.265 9 -21419045.266 8                 -16690151.794 9       735.000         435.000         790.000                  
G03  19815905.105    19815905.168    19815907.985                   -26279614.770 9 -26279614.772 9                 -20477606.466 9       747.000        1415.000        2707.000                  
G04  20774907.127    20774906.648    20774908.662                   -14514930.796 8 -14514930.794 8                 -11310337.282 8       421.000         261.000         307.000                  
G08  24167594.824    24167593.701    24167598.550                     3607024.450 7   3607024.450 6                   2810659.919 6        71.000          27.000          23.000                  
G09  23534962.180    23534961.549    23534965.668                    -5263577.986 8  -5263577.990 7                  -4101496.370 8       136.000          60.000         128.000                  
G17  21270121.765    21270120.998    21270121.598                   -15040132.498 8 -15040132.500 8                 -11719571.928 9       367.000         288.000         624.000                  
G19  23950614.115    23950611.377    23950613.337                    -2123224.135 8  -2123224.137 6                  -1654460.743 6       130.000          27.000          39.000                  
G21  19751949.607    19751948.309    19751949.244                   -22005815.246 9 -22005815.249 8                 -17147379.526 8       602.000         340.000         332.000                  
G28  23882561.472    23882562.048    23882563.293                    -4695655.806 8  -4695655.804 6                  -3658950.242 7       133.000          33.000          78.000                  
G31  23692186.645    23692186.915    23692187.550                    -7156551.623 8  -7156551.629 7                  -5576509.209 8       182.000          75.000         187.000                  
> 2024 10 31 11 04 30.0000000  0 10
G02  19289961.801    19289960.720    19289959.452                   -21400774.504 9 -21400774.506 8                 -16675914.828 9       739.000         431.000         776.000                  
G03  19796296.142    19796296.152    19796299.060                   -26382660.304 9 -26382660.306 9                 -20557901.668 9       745.000        1402.000        2684.000                  
G04  20821418.699    20821418.062    20821420.174                   -14270511.245 8 -14270511.246 8                 -11119880.494 8       412.000         241.000         302.000                  
G08  24243840.255    24243838.941    24243844.038                     4007695.231 7   4007695.220 6                   3122870.712 6        70.000          28.000          20.000                  
G09  23594348.442    23594348.745    23594353.026                    -4951496.422 8  -4951496.421 7                  -3858316.010 8       131.000          56.000         113.000                  
G17  21246016.431    21246016.131    21246016.616                   -15166805.022 8 -15166805.025 8                 -11818277.751 9       361.000         294.000         604.000                  
G19  23901632.488    23901629.775    23901630.782                    -2380625.052 8  -2380625.029 6                  -1855032.783 6       133.000          25.000          40.000                  
G21  19769031.743    19769030.634    19769031.247                   -21916048.503 9 -21916048.504 8                 -17077431.407 8       603.000         340.000         331.000                  
G28  23839246.014    23839245.825    23839247.665                    -4923280.595 8  -4923280.591 6                  -3836320.108 7       134.000          31.000          83.000                  
G31  23682889.442    23682889.150    23682889.561                    -7205411.895 8  -7205411.896 7                  -5614582.062 8       182.000          71.000         184.000                  
> 2024 10 31 11 04 40.0000000  0 10
G02  19294566.783    19294565.506    19294564.472                   -21376575.345 9 -21376575.346 8                 -16657058.332 9       734.000         433.000         769.000                  
G03  19777480.061    19777479.949    19777482.781                   -26481540.240 9 -26481540.240 9                 -20634950.946 9       759.000        1466.000        2600.000                  
G04  20868405.633    20868405.597    20868407.355                   -14023591.140 8 -14023591.138 8                 -10927475.227 8       407.000         239.000         310.000                  
G08  24320188.532    24320187.262    24320192.545                     4408908.270 7   4408908.270 6                   3435504.044 6        69.000          27.000          22.000                  
G09  23653909.805    23653909.323    23653913.181                    -4638503.942 8  -4638503.929 6                  -3614425.840 8       130.000          41.000         102.000                  
G17  21222791.383    21222790.935    21222791.368                   -15288853.947 8 -15288853.949 8                 -11913380.769 9       360.000         281.000         596.000                  
G19  23853106.206    23853103.140    23853104.026                    -2635635.514 8  -2635635.503 6                  -2053742.051 6       137.000          26.000          40.000                  
G21  19787088.762    19787087.523    19787088.135                   -21821157.883 9 -21821157.886 8                 -17003490.659 8       607.000         350.000         310.000                  
G28  23796088.883    23796087.818    23796089.356                    -5150077.385 8  -5150077.376 6                  -4013044.769 7       139.000          33.000          82.000                  
G31  23673823.107    23673822.975    23673823.259                    -7253054.659 8  -7253054.663 7                  -5651706.242 8       185.000          78.000         182.000                  
> 2024 10 31 11 04 50.0000000  0 10
G02  19300303.764    19300302.620    19300301.350                   -21346427.214 9 -21346427.217 8                 -16633566.275 9       736.000         430.000         768.000                  
G03  19759466.966    19759467.020    19759469.756                   -26576198.798 9 -26576198.799 9                 -20708710.836 9       761.000        1481.000        2499.000                  
G04  20915868.154    20915867.677    20915869.483                   -13774175.766 8 -13774175.766 8                 -10733125.594 8       398.000         239.000         298.000                  
G08  24396634.637    24396633.084    24396639.110                     4810636.230 7   4810636.232 6                   3748538.569 6        72.000          26.000          23.000                  
G09  23713642.575    23713643.150    23713647.077                    -4324599.931 8  -4324599.930 6                  -3369825.401 7       117.000          47.000          96.000                  
G17  21200458.645    21200458.291    21200458.715                   -15406212.602 8 -15406212.601 8                 -12004829.028 9       374.000         299.000         593.000                  
G19  23805049.572    23805046.592    23805047.227                    -2888171.953 8  -2888171.933 6                  -2250523.554 7       139.000          28.000          54.000                  
G21  19806120.637    19806119.519    19806120.238                   -21721144.246 9 -21721144.245 8                 -16925557.954 8       609.000         349.000         311.000                  
G28  23753098.685    23753098.746    23753100.112                    -5375989.094 8  -5375989.091 6                  -4189079.745 7       146.000          33.000          92.000                  
G31  23664996.701    23664995.730    23664995.888                    -7299441.813 8  -7299441.816 7                  -5687851.990 8       188.000          77.000         195.000                  
> 2024 10 31 11 05  0.0000000  0 10
G02  19307166.408    19307165.362    19307164.102                   -21310363.458 9 -21310363.461 8                 -16605464.635 9       742.000         434.000         772.000                  
G03  19742257.957    19742257.864    19742260.697                   -26666633.131 9 -26666633.132 9                 -20779179.116 9       759.000        1470.000        2469.000                  
G04  20963793.769    20963793.807    20963795.654                   -13522322.572 8 -13522322.573 8                 -10536876.362 8       388.000         212.000         311.000                  
G08  24473161.921    24473162.832    24473168.384                     5212800.200 7   5212800.215 6                   4061912.912 6        72.000          22.000          31.000                  
G09  23773541.461    23773540.971    23773545.634                    -4009835.725 8  -4009835.707 6                  -3124554.675 7       108.000          35.000          92.000                  
G17  21179021.327    21179020.780    21179021.297                   -15518867.408 8 -15518867.409 8                 -12092611.955 9       381.000         310.000         595.000                  
G19  23757469.217    23757467.803    23757468.483                    -3138203.029 8  -3138203.023 6                  -2445352.840 6       142.000          33.000          46.000                  
G21  19826117.347    19826116.109    19826116.756                   -21616061.795 9 -21616061.798 8                 -16843675.518 8       612.000         337.000         305.000                  
G28  23710279.643    23710278.498    23710279.293                    -5601010.570 8  -5601010.584 6                  -4364421.060 7       147.000          34.000          99.000                  
G31  23656404.312    23656404.775    23656405.013                    -7344587.745 8  -7344587.740 7                  -5723030.562 8       190.000          91.000         181.000                  
> 2024 10 31 11 05 10.0000000  0  9
G02  19315154.891    19315153.929    19315152.656                   -21268383.235 9 -21268383.237 8                 -16572752.762 9       745.000         430.000         764.000                  
G03  19725859.906    19725859.893    19725862.728                   -26752805.310 9 -26752805.311 9                 -20846326.240 9       773.000        1507.000        2498.000                  
G08  24549766.708    24549767.614    24549772.438                     5615357.692 7   5615357.678 6                   4375593.850 6        75.000          27.000          25.000                  
G09  23833600.276    23833599.439    23833603.527                    -3694226.588 7  -3694226.582 6                  -2878625.564 7       100.000          37.000          91.000                  
G17  21158487.965    21158487.396    21158487.987                   -15626770.018 8 -15626770.020 8                 -12176691.871 9       384.000         315.000         595.000                  
G19  23710380.349    23710377.551    23710378.257                    -3385661.709 8  -3385661.697 6                  -2638177.659 7       147.000          29.000          55.000                  
G21  19847074.434    19847073.496    19847073.980                   -21505930.037 9 -21505930.040 8                 -16757858.558 8       610.000         342.000         299.000                  
G28  23667635.379    23667635.323    23667636.827                    -5825100.626 8  -5825100.618 6                  -4539036.577 7       152.000          36.000          95.000                  
G31  23648054.262    23648054.031    23648054.124                    -7388470.956 8  -7388470.949 7                  -5757225.216 8       189.000          86.000         190.000                  
> 2024 10 31 11 05 20.0000000  0 10
G02  19324265.054    19324263.918    19324262.557                   -21220510.197 9 -21220510.200 8                 -16535449.083 9       739.000         429.000         748.000                  
G03  19710275.719    19710275.610    19710278.469                   -26834701.035 9 -26834701.035 9                 -20910141.055 9       781.000        1549.000        2495.000                  
G04  21061016.993    21061016.929    21061018.858                   -13319411.894 8 -13319411.891 8                 -10378764.159 8       378.000         203.000         305.000                  
G08  24626435.397    24626433.987    24626440.078                     6018243.987 7   6018243.981 6                   4689531.037 6        74.000          24.000          27.000                  
G09  23893811.754    23893811.615    23893815.937                    -3377810.386 7  -3377810.412 6                  -2632067.581 7        95.000          32.000          89.000                  
G17  21138864.029    21138863.350    21138863.744                   -15729896.096 8 -15729896.099 8                 -12257049.807 9       395.000         328.000         626.000                  
G19  23663787.711    23663785.685    23663786.191                    -3630503.929 8  -3630503.945 6                  -2828963.675 7       153.000          27.000          56.000                  
G21  19868984.561    19868983.398    19868984.030                   -21390792.655 9 -21390792.659 8                 -16668141.107 8       598.000         333.000         304.000                  
G28  23625173.050    23625173.592    23625174.114                    -6048240.753 8  -6048240.759 6                  -4712911.909 8       154.000          35.000         106.000                  
G31  23639944.001    23639942.985    23639943.672                    -7431092.727 8  -7431092.722 7                  -5790436.933 8       189.000          86.000         183.000                  
> 2024 10 31 11 05 30.0000000  0 10
G02  19334491.959    19334490.593    19334489.324                   -21166767.692 9 -21166767.694 8                 -16493571.798 9       731.000         429.000         726.000                  
G03  19695508.162    19695508.105    19695510.963                   -26912304.732 9 -26912304.734 9                 -20970611.443 9       787.000        1574.000        2495.000                  
G04  21110297.838    21110297.311    21110299.390                   -13060441.179 8 -13060441.175 8                 -10176968.803 8       368.000         189.000         306.000                  
G08  24703151.547    24703152.240    24703157.483                     6421397.041 7   6421397.032 6                   5003676.005 6        75.000          25.000          34.000                  
G09  23954170.359    23954170.183    23954174.385                    -3060622.698 7  -3060622.696 6                  -2384908.444 7        91.000          35.000          82.000                  
G17  21120153.266    21120152.979    21120153.281                   -15828220.159 8 -15828220.164 8                 -12333665.909 9       396.000         340.000         655.000                  
G19  23617702.035    23617700.398    23617700.877                    -3872683.549 8  -3872683.576 6                  -3017674.950 7       151.000          32.000          60.000                  
G21  19891838.922    19891837.735    19891838.207                   -21270692.274 9 -21270692.276 8                 -16574556.387 8       589.000         328.000         290.000                  
G28  23582896.071    23582895.380    23582896.510                    -6270410.159 8  -6270410.177 6                  -4886030.834 8       158.000          42.000         103.000                  
G31  23632072.888    23632072.704    23632073.175                    -7472452.164 8  -7472452.166 7                  -5822665.001 8       195.000          81.000         190.000                  
> 2024 10 31 11 05 40.0000000  0 10
G02  19345834.889    19345833.821    19345832.428                   -21107159.238 9 -21107159.242 8                 -16447123.638 9       737.000         432.000         702.000                  
G03  19681564.326    19681564.183    19681567.087                   -26985580.338 9 -26985580.339 9                 -21027709.293 9       791.000        1604.000        2504.000                  
G04  21160017.221    21160017.152    21160019.080                   -12799161.957 8 -12799161.955 8                  -9973374.616 8       357.000         181.000         301.000                  
G08  24779914.965    24779913.562    24779918.229                     6824776.706 7   6824776.703 6                   5317997.531 6        77.000          23.000          41.000                  
G09  24014673.682    24014673.263    24014677.757                    -2742677.559 7  -2742677.584 6                  -2137159.085 7        87.000          28.000          69.000                  
G17  21102365.084    21102364.739    21102365.274                   -15921696.608 8 -15921696.611 8                 -12406504.655 9       391.000         334.000         665.000                  
G19  23572135.751    23572134.630    23572134.826                    -4112133.356 8  -4112133.356 6                  -3204259.107 7       157.000          35.000          68.000                  
G21  19915633.334    19915632.254    19915633.012                   -21145651.185 9 -21145651.186 8                 -16477121.760 8       575.000         312.000         286.000                  
G28  23540810.543    23540810.737    23540812.049                    -6491566.543 8  -6491566.532 6                  -5058360.396 8       165.000          32.000         115.000                  
G31  23624446.900    23624446.688    23624446.941                    -7512527.185 8  -7512527.181 7                  -5853892.232 8       198.000          90.000         190.000                  
> 2024 10 31 11 05 50.0000000  0 10
G02  19358288.193    19358287.098    19358285.801                   -21041716.518 9 -21041716.521 8                 -16396129.285 9       739.000         440.000         697.000                  
G03  19668445.626    19668445.562    19668448.437                   -27054518.944 9 -27054518.946 9                 -21081427.650 9       797.000        1610.000        2484.000                  
G04  21210167.290    21210166.844    21210169.173                   -12535621.548 8 -12535621.545 8                  -9768018.466 8       347.000         176.000         309.000                  
G08  24856706.775    24856704.505    24856709.617                     7228317.053 7   7228317.027 6                   5632444.318 6        79.000          23.000          40.000                  
G09  24075313.435    24075312.893    24075317.151                    -2424015.190 7  -2424015.182 6                  -1888850.848 7        76.000          29.000          67.000                  
G17  21085503.038    21085502.758    21085503.115                   -16010307.363 8 -16010307.365 8                 -12475551.951 9       399.000         346.000         682.000                  
G19  23527097.034    23527096.017    23527096.902                    -4348812.629 8  -4348812.648 6                  -3388684.399 7       162.000          35.000          71.000                  
G21  19940358.544    19940357.351    19940358.077                   -21015719.220 9 -21015719.224 8                 -16375876.066 8       565.000         299.000         275.000                  
G28  23498921.588    23498922.085    23498922.920                    -6711693.837 8  -6711693.834 6                  -5229888.078 8       170.000          43.000         113.000                  
G31  23617064.637    23617064.213    23617064.573                    -7551321.965 8  -7551321.977 7                  -5884121.881 8       197.000          89.000         187.000                  
> 2024 10 31 11 06  0.0000000  0 10
G02  19371846.632    19371845.443    19371843.879                   -20970467.361 9 -20970467.364 8                 -16340610.429 9       743.000         440.000         686.000                  
G03  19656154.894    19656154.792    19656157.605                   -27119107.257 9 -27119107.258 9                 -21131756.193 9       790.000        1595.000        2479.000                  
G04  21260739.599    21260739.407    21260741.596                   -12269861.869 8 -12269861.866 8                  -9560933.014 8       340.000         164.000         297.000                  
G08  24933515.072    24933515.351    24933520.866                     7631958.082 7   7631958.083 6                   5946969.511 6        76.000          30.000          47.000                  
G09  24136083.261    24136081.743    24136086.924                    -2104670.158 7  -2104670.157 6                  -1640010.679 7        75.000          25.000          60.000                  
G17  21069570.881    21069570.717    21069571.269                   -16094030.243 8 -16094030.245 8                 -12540790.516 9       406.000         358.000         702.000                  
G19  23482594.922    23482593.370    23482593.180                    -4582675.536 8  -4582675.538 6                  -3570915.122 7       165.000          39.000          79.000                  
G21  19966005.745    19966004.528    19966005.191                   -20880941.975 9 -20880941.975 8                 -16270854.824 8       561.000         297.000         271.000                  
G28  23457233.324    23457232.796    23457234.138                    -6930770.436 8  -6930770.410 6                  -5400597.033 8       175.000          39.000         119.000                  
G31  23609925.694    23609925.683    23609925.993                    -7588835.368 8  -7588835.364 7                  -5913353.051 8       195.000          92.000         184.000                  
> 2024 10 31 11 06 10.0000000  0 10
G02  19386508.251    19386506.861    19386505.563                   -20893420.335 9 -20893420.336 8                 -16280573.765 9       731.000         426.000         683.000                  
G03  19644698.432    19644698.356    19644701.055                   -27179311.714 9 -27179311.714 9                 -21178668.736 9       815.000        1686.000        2540.000                  
G04  21311730.346    21311730.136    21311732.170                   -12001903.767 8 -12001903.765 8                  -9352134.506 8       338.000         162.000         286.000                  
G08  25010336.593    25010337.681    25010342.840                     8035661.390 7   8035661.372 6                   6261543.232 6        73.000          26.000          43.000                  
G09  24196978.381    24196978.619    24196983.086                    -1784655.872 7  -1784655.899 6                  -1390649.003 7        74.000          30.000          52.000                  
G17  21054577.489    21054576.856    21054577.375                   -16172823.117 8 -16172823.119 8                 -12602187.520 9       402.000         344.000         701.000                  
G19  23438641.104    23438639.113    23438639.707                    -4813655.426 8  -4813655.433 6                  -3750899.330 7       165.000          34.000          87.000                  
G21  19992570.339    19992569.027    19992569.742                   -20741344.978 9 -20741344.979 8                 -16162077.923 8       557.000         291.000         269.000                  
G28  23415752.205    23415752.427    23415753.221                    -7148753.589 8  -7148753.570 6                  -5570453.968 8       177.000          46.000         123.000                  
G31  23603035.572    23603034.925    23603035.554                    -7625045.197 8  -7625045.201 7                  -5941568.450 8       196.000          86.000         198.000                  
> 2024 10 31 11 06 20.0000000  0 10
G02  19402265.652    19402264.645    19402263.337                   -20810612.531 9 -20810612.534 8                 -16216048.186 9       730.000         430.000         675.000                  
G03  19634077.172    19634077.076    19634079.806                   -27235126.698 9 -27235126.699 9                 -21222160.887 9       821.000        1695.000        2622.000                  
G04  21363130.719    21363130.221    21363132.258                   -11731795.106 8 -11731795.104 8                  -9141660.240 8       336.000         156.000         277.000                  
G08  25087159.753    25087158.955    25087164.619                     8439362.095 7   8439362.128 6                   6576114.898 6        75.000          27.000          47.000                  
G09  24257996.873    24257995.223    24258000.037                    -1464012.557 7  -1464012.547 6                  -1140797.172 6        72.000          30.000          47.000                  
G17  21040524.457    21040523.954    21040524.224                   -16246672.129 8 -16246672.131 8                 -12659732.159 9       407.000         368.000         689.000                  
G19  23395242.782    23395240.454    23395241.478                    -5041712.848 8  -5041712.851 6                  -3928606.293 7       164.000          29.000          95.000                  
G21  20020041.677    20020040.430    20020041.265                   -20596981.875 9 -20596981.876 8                 -16049587.186 8       556.000         289.000         260.000                  
G28  23374482.380    23374482.247    23374483.383                    -7365627.408 8  -7365627.408 6                  -5739446.484 8       180.000          44.000         128.000                  
G31  23596391.670    23596391.208    23596391.905                    -7659956.458 8  -7659956.459 7                  -5968771.964 8       195.000          88.000         192.000                  
> 2024 10 31 11 06 30.0000000  0 10
G02  19419113.861    19419112.480    19419111.315                   -20722076.426 9 -20722076.430 8                 -16147059.005 9       732.000         430.000         677.000                  
G03  19624293.151    19624293.073    19624295.881                   -27286541.384 9 -27286541.385 9                 -21262224.245 9       817.000        1697.000        2629.000                  
G04  21414931.934    21414931.472    21414933.625                   -11459577.444 8 -11459577.437 8                  -8929542.597 8       326.000         159.000         270.000                  
G08  25163968.664    25163969.243    25163976.159                     8843002.081 7   8843002.078 6                   6890639.211 7        71.000          28.000          52.000                  
G09  24319125.854    24319124.963    24319129.675                    -1142773.988 7  -1142773.979 6                   -890481.527 6        64.000          20.000          44.000                  
G17  21027415.467    21027415.148    21027415.554                   -16315558.489 8 -16315558.493 8                 -12713409.801 9       408.000         365.000         682.000                  
G19  23352410.080    23352407.713    23352408.146                    -5266802.565 8  -5266802.555 6                  -4104000.769 7       166.000          36.000          93.000                  
G21  20048410.585    20048409.617    20048410.218                   -20447901.302 9 -20447901.304 8                 -15933420.495 8       547.000         285.000         245.000                  
G28  23333428.801    23333427.465    23333428.728                    -7581369.686 8  -7581369.683 6                  -5907557.273 8       186.000          46.000         128.000                  
G31  23589996.163    23589995.409    23589995.914                    -7693567.830 8  -7693567.828 7                  -5994962.606 8       194.000          90.000         204.000                  
> 2024 10 31 11 06 40.0000000  0 10
G02  19437048.815    19437047.867    19437046.588                   -20627825.754 9 -20627825.756 8                 -16073616.919 9       727.000         434.000         692.000                  
G03  19615352.302    19615352.334    19615354.992                   -27333525.428 9 -27333525.429 9                 -21298835.169 9       816.000        1695.000        2521.000                  
G04  21467130.462    21467130.105    21467132.182                   -11185271.941 8 -11185271.938 8                  -8715798.068 8       315.000         140.000         255.000                  
G08  25240762.520    25240760.805    25240767.547                     9246544.246 7   9246544.230 6                   7205087.331 7        68.000          24.000          51.000                  
G09  24380365.226    24380365.598    24380370.974                     -820953.863 7   -820953.876 6                   -639712.819 6        57.000          26.000          44.000                  
G17  21015258.635    21015257.989    21015258.414                   -16379444.335 8 -16379444.338 8                 -12763190.939 9       410.000         366.000         677.000                  
G19  23310153.658    23310151.401    23310152.240                    -5488859.182 8  -5488859.179 6                  -4277031.804 8       171.000          27.000         110.000                  
G21  20077672.067    20077670.684    20077671.499                   -20294132.162 9 -20294132.165 8                 -15813600.378 8       544.000         286.000         231.000                  
G28  23292597.710    23292596.843    23292597.918                    -7795937.653 8  -7795937.644 7                  -6074753.022 8       191.000          52.000         136.000                  
G31  23583851.634    23583850.630    23583851.112                    -7725857.578 8  -7725857.581 7                  -6020123.389 8       195.000          85.000         207.000                  
> 2024 10 31 11 06 50.0000000  0 10
G02  19456063.904    19456062.578    19456061.614                   -20527902.116 9 -20527902.118 8                 -15995754.338 9       720.000         418.000         693.000                  
G03  19607255.213    19607255.210    19607257.869                   -27376075.835 9 -27376075.836 9                 -21331991.291 9       816.000        1694.000        2502.000                  
G04  21519717.488    21519717.151    21519719.242                   -10908926.155 8 -10908926.154 8                  -8500463.705 8       316.000         148.000         250.000                  
G08  25317524.171    25317522.258    25317528.662                     9649925.451 7   9649925.460 6                   7519409.983 7        67.000          19.000          52.000                  
G09  24441711.659    24441709.070    24441714.240                     -498591.167 6   -498591.177 6                   -388521.358 6        50.000          26.000          27.000                  
G17  21004054.994    21004054.494    21004054.846                   -16438319.474 8 -16438319.476 8                 -12809067.624 9       417.000         378.000         680.000                  
G19  23268482.773    23268480.536    23268480.881                    -5707843.964 8  -5707843.965 6                  -4447669.184 8       173.000          32.000         109.000                  
G21  20107814.739    20107813.637    20107814.090                   -20135730.812 9 -20135730.815 8                 -15690170.729 8       532.000         260.000         225.000                  
G28  23251992.713    23251992.445    23251993.383                    -8009314.961 8  -8009314.965 7                  -6241020.979 8       200.000          54.000         134.000                  
G31  23577958.059    23577956.836    23577957.301                    -7756830.574 8  -7756830.575 7                  -6044258.123 8       198.000          95.000         209.000                  
> 2024 10 31 11 07  0.0000000  0  9
G02  19476150.365    19476149.128    19476147.992                   -20422346.351 9 -20422346.353 8                 -15913503.066 9       721.000         407.000         716.000                  
G03  19600002.527    19600002.550    19600005.276                   -27414188.418 9 -27414188.419 9                 -21361689.392 9       812.000        1696.000        2509.000                  
G04  21572683.691    21572683.584    21572685.732                   -10630585.341 8 -10630585.339 8                  -8283574.780 8       311.000         141.000         239.000                  
G08  25394242.141    25394241.192    25394247.792                    10053085.423 7  10053085.406 6                   7833560.224 7        65.000          29.000          56.000                  
G17  20993807.261    20993806.592    20993806.861                   -16492172.701 8 -16492172.704 8                 -12851031.143 9       430.000         391.000         657.000                  
G19  23227403.022    23227401.500    23227401.397                    -5923716.496 8  -5923716.497 6                  -4615881.440 8       182.000          36.000         116.000                  
G21  20138828.489    20138827.507    20138827.749                   -19972752.280 9 -19972752.283 8                 -15563174.445 8       528.000         265.000         217.000                  
G28  23211618.850    23211618.424    23211619.525                    -8221482.905 8  -8221482.905 7                  -6406346.587 8       209.000          59.000         141.000                  
G31  23572313.441    23572312.885    23572313.196                    -7786489.608 8  -7786489.604 8                  -6067369.047 8       202.000         104.000         212.000                  
> 2024 10 31 11 07 10.0000000  0  9
G02  19497308.130    19497306.969    19497305.806                   -20311161.797 9 -20311161.798 8                 -15826865.734 9       722.000         421.000         717.000                  
G03  19593602.637    19593602.631    19593605.236                   -27447820.736 9 -27447820.737 9                 -21387896.383 9       822.000        1717.000        2512.000                  
G04  21626028.959    21626028.644    21626030.858                   -10350255.541 8 -10350255.535 8                  -8065135.998 8       305.000         132.000         228.000                  
G08  25470915.554    25470913.921    25470920.957                    10456003.566 7  10456003.560 6                   8147521.990 7        64.000          22.000          58.000                  
G17  20984524.256    20984523.599    20984523.736                   -16540955.176 8 -16540955.178 8                 -12889043.422 9       426.000         389.000         635.000                  
G19  23186931.224    23186929.188    23186929.639                    -6136397.329 8  -6136397.343 6                  -4781606.654 8       180.000          33.000         114.000                  
G21  20170710.268    20170708.970    20170709.290                   -19805213.349 9 -19805213.350 8                 -15432624.607 8       529.000         264.000         221.000                  
G28  23171485.758    23171484.845    23171485.951                    -8432383.483 8  -8432383.487 7                  -6570684.628 8       212.000          58.000         144.000                  
G31  23566926.549    23566926.282    23566926.463                    -7814798.236 8  -7814798.234 7                  -6089427.727 8       206.000          95.000         213.000                  
> 2024 10 31 11 07 20.0000000  0 10
G02  19519523.413    19519522.254    19519521.130                   -20194419.362 9 -20194419.361 8                 -15735897.591 9       733.000         429.000         704.000                  
G03  19588050.210    19588050.350    19588053.084                   -27476997.428 9 -27476997.429 9                 -21410631.407 9       801.000        1631.000        2534.000                  
G04  21679738.336    21679738.207    21679740.624                   -10068008.909 8 -10068008.909 8                  -7845203.581 8       292.000         128.000         211.000                  
G08  25547526.474    25547524.801    25547532.313                    10858593.612 7  10858593.650 6                   8461228.068 6        60.000          20.000          50.000                  
G17  20976202.379    20976201.912    20976202.256                   -16584685.517 8 -16584685.520 8                 -12923118.960 9       426.000         383.000         644.000                  
G19  23147068.952    23147067.274    23147067.127                    -6345873.820 8  -6345873.834 6                  -4944834.984 8       180.000          37.000         113.000                  
G21  20203443.327    20203442.453    20203442.887                   -19633197.795 9 -19633197.799 8                 -15298586.486 8       519.000         254.000         216.000                  
G28  23131591.716    23131591.731    23131592.483                    -8642024.853 8  -8642024.851 7                  -6734041.464 8       214.000          61.000         146.000                  
G31  23561790.555    23561790.341    23561790.554                    -7841786.136 8  -7841786.140 8                  -6110457.191 8       209.000         101.000         211.000                  
G32  24667387.763    24667386.450    24667396.028                     -520162.330 8   -520162.340 6                   -405324.596 6       119.000          44.000          47.000                  
> 2024 10 31 11 07 30.0000000  0 10
G02  19542792.724    19542791.614    19542790.448                   -20072138.177 9 -20072138.179 8                 -15640613.528 9       733.000         428.000         710.000                  
G03  19583351.440    19583351.310    19583354.066                   -27501691.100 9 -27501691.101 9                 -21429873.189 9       799.000        1636.000        2577.000                  
G04  21733809.331    21733809.177    21733811.334                    -9783864.304 8  -9783864.298 8                  -7623792.224 8       282.000         120.000         202.000                  
G08  25624065.935    25624066.802    25624074.484                    11260823.026 7  11260823.014 6                   8774653.130 7        53.000          24.000          54.000                  
G17  20968848.306    20968847.982    20968848.244                   -16623330.371 8 -16623330.373 8                 -12953231.792 9       426.000         396.000         641.000                  
G19  23107828.856    23107826.626    23107827.411                    -6552080.379 8  -6552080.383 6                  -5105515.308 8       174.000          31.000         120.000                  
G21  20237022.813    20237021.745    20237022.213                   -19456737.164 9 -19456737.164 8                 -15161084.672 8       507.000         242.000         215.000                  
G28  23091946.808    23091946.429    23091947.481                    -8850361.791 8  -8850361.791 7                  -6896381.854 8       219.000          64.000         144.000                  
G31  23556910.853    23556910.385    23556910.758                    -7867429.954 8  -7867429.955 8                  -6130439.289 8       212.000         109.000         213.000                  
G32  24610927.789    24610928.117    24610932.265                     -816851.956 8   -816851.949 6                   -636510.281 8       118.000          40.000         123.000                  
> 2024 10 31 11 07 40.0000000  0 10
G02  19567110.389    19567109.343    19567107.961                   -19944348.278 9 -19944348.280 8                 -15541036.977 9       740.000         442.000         702.000                  
G03  19579508.644    19579508.585    19579511.253                   -27521884.715 9 -27521884.717 9                 -21445608.436 9       805.000        1649.000        2564.000                  
G04  21788236.363    21788235.958    21788238.101                    -9497850.014 8  -9497850.008 8                  -7400923.976 8       286.000         118.000         188.000                  
G08  25700528.086    25700532.311    25700539.755                    11662650.375 6  11662650.387 6                   9087764.854 6        50.000          23.000          48.000                  
G17  20962466.516    20962466.110    20962466.213                   -16656867.314 8 -16656867.316 8                 -12979364.426 9       424.000         390.000         656.000                  
G19  23069221.737    23069219.680    23069220.435                    -6754961.409 8  -6754961.408 6                  -5263604.301 8       176.000          37.000         128.000                  
G21  20271440.308    20271439.031    20271439.565                   -19275873.160 9 -19275873.161 8                 -15020151.656 8       506.000         240.000         208.000                  
G28  23052556.704    23052556.462    23052557.112                    -9057358.564 8  -9057358.566 7                  -7057677.946 8       226.000          74.000         147.000                  
G31  23552288.978    23552289.066    23552289.016                    -7891716.071 8  -7891716.077 7                  -6149363.494 8       210.000          99.000         224.000                  
G32  24554565.400    24554565.931    24554569.759                    -1113037.939 8  -1113037.927 6                   -867304.427 8       124.000          44.000         122.000                  
> 2024 10 31 11 07 50.0000000  0  9
G02  19592465.454    19592464.358    19592463.053                   -19811106.136 9 -19811106.139 8                 -15437211.904 9       742.000         440.000         690.000                  
G03  19576520.424    19576520.419    19576523.125                   -27537587.273 9 -27537587.275 9                 -21457844.167 9       803.000        1642.000        2589.000                  
G04  21843008.856    21843008.535    21843010.717                    -9210019.257 8  -9210019.246 8                  -7176640.287 8       283.000         114.000         170.000                  
G17  20957056.196    20957055.479    20957055.729                   -16685300.311 8 -16685300.311 8                 -13001519.966 9       431.000         395.000         699.000                  
G19  23031253.322    23031251.595    23031252.144                    -6954486.744 8  -6954486.744 6                  -5419078.474 8       176.000          41.000         134.000                  
G21  20306682.682    20306681.322    20306681.748                   -19090673.196 8 -19090673.195 8                 -14875839.986 8       496.000         224.000         198.000                  
G28  23013423.286    23013423.116    23013423.697                    -9263004.369 8  -9263004.374 7                  -7217921.345 8       226.000          68.000         152.000                  
G31  23547924.092    23547923.494    23547924.081                    -7914655.504 8  -7914655.498 8                  -6167238.281 8       208.000         101.000         230.000                  
G32  24498300.090    24498300.411    24498304.987                    -1408711.760 8  -1408711.773 6                  -1097699.475 8       124.000          46.000         128.000                  
> 2024 10 31 11 08  0.0000000  0  9
G02  19618853.009    19618851.879    19618850.517                   -19672438.710 9 -19672438.711 8                 -15329159.339 9       732.000         431.000         662.000                  
G03  19574391.033    19574390.900    19574393.661                   -27548777.911 9 -27548777.911 9                 -21466564.117 9       809.000        1663.000        2669.000                  
G04  21898122.846    21898122.432    21898124.125                    -8920394.296 8  -8920394.295 8                  -6950958.522 8       275.000         112.000         159.000                  
G17  20952621.784    20952621.041    20952621.119                   -16708603.946 8 -16708603.947 8                 -13019678.604 9       436.000         416.000         721.000                  
G19  22993935.239    22993932.932    22993933.750                    -7150595.927 8  -7150595.940 6                  -5571890.706 8       184.000          32.000         120.000                  
G21  20342742.809    20342741.618    20342742.157                   -18901174.713 8 -18901174.714 8                 -14728178.811 8       483.000         221.000         198.000                  
G28  22974555.441    22974555.102    22974555.568                    -9467257.571 8  -9467257.580 7                  -7377079.651 8       227.000          73.000         142.000                  
G31  23543818.808    23543818.533    23543818.529                    -7936228.871 8  -7936228.873 8                  -6184048.613 8       213.000         103.000         230.000                  
G32  24442141.595    24442140.755    24442144.917                    -1703833.957 8  -1703833.969 6                  -1327664.680 8       120.000          40.000         139.000                  
> 2024 10 31 11 08 10.0000000  0  9
G02  19646261.419    19646260.141    19646258.997                   -19528406.351 9 -19528406.354 8                 -15216926.302 9       718.000         419.000         656.000                  
G03  19573117.617    19573117.633    19573120.406                   -27555468.944 9 -27555468.945 9                 -21471777.887 9       815.000        1698.000        2770.000                  
G04  21953568.143    21953567.124    21953569.175                    -8629029.472 8  -8629029.470 8                  -6723921.013 8       268.000         106.000         140.000                  
G17  20949161.274    20949160.979    20949161.040                   -16726786.207 8 -16726786.208 8                 -13033846.560 9       436.000         413.000         727.000                  
G19  22957272.411    22957269.469    22957269.928                    -7343261.138 8  -7343261.150 6                  -5722019.345 8       193.000          39.000         122.000                  
G21  20379607.752    20379606.580    20379607.237                   -18707448.011 8 -18707448.012 8                 -14577222.913 8       470.000         209.000         178.000                  
G28  22935953.986    22935953.698    22935954.370                    -9670108.429 8  -9670108.440 7                  -7535145.218 8       228.000          65.000         143.000                  
G31  23539970.306    23539970.573    23539970.851                    -7956448.887 8  -7956448.884 8                  -6199804.392 8       210.000         103.000         234.000                  
G32  24386087.732    24386087.372    24386091.246                    -1998397.126 8  -1998397.111 6                  -1557194.328 8       126.000          46.000         132.000                  
> 2024 10 31 11 08 20.0000000  0  9
G02  19674687.274    19674685.915    19674684.785                   -19379027.808 9 -19379027.811 8                 -15100527.407 9       704.000         396.000         666.000                  
G03  19572706.252    19572706.209    19572708.962                   -27557630.734 9 -27557630.736 9                 -21473462.377 9       825.000        1734.000        2787.000                  
G04  22009341.556    22009340.960    22009343.080                    -8335936.044 8  -8335936.048 7                  -6495536.539 8       254.000          87.000         131.000                  
G17  20946682.334    20946681.960    20946681.962                   -16739813.623 8 -16739813.625 8                 -13043997.759 9       445.000         432.000         760.000                  
G19  22921277.942    22921275.712    22921275.665                    -7532412.065 8  -7532412.057 6                  -5869409.593 8       205.000          49.000         130.000                  
G21  20417271.796    20417270.756    20417271.382                   -18509521.027 8 -18509521.030 8                 -14422994.064 8       451.000         199.000         171.000                  
G28  22897629.427    22897629.257    22897630.024                    -9871504.427 8  -9871504.432 7                  -7692077.197 8       228.000          66.000         138.000                  
G31  23536385.815    23536386.057    23536386.291                    -7975285.352 8  -7975285.355 8                  -6214482.079 8       211.000         105.000         229.000                  
G32  24330150.501    24330149.871    24330153.822                    -2292350.588 8  -2292350.580 6                  -1786248.872 8       127.000          45.000         138.000                  
> 2024 10 31 11 08 30.0000000  0  9
G02  19704117.181    19704115.886    19704114.664                   -19224372.162 9 -19224372.164 8                 -14980016.492 9       701.000         386.000         670.000                  
G03  19573152.936    19573152.885    19573155.492                   -27555283.840 9 -27555283.841 9                 -21471633.607 9       856.000        1855.000        2755.000                  
G04  22065432.237    22065432.095    22065434.457                    -8041174.332 8  -8041174.328 7                  -6265852.103 8       241.000          81.000         119.000                  
G17  20945180.798    20945180.534    20945180.689                   -16747703.263 8 -16747703.264 8                 -13050145.495 9       452.000         449.000         788.000                  
G19  22885956.336    22885954.290    22885954.026                    -7718028.127 8  -7718028.115 6                  -6014045.420 8       214.000          48.000         135.000                  
G21  20455720.939    20455719.458    20455720.160                   -18307471.595 8 -18307471.596 8                 -14265552.930 8       431.000         177.000         167.000                  
G28  22859582.792    22859582.557    22859583.468                   -10071441.897 8 -10071441.895 7                  -7847872.676 8       228.000          68.000         150.000                  
G31  23533061.666    23533061.249    23533061.444                    -7992757.330 8  -7992757.327 8                  -6228096.536 8       215.000         109.000         245.000                  
G32  24274328.801    24274328.602    24274332.622                    -2585692.809 8  -2585692.823 6                  -2014827.190 8       130.000          48.000         127.000                  
> 2024 10 31 11 08 40.0000000  0  9
G02  19734545.865    19734544.677    19734543.517                   -19064467.885 9 -19064467.887 8                 -14855415.737 9       696.000         391.000         680.000                  
G03  19574461.426    19574461.274    19574463.914                   -27548408.044 9 -27548408.045 9                 -21466275.826 9       862.000        1894.000        2743.000                  
G04  22121838.124    22121837.489    22121839.504                    -7744762.761 8  -7744762.760 7                  -6034882.049 8       232.000          79.000         101.000                  
G17  20944661.776    20944661.258    20944661.456                   -16750431.862 8 -16750431.865 8                 -13052271.640 9       452.000         440.000         795.000                  
G19  22851319.275    22851317.394    22851317.106                    -7900047.624 8  -7900047.626 7                  -6155878.774 8       222.000          54.000         152.000                  
G21  20494946.818    20494945.438    20494946.251                   -18101336.321 8 -18101336.325 8                 -14104928.037 8       423.000         171.000         157.000                  
G28  22821821.956    22821821.775    22821822.597                   -10269875.564 8 -10269875.568 7                  -8002496.415 8       226.000          70.000         145.000                  
G31  23530000.812    23530000.319    23530000.574                    -8008842.122 8  -8008842.122 8                  -6240630.071 8       213.000         110.000         239.000                  
G32  24218631.751    24218632.125    24218635.788                    -2878380.112 8  -2878380.113 6                  -2242895.144 8       132.000          50.000         140.000                  
> 2024 10 31 11 08 50.0000000  0  9
G02  19765961.445    19765960.257    19765959.176                   -18899377.804 9 -18899377.806 8                 -14726774.103 9       681.000         371.000         682.000                  
G03  19576629.013    19576628.847    19576631.489                   -27537017.102 9 -27537017.103 9                 -21457399.746 9       866.000        1901.000        2745.000                  
G04  22178547.024    22178546.938    22178548.942                    -7446752.588 8  -7446752.583 7                  -5802666.337 7       229.000          80.000          94.000                  
G17  20945122.504    20945121.960    20945122.185                   -16748010.423 8 -16748010.425 8                 -13050384.766 9       449.000         439.000         779.000                  
G19  22817371.339    22817370.039    22817369.401                    -8078442.254 8  -8078442.251 7                  -6294887.601 8       237.000          52.000         153.000                  
G21  20534937.203    20534936.008    20534936.733                   -17891185.290 8 -17891185.292 8                 -13941173.973 8       410.000         163.000         149.000                  
G28  22784350.362    22784349.851    22784350.527                   -10466792.854 8 -10466792.863 7                  -8155938.547 8       234.000          69.000         148.000                  
G31  23527201.577    23527201.362    23527201.759                    -8023550.010 8  -8023550.017 7                  -6252090.719 8       213.000          99.000         239.000                  
G32  24163062.499    24163062.293    24163065.816                    -3170401.925 8  -3170401.919 7                  -2470444.576 8       135.000          53.000         140.000                  
> 2024 10 31 11 09  0.0000000  0  9
G02  19798356.482    19798355.234    19798354.177                   -18729140.716 9 -18729140.719 8                 -14594121.811 9       674.000         360.000         674.000                  
G03  19579657.547    19579657.571    19579660.232                   -27521100.852 9 -27521100.853 9                 -21444997.448 9       866.000        1910.000        2748.000                  
G04  22235555.931    22235555.617    22235557.709                    -7147170.017 8  -7147170.022 7                  -5569225.380 7       221.000          72.000          84.000                  
G17  20946565.522    20946564.955    20946565.180                   -16740426.634 8 -16740426.637 8                 -13044475.279 9       452.000         428.000         752.000                  
G19  22784124.546    22784122.446    22784122.392                    -8253159.449 8  -8253159.457 7                  -6431030.954 8       243.000          56.000         158.000                  
G21  20575683.117    20575681.909    20575682.341                   -17677064.216 8 -17677064.219 8                 -13774326.373 8       400.000         151.000         143.000                  
G28  22747173.330    22747173.432    22747174.351                   -10662156.230 8 -10662156.228 7                  -8308169.779 8       231.000          66.000         158.000                  
G31  23524667.324    23524667.055    23524667.459                    -8036866.442 8  -8036866.443 8                  -6262467.086 8       215.000         106.000         248.000                  
G32  24107625.862    24107625.660    24107628.937                    -3461722.351 8  -3461722.355 7                  -2697447.474 8       136.000          51.000         137.000                  
> 2024 10 31 11 09 10.0000000  0  9
G02  19831722.093    19831720.860    19831719.741                   -18553802.970 9 -18553802.971 8                 -14457494.988 9       677.000         366.000         668.000                  
G03  19583548.023    19583548.000    19583550.689                   -27500656.463 9 -27500656.464 9                 -21429066.723 9       872.000        1928.000        2761.000                  
G04  22292857.701    22292857.528    22292859.462                    -6846047.420 8  -6846047.407 7                  -5334584.396 7       210.000          60.000          79.000                  
G17  20948991.736    20948991.347    20948991.650                   -16727675.737 8 -16727675.740 8                 -13034539.463 9       447.000         435.000         738.000                  
G19  22751585.076    22751583.043    22751583.193                    -8424153.526 8  -8424153.515 7                  -6564273.207 8       252.000          56.000         162.000                  
G21  20617174.419    20617172.946    20617173.649                   -17459025.790 8 -17459025.792 8                 -13604426.279 8       386.000         141.000         142.000                  
G28  22710298.687    22710298.319    22710299.583                   -10855934.730 8 -10855934.728 7                  -8459166.058 8       232.000          77.000         154.000                  
G31  23522399.482    23522399.363    23522399.942                    -8048783.434 8  -8048783.439 8                  -6271752.995 8       214.000         106.000         241.000                  
G32  24052328.195    24052328.273    24052331.563                    -3752311.765 8  -3752311.769 6                  -2923880.751 8       138.000          50.000         134.000                  
> 2024 10 31 11 09 20.0000000  0  9
G02  19866045.989    19866044.944    19866043.845                   -18373429.177 9 -18373429.180 8                 -14316943.976 9       671.000         357.000         658.000                  
G03  19588297.207    19588297.152    19588299.810                   -27475699.376 9 -27475699.377 9                 -21409619.598 9       870.000        1915.000        2743.000                  
G04  22350443.374    22350442.786    22350444.752                    -6543434.302 8  -6543434.305 7                  -5098781.979 7       195.000          61.000          79.000                  
G17  20952398.974    20952398.417    20952398.516                   -16709771.735 8 -16709771.737 8                 -13020588.222 9       450.000         441.000         711.000                  
G19  22719760.095    22719758.185    22719758.243                    -8591396.454 8  -8591396.452 7                  -6694592.405 8       250.000          68.000         165.000                  
G21  20659397.853    20659396.604    20659397.052                   -17237140.251 8 -17237140.254 8                 -13431528.435 8       375.000         134.000         144.000                  
G28  22673728.406    22673727.799    22673728.909                   -11048114.399 8 -11048114.408 7                  -8608916.510 8       234.000          78.000         156.000                  
G31  23520396.567    23520396.309    23520396.605                    -8059310.112 8  -8059310.111 8                  -6279955.533 8       218.000         104.000         247.000                  
G32  23997172.697    23997172.378    23997175.928                    -4042157.581 8  -4042157.577 7                  -3149734.590 8       139.000          54.000         147.000                  
> 2024 10 31 11 09 30.0000000  0  9
G02  19901322.801    19901321.590    19901320.592                   -18188048.694 9 -18188048.694 8                 -14172491.646 9       666.000         358.000         647.000                  
G03  19593908.920    19593908.853    19593911.407                   -27446209.872 9 -27446209.873 9                 -21386640.738 9       876.000        1936.000        2675.000                  
G04  22408309.223    22408309.392    22408311.272                    -6239343.764 8  -6239343.757 6                  -4861828.337 7       185.000          50.000          73.000                  
G17  20956790.449    20956789.806    20956789.971                   -16686693.823 8 -16686693.826 8                 -13002605.383 9       453.000         446.000         686.000                  
G19  22688660.598    22688658.931    22688658.862                    -8754825.185 8  -8754825.186 7                  -6821939.536 8       250.000          69.000         165.000                  
G21  20702346.869    20702345.489    20702346.394                   -17011442.175 8 -17011442.177 8                 -13255659.800 8       372.000         129.000         151.000                  
G28  22637471.631    22637471.281    22637472.064                   -11238645.143 8 -11238645.148 7                  -8757382.130 8       236.000          66.000         158.000                  
G31  23518662.619    23518662.868    23518663.000                    -8068419.491 8  -8068419.494 8                  -6287053.698 8       218.000         107.000         237.000                  
G32  23942166.952    23942167.252    23942170.566                    -4331210.894 8  -4331210.891 7                  -3374970.896 8       139.000          58.000         145.000                  
> 2024 10 31 11 09 40.0000000  0  9
G02  19937536.858    19937535.656    19937534.466                   -17997743.066 9 -17997743.068 8                 -14024201.537 9       663.000         361.000         621.000                  
G03  19600376.944    19600376.777    19600379.334                   -27412220.442 9 -27412220.443 9                 -21360155.496 9       866.000        1907.000        2615.000                  
G04  22466445.129    22466445.024    22466446.345                    -5933839.936 8  -5933839.905 6                  -4623773.414 7       183.000          50.000          67.000                  
G17  20962160.134    20962159.949    20962160.111                   -16658473.822 8 -16658473.825 8                 -12980615.770 9       450.000         440.000         680.000                  
G19  22658288.563    22658287.256    22658287.346                    -8914428.490 8  -8914428.498 7                  -6946305.983 8       244.000          61.000         176.000                  
G21  20746005.135    20746003.541    20746004.613                   -16782017.694 8 -16782017.701 8                 -13076887.461 8       356.000         112.000         151.000                  
G28  22601528.633    22601527.984    22601529.128                   -11427527.920 8 -11427527.919 7                  -8904563.649 8       238.000          80.000         160.000                  
G31  23517194.517    23517194.431    23517194.577                    -8076135.900 8  -8076135.898 8                  -6293066.455 8       214.000         102.000         231.000                  
G32  23887312.483    23887312.381    23887316.221                    -4619473.865 8  -4619473.870 7                  -3599591.377 8       142.000          52.000         157.000                  
> 2024 10 31 11 09 50.0000000  0  9
G02  19974683.610    19974682.398    19974681.322                   -17802535.025 9 -17802535.027 8                 -13872091.402 9       657.000         347.000         592.000                  
G03  19607706.151    19607706.206    19607708.725                   -27373704.764 9 -27373704.766 9                 -21330143.391 9       876.000        1948.000        2653.000                  
G04  22524848.584    22524848.364    22524850.411                    -5626927.036 8  -5626927.034 6                  -4384620.536 7       172.000          48.000          59.000                  
G17  20968514.317    20968513.679    20968513.949                   -16625085.269 8 -16625085.270 8                 -12954598.827 9       450.000         432.000         677.000                  
G19  22628658.679    22628657.270    22628657.508                    -9070135.459 8  -9070135.452 7                  -7067636.281 8       242.000          58.000         173.000                  
G21  20790367.003    20790365.621    20790366.266                   -16548893.557 8 -16548893.556 8                 -12895232.300 8       344.000         110.000         164.000                  
G28  22565910.335    22565909.945    22565910.958                   -11614703.683 8 -11614703.681 7                  -9050414.928 8       247.000          75.000         174.000                  
G31  23515998.490    23515997.941    23515998.022                    -8082423.933 8  -8082423.938 8                  -6297966.247 8       217.000         105.000         218.000                  
G32  23832619.520    23832619.216    23832622.788                    -4906888.597 8  -4906888.597 7                  -3823550.881 8       143.000          62.000         162.000                  
> 2024 10 31 11 10  0.0000000  0  9
G02  20012748.592    20012747.427    20012746.344                   -17602502.407 9 -17602502.409 8                 -13716221.914 9       654.000         349.000         571.000                  
G03  19615891.504    19615891.523    19615894.148                   -27330691.729 9 -27330691.730 9                 -21296626.980 9       886.000        1992.000        2777.000                  
G04  22583509.795    22583508.845    22583511.426                    -5318663.312 8  -5318663.319 7                  -4144415.092 7       167.000          51.000          58.000                  
G17  20975846.032    20975845.635    20975845.676                   -16586557.170 8 -16586557.172 8                 -12924577.197 9       454.000         451.000         665.000                  
G19  22599773.794    22599771.753    22599772.104                    -9221930.173 8  -9221930.173 7                  -7185917.891 8       247.000          62.000         167.000                  
G21  20835417.573    20835416.120    20835417.131                   -16312150.946 8 -16312150.949 8                 -12710757.617 8       327.000         107.000         158.000                  
G28  22530617.602    22530617.177    22530618.268                   -11800167.895 8 -11800167.901 7                  -9194932.487 8       256.000          81.000         166.000                  
G31  23515069.866    23515069.585    23515069.458                    -8087302.672 8  -8087302.674 8                  -6301768.045 8       213.000         104.000         216.000                  
G32  23778087.996    23778087.933    23778091.670                    -5193451.252 8  -5193451.247 7                  -4046846.416 8       147.000          51.000         167.000                  
> 2024 10 31 11 10 10.0000000  0  9
G02  20051723.762    20051722.638    20051721.444                   -17397687.798 9 -17397687.800 8                 -13556626.274 9       658.000         343.000         568.000                  
G03  19624933.883    19624933.835    19624936.549                   -27283174.974 9 -27283174.975 9                 -21259601.234 9       888.000        2015.000        2811.000                  
G04  22642423.588    22642422.723    22642424.656                    -5009070.744 8  -5009070.759 6                  -3903174.230 6       160.000          42.000          50.000                  
G17  20984156.877    20984156.655    20984156.823                   -16542883.633 8 -16542883.635 8                 -12890546.163 9       457.000         448.000         669.000                  
G19  22571642.448    22571640.208    22571640.394                    -9369762.159 8  -9369762.152 7                  -7301111.717 8       242.000          70.000         166.000                  
G21  20881148.021    20881146.334    20881147.779                   -16071835.844 8 -16071835.848 7                 -12523499.247 8       310.000          97.000         171.000                  
G28  22495658.419    22495657.958    22495658.974                   -11983879.693 8 -11983879.691 7                  -9338084.413 8       262.000          99.000         173.000                  
G31  23514412.757    23514412.535    23514413.000                    -8090754.907 8  -8090754.905 7                  -6304458.387 8       211.000         100.000         204.000                  
G32  23723726.423    23723726.431    23723730.354                    -5479121.768 8  -5479121.767 7                  -4269446.735 8       154.000          62.000         179.000                  
