     3.03           OBSERVATION DATA    M (MIXED)           RINEX VERSION / TYPE
BJPP                CNES                20241031 174225 UTC PGM / RUN BY / DATE 
MARKER                                                      MARKER NAME         
SPACECRAFT                                                  MARKER TYPE         
OBSERVER            CNES                                    OBSERVER / AGENCY   
RECNUM              BLACKJACK           RECVERS             REC # / TYPE / VERS 
ANTNUM              BLACKJACK                               ANT # / TYPE        
        0.0000        0.0000        0.0000                  ANTENNA: DELTA H/E/N
G   12 C1C C1W C2W C2X L1C L1W L2X L2W S1C S1W S2W S2X      SYS / # / OBS TYPES 
DBHZ                                                        SIGNAL STRENGTH UNIT
This rinex produced from the following file(s):             COMMENT             
/tmp/mesos_work/slaves/d197f515-9ebc-49f2-8adc-fe7a9d3e6458-COMMENT             
S5/frameworks/8c1b9f46-52ed-4aff-9edf-38d17bf6761e-3334/execCOMMENT             
utors/toil-87042/runs/ab2cd8b9-5db4-4d99-9f41-b489670acbfd/9COMMENT             
ad536c9c257557f8d73427d2f90b66d/8a4d/ab35/tmpxdzdrv99ki6w16sCOMMENT             
l/stg71253989-f3ca-410f-8ce2-ec7b24ec55a5/SWOT_IVK_20241031TCOMMENT             
170632_20241031T155349_20241031T172139_O_APID1280.PTM_0     COMMENT             
  2024    10    31    15    53   20.0000000                 TIME OF FIRST OBS   
G L1C                                                       SYS / PHASE SHIFT   
G L1W -0.25000                                              SYS / PHASE SHIFT   
G L2W                                                       SYS / PHASE SHIFT   
G L2X  0.25000                                              SYS / PHASE SHIFT   
                                                            END OF HEADER       
> 2024 10 31 15 53 20.0000000  0  1
G13  22461627.060    22461626.052    22461627.816                   -12220678.828 8 -12220678.822 6                  -9522621.911 7       203.000          28.000          57.000                  
> 2024 10 31 15 53 30.0000000  0 10
G10  24969573.852    24969572.993    24969577.891                      363916.969 7    363916.982 6                    283564.213 7       100.000          30.000          80.000                  
G12  19996777.325    19996776.827    19996777.227                   -25442580.557 9 -25442580.558 9                 -19825385.714 9       797.000        1494.000        1427.000                  
G13  22407290.015    22407288.874    22407290.289                   -12506223.232 8 -12506223.249 6                  -9745124.085 7       210.000          34.000          62.000                  
G15  20686417.777    20686417.491    20686418.931                   -17507085.561 9 -17507085.561 9                 -13641884.269 9       594.000         791.000         924.000                  
G17  24316616.706    24316615.950    24316617.063                    -3470164.700 8  -3470164.690 6                  -2704030.594 7       142.000          45.000          94.000                  
G19  21514675.312    21514673.242    21514673.205                   -17147267.842 8 -17147267.842 8                 -13361509.382 8       353.000         120.000         149.000                  
G22  25285970.266    25285967.989    25285971.243                     1674408.453 7   1674408.442 6                   1304724.249 6        77.000          25.000          19.000                  
G23  23838556.930    23838555.737    23838557.975                    -2854728.199 8  -2854728.214 6                  -2224467.827 6       128.000          26.000          28.000                  
G24  19729526.683    19729526.380    19729529.234                   -20383963.109 9 -20383963.110 9                 -15883612.726 9       788.000        1512.000        1941.000                  
G25  22573891.660    22573890.346    22573895.400                   -10403486.432 8 -10403486.434 8                  -8106615.760 8       205.000         103.000         138.000                  
> 2024 10 31 15 53 40.0000000  0 10
G10  25017647.512    25017644.941    25017649.954                      616534.124 8    616534.121 6                    480408.449 7       101.000          30.000          76.000                  
G12  20011362.113    20011361.620    20011362.075                   -25365937.435 9 -25365937.436 9                 -19765663.874 9       775.000        1432.000        1504.000                  
G13  22353276.155    22353275.162    22353276.649                   -12790068.218 8 -12790068.226 6                  -9966302.035 7       211.000          31.000          65.000                  
G15  20646924.695    20646924.380    20646925.813                   -17714623.436 9 -17714623.437 9                 -13803602.148 9       581.000         766.000         992.000                  
G17  24368456.411    24368456.148    24368456.997                    -3197743.353 8  -3197743.361 6                  -2491754.380 7       130.000          49.000          89.000                  
G19  21539843.882    21539842.496    21539841.988                   -17015004.278 8 -17015004.277 8                 -13258446.967 8       350.000         128.000         150.000                  
G22  25326519.131    25326513.907    25326517.275                     1887479.627 7   1887479.621 6                   1470753.590 6        74.000          21.000          22.000                  
G23  23846522.672    23846521.211    23846524.617                    -2812869.611 8  -2812869.605 6                  -2191850.963 6       125.000          33.000          28.000                  
G24  19760230.313    19760230.238    19760233.110                   -20222613.654 9 -20222613.655 9                 -15757885.958 9       767.000        1418.000        1990.000                  
G25  22565453.792    22565453.171    22565457.596                   -10447827.308 8 -10447827.309 8                  -8141167.214 8       202.000         105.000         145.000                  
> 2024 10 31 15 53 50.0000000  0 10
G10  25065739.969    25065738.295    25065742.899                      869263.678 7    869263.693 6                    677340.232 7       100.000          31.000          72.000                  
G12  20026990.431    20026989.820    20026990.303                   -25283811.157 9 -25283811.159 9                 -19701669.447 9       785.000        1466.000        1554.000                  
G13  22299590.976    22299589.698    22299590.994                   -13072186.122 8 -13072186.125 6                 -10186134.215 7       221.000          38.000          72.000                  
G15  20607977.536    20607977.326    20607978.746                   -17919291.850 9 -17919291.850 9                 -13963084.084 9       570.000         732.000        1060.000                  
G17  24420694.307    24420693.006    24420693.446                    -2923237.267 8  -2923237.276 6                  -2277853.719 7       126.000          39.000          75.000                  
G19  21565888.942    21565887.159    21565887.032                   -16878137.832 8 -16878137.830 8                 -13151797.888 8       345.000         115.000         154.000                  
G22  25367256.809    25367255.374    25367257.397                     2101568.685 7   2101568.681 6                   1637575.951 6        75.000          22.000          16.000                  
G23  23854640.692    23854639.925    23854642.679                    -2770205.907 8  -2770205.918 6                  -2158606.761 6       126.000          29.000          32.000                  
G24  19791678.672    19791678.440    19791681.354                   -20057352.463 9 -20057352.464 9                 -15629111.088 9       764.000        1407.000        2095.000                  
G25  22557653.831    22557653.280    22557657.864                   -10488815.155 8 -10488815.155 7                  -8173105.926 8       205.000         100.000         144.000                  
> 2024 10 31 15 54  0.0000000  0 10
G10  25113845.805    25113845.708    25113849.794                     1122066.613 8   1122066.595 6                    874329.167 7       104.000          30.000          79.000                  
G12  20043655.297    20043654.997    20043655.608                   -25196234.787 9 -25196234.789 9                 -19633428.210 9       768.000        1403.000        1613.000                  
G13  22246237.209    22246236.754    22246239.171                   -13352557.358 8 -13352557.354 6                 -10404605.362 7       230.000          39.000          78.000                  
G15  20569580.462    20569579.884    20569581.468                   -18121071.208 9 -18121071.210 9                 -14120314.810 9       569.000         734.000        1125.000                  
G17  24473313.907    24473313.665    24473314.882                    -2646714.021 8  -2646714.018 6                  -2062381.266 7       119.000          35.000          74.000                  
G19  21592799.536    21592797.726    21592797.679                   -16736722.375 8 -16736722.377 8                 -13041604.147 8       348.000         118.000         164.000                  
G22  25408179.874    25408176.782    25408180.625                     2316622.141 7   2316622.147 6                   1805149.708 6        70.000          20.000          21.000                  
G23  23862908.499    23862908.373    23862911.601                    -2726756.084 8  -2726756.082 6                  -2124750.032 6       124.000          32.000          33.000                  
G24  19823861.943    19823861.746    19823864.785                   -19888228.276 9 -19888228.279 9                 -15497326.098 9       760.000        1402.000        2249.000                  
G25  22550493.427    22550492.289    22550496.754                   -10526447.117 8 -10526447.116 8                  -8202429.679 8       208.000         111.000         155.000                  
> 2024 10 31 15 54 10.0000000  0 10
G10  25161968.866    25161967.521    25161971.996                     1374945.562 8   1374945.580 6                   1071377.306 7       103.000          35.000          75.000                  
G12  20061359.291    20061358.767    20061359.341                   -25103201.509 9 -25103201.510 9                 -19560934.846 9       772.000        1409.000        1672.000                  
G13  22193228.580    22193228.303    22193230.166                   -13631121.062 8 -13631121.065 6                 -10621668.042 7       245.000          42.000          80.000                  
G15  20531744.221    20531744.018    20531745.583                   -18319900.541 9 -18319900.542 9                 -14275246.816 9       588.000         787.000        1232.000                  
G17  24526314.435    24526312.840    24526314.356                    -2368199.809 8  -2368199.805 6                  -1845357.408 7       112.000          35.000          79.000                  
G19  21620573.164    21620571.630    21620571.615                   -16590771.293 8 -16590771.297 8                 -12927876.160 8       339.000         107.000         180.000                  
G22  25449284.164    25449281.424    25449286.809                     2532628.172 7   2532628.201 6                   1973465.842 6        68.000          17.000          22.000                  
G23  23871331.649    23871330.288    23871334.353                    -2682497.653 8  -2682497.650 6                  -2090263.203 6       124.000          22.000          34.000                  
G24  19856778.727    19856778.668    19856781.748                   -19715249.052 9 -19715249.054 9                 -15362537.185 9       754.000        1393.000        2406.000                  
G25  22543978.844    22543978.199    22543983.102                   -10560679.595 8 -10560679.603 8                  -8229104.484 8       210.000         115.000         175.000                  
> 2024 10 31 15 54 20.0000000  0 10
G10  25210092.872    25210092.336    25210096.745                     1627842.042 8   1627842.037 6                   1268439.067 7       101.000          34.000          70.000                  
G12  20080090.661    20080090.225    20080090.806                   -25004767.251 9 -25004767.252 9                 -19484232.925 9       760.000        1373.000        1624.000                  
G13  22140563.683    22140562.993    22140564.706                   -13907877.585 8 -13907877.580 6                 -10837322.528 7       257.000          48.000          86.000                  
G15  20494469.613    20494469.373    20494470.901                   -18515780.641 9 -18515780.642 9                 -14427880.719 9       615.000         859.000        1292.000                  
G17  24579675.512    24579674.827    24579676.601                    -2087782.116 8  -2087782.115 6                  -1626850.369 7       109.000          34.000          72.000                  
G19  21649195.482    21649193.974    21649193.771                   -16440360.275 8 -16440360.275 8                 -12810672.907 8       329.000         107.000         194.000                  
G22  25490557.964    25490554.228    25490556.557                     2749513.613 7   2749513.601 6                   2142467.216 6        66.000          29.000          20.000                  
G23  23879899.511    23879899.441    23879902.713                    -2637469.529 8  -2637469.519 6                  -2055176.650 6       122.000          29.000          30.000                  
G24  19890416.129    19890415.813    19890418.903                   -19538484.633 9 -19538484.634 9                 -15224798.773 9       741.000        1335.000        2491.000                  
G25  22538108.357    22538107.362    22538112.424                   -10591531.019 8 -10591531.020 8                  -8253144.704 8       214.000         118.000         192.000                  
> 2024 10 31 15 54 30.0000000  0 11
G10  25258221.843    25258222.721    25258226.875                     1880765.635 8   1880765.619 6                   1465521.909 7       101.000          33.000          72.000                  
G11  25049736.645    25049733.490    25049742.915                     -321603.525 8   -321603.539 6                   -250601.987 6       127.000          26.000          21.000                  
G12  20099851.951    20099851.479    20099852.095                   -24900921.507 9 -24900921.509 9                 -19403314.265 9       766.000        1370.000        1588.000                  
G13  22088255.655    22088254.915    22088257.082                   -14182759.318 8 -14182759.327 6                 -11051516.143 7       272.000          49.000          90.000                  
G15  20457768.944    20457768.695    20457770.220                   -18708644.456 9 -18708644.457 9                 -14578164.271 9       648.000         951.000        1312.000                  
G17  24633396.541    24633395.390    24633396.828                    -1805480.552 8  -1805480.558 6                  -1406875.386 7       107.000          28.000          75.000                  
G19  21678665.244    21678662.966    21678663.434                   -16285498.122 8 -16285498.123 8                 -12690001.245 8       326.000         106.000         205.000                  
G22  25531995.648    25531993.108    25531995.564                     2967273.323 7   2967273.332 6                   2312148.716 6        62.000          20.000          19.000                  
G23  23888620.288    23888620.328    23888623.408                    -2591642.622 8  -2591642.622 6                  -2019467.691 6       120.000          26.000          32.000                  
G24  19924772.901    19924772.859    19924775.975                   -19357937.583 9 -19357937.583 9                 -15084112.864 9       737.000        1319.000        2505.000                  
G25  22532890.665    22532889.423    22532894.113                   -10618952.706 8 -10618952.711 8                  -8274512.413 8       218.000         118.000         208.000                  
> 2024 10 31 15 54 40.0000000  0 11
G10  25306349.453    25306348.002    25306352.940                     2133667.162 7   2133667.166 6                   1662587.526 7        98.000          31.000          65.000                  
G11  24986478.255    24986478.161    24986480.466                     -654019.497 8   -654019.521 6                   -509626.016 6       124.000          29.000          24.000                  
G12  20120633.372    20120633.007    20120633.596                   -24791714.140 9 -24791714.141 9                 -19318217.722 9       766.000        1390.000        1493.000                  
G13  22036305.904    22036305.703    22036306.749                   -14455757.747 8 -14455757.722 6                 -11264242.249 7       287.000          50.000          96.000                  
G15  20421643.694    20421643.355    20421644.856                   -18898484.625 9 -18898484.627 9                 -14726091.737 9       668.000        1001.000        1275.000                  
G17  24687459.865    24687459.308    24687460.669                    -1521373.742 8  -1521373.751 6                  -1185493.744 7       106.000          31.000          67.000                  
G19  21708968.064    21708966.126    21708966.901                   -16126253.538 8 -16126253.531 7                 -12565914.713 8       312.000          93.000         209.000                  
G22  25573587.359    25573586.117    25573589.838                     3185843.378 7   3185843.372 6                   2482469.728 6        59.000          19.000          21.000                  
G23  23897488.142    23897486.596    23897490.798                    -2545046.866 8  -2545046.885 6                  -1983159.599 6       119.000          23.000          34.000                  
G24  19959838.113    19959837.921    19959841.053                   -19173669.916 9 -19173669.917 9                 -14940527.778 9       723.000        1281.000        2388.000                  
G25  22528322.359    22528322.038    22528326.678                   -10642955.650 8 -10642955.654 8                  -8293216.172 8       220.000         117.000         212.000                  
> 2024 10 31 15 54 50.0000000  0 11
G10  25354466.834    25354466.987    25354471.630                     2386529.071 7   2386529.069 6                   1859622.234 7        99.000          27.000          63.000                  
G11  24923502.175    24923501.178    24923504.459                     -984964.386 8   -984964.391 6                   -767505.149 6       129.000          29.000          26.000                  
G12  20142431.515    20142431.143    20142431.699                   -24677165.052 9 -24677165.053 9                 -19228958.806 9       780.000        1444.000        1465.000                  
G13  21984722.003    21984721.601    21984723.074                   -14726832.793 8 -14726832.798 7                 -11475469.627 7       290.000          60.000          94.000                  
G15  20386100.983    20386100.790    20386102.278                   -19085262.326 9 -19085262.328 9                 -14871632.864 9       681.000        1058.000        1279.000                  
G17  24741857.722    24741857.969    24741859.006                    -1235508.831 8  -1235508.834 6                   -962742.169 7       103.000          25.000          63.000                  
G19  21740097.981    21740096.304    21740096.923                   -15962664.655 8 -15962664.657 7                 -12438443.011 8       302.000          90.000         209.000                  
G22  25615328.651    25615328.176    25615328.553                     3405191.318 7   3405191.311 6                   2653389.856 6        60.000          19.000          22.000                  
G23  23906501.500    23906500.795    23906503.899                    -2497680.729 8  -2497680.724 6                  -1946251.244 6       117.000          23.000          36.000                  
G24  19995605.201    19995604.970    19995608.228                   -18985712.817 9 -18985712.818 9                 -14794067.811 9       708.000        1218.000        2330.000                  
G25  22524409.528    22524408.668    22524413.585                   -10663520.123 8 -10663520.124 8                  -8309240.607 8       224.000         119.000         215.000                  
> 2024 10 31 15 55  0.0000000  0 11
G10  25402577.466    25402577.860    25402582.638                     2639351.443 7   2639351.424 6                   2056626.071 7        95.000          33.000          61.000                  
G11  24860818.922    24860818.444    24860822.180                    -1314365.828 8  -1314365.805 6                  -1024181.672 6       129.000          27.000          21.000                  
G12  20165245.166    20165244.838    20165245.494                   -24557278.261 9 -24557278.262 9                 -19135540.648 9       784.000        1447.000        1441.000                  
G13  21933515.067    21933514.643    21933516.056                   -14995927.092 8 -14995927.091 7                 -11685153.559 8       293.000          55.000         105.000                  
G15  20351151.994    20351151.592    20351153.130                   -19268921.632 9 -19268921.634 9                 -15014744.075 9       697.000        1104.000        1303.000                  
G17  24796586.429    24796585.695    24796586.817                     -947915.373 8   -947915.389 6                   -738643.705 7       105.000          35.000          61.000                  
G19  21772050.808    21772048.930    21772049.595                   -15794753.032 8 -15794753.034 7                 -12307602.946 8       293.000          84.000         221.000                  
G22  25657215.510    25657213.463    25657218.445                     3625301.611 7   3625301.653 6                   2824903.244 6        53.000          16.000          18.000                  
G23  23915665.962    23915664.986    23915667.930                    -2449525.250 8  -2449525.239 6                  -1908727.796 6       116.000          26.000          36.000                  
G24  20032071.754    20032071.505    20032074.715                   -18794080.511 9 -18794080.513 9                 -14644744.053 9       695.000        1172.000        2233.000                  
G25  22521157.946    22521156.771    22521161.870                   -10680609.792 8 -10680609.786 8                  -8322557.409 8       220.000         124.000         226.000                  
> 2024 10 31 15 55 10.0000000  0 10
G10  25450670.669    25450668.474    25450674.549                     2892070.532 7   2892070.536 6                   2253549.401 7        88.000          25.000          52.000                  
G11  24798432.050    24798430.859    24798434.462                    -1642215.441 8  -1642215.430 6                  -1279648.963 6       132.000          27.000          26.000                  
G12  20189061.629    20189061.285    20189061.783                   -24432123.154 9 -24432123.155 9                 -19038017.311 9       820.000        1589.000        1428.000                  
G13  21882683.597    21882683.083    21882684.975                   -15263047.154 8 -15263047.161 7                 -11893299.131 8       295.000          52.000         111.000                  
G15  20316794.544    20316794.385    20316795.873                   -19449470.985 9 -19449470.986 9                 -15155431.953 9       706.000        1117.000        1309.000                  
G17  24851625.504    24851623.807    24851625.496                     -658687.220 8   -658687.234 6                   -513271.485 7       101.000          29.000          62.000                  
G19  21804809.524    21804807.851    21804808.121                   -15622605.232 8 -15622605.243 7                 -12173461.975 8       285.000          82.000         221.000                  
G23  23924971.269    23924971.027    23924973.628                    -2400625.513 8  -2400625.522 6                  -1870624.454 6       119.000          27.000          37.000                  
G24  20069222.550    20069222.393    20069225.613                   -18598851.800 9 -18598851.802 9                 -14492617.906 9       683.000        1132.000        2051.000                  
G25  22518561.987    22518560.914    22518565.940                   -10694253.080 8 -10694253.079 8                  -8333188.720 8       221.000         123.000         223.000                  
> 2024 10 31 15 55 20.0000000  0 10
G10  25498741.502    25498739.857    25498745.901                     3144684.348 7   3144684.362 6                   2450390.620 7        88.000          33.000          51.000                  
G11  24736352.625    24736351.785    24736355.096                    -1968443.096 8  -1968443.088 6                  -1533852.342 6       134.000          28.000          29.000                  
G12  20213878.956    20213878.362    20213879.041                   -24301708.713 9 -24301708.715 9                 -18936395.794 9       831.000        1631.000        1499.000                  
G13  21832238.930    21832238.071    21832240.236                   -15528138.140 8 -15528138.144 7                 -12099863.618 8       302.000          59.000         104.000                  
G15  20283039.074    20283038.784    20283040.394                   -19626857.625 9 -19626857.626 9                 -15293655.384 9       707.000        1130.000        1380.000                  
G17  24906968.637    24906967.386    24906969.122                     -367856.063 7   -367856.075 6                   -286650.191 7        97.000          29.000          59.000                  
G19  21838369.489    21838367.644    21838368.442                   -15446246.924 8 -15446246.925 7                 -12036040.101 8       278.000          86.000         226.000                  
G23  23934421.914    23934420.556    23934424.539                    -2350964.974 8  -2350964.968 6                  -1831928.252 6       119.000          23.000          39.000                  
G24  20107054.759    20107054.289    20107057.528                   -18400044.335 9 -18400044.337 9                 -14337703.124 9       671.000        1111.000        1984.000                  
G25  22516627.785    22516627.020    22516631.747                   -10704417.586 8 -10704417.590 8                  -8341109.304 8       222.000         122.000         229.000                  
> 2024 10 31 15 55 30.0000000  0 10
G10  25546791.116    25546790.604    25546796.998                     3397191.701 7   3397191.697 6                   2647148.812 6        80.000          27.000          50.000                  
G11  24674596.000    24674595.289    24674598.588                    -2292978.041 8  -2292978.025 6                  -1786736.826 6       132.000          33.000          29.000                  
G12  20239695.067    20239694.558    20239695.202                   -24166044.757 9 -24166044.758 9                 -18830683.754 9       844.000        1690.000        1542.000                  
G13  21782190.230    21782189.874    21782191.700                   -15791144.391 8 -15791144.383 7                 -12304803.641 8       318.000          60.000         114.000                  
G15  20249895.256    20249895.216    20249896.878                   -19801028.522 9 -19801028.523 9                 -15429373.049 9       709.000        1140.000        1404.000                  
G17  24962610.354    24962610.220    24962613.039                      -75453.220 7    -75453.225 6                    -58804.270 7        92.000          29.000          64.000                  
G19  21872725.504    21872724.099    21872724.828                   -15265704.061 8 -15265704.057 7                 -11895357.549 8       273.000          71.000         215.000                  
G23  23944019.789    23944019.530    23944023.189                    -2300526.486 8  -2300526.464 6                  -1792625.888 6       119.000          29.000          36.000                  
G24  20145564.191    20145563.932    20145567.136                   -18197675.621 9 -18197675.623 9                 -14180013.355 9       667.000        1091.000        1873.000                  
G25  22515361.554    22515360.816    22515365.568                   -10711071.102 8 -10711071.102 8                  -8346294.064 8       222.000         124.000         228.000                  
> 2024 10 31 15 55 40.0000000  0 10
G10  25594811.555    25594810.914    25594816.414                     3649531.921 7   3649531.931 6                   2843776.707 6        78.000          26.000          44.000                  
G11  24613162.521    24613162.993    24613166.204                    -2615809.156 8  -2615809.150 6                  -2038293.649 6       130.000          29.000          34.000                  
G12  20266496.602    20266496.155    20266496.810                   -24025201.942 9 -24025201.943 9                 -18720936.249 9       833.000        1645.000        1493.000                  
G13  21732537.845    21732537.154    21732539.160                   -16052070.127 8 -16052070.136 7                 -12508122.485 8       319.000          62.000         111.000                  
G15  20217362.492    20217362.224    20217364.029                   -19971990.622 9 -19971990.623 9                 -15562590.362 9       717.000        1162.000        1366.000                  
G17  25018535.625    25018534.533    25018536.995                      218430.429 7    218430.411 6                    170195.537 6        93.000          28.000          47.000                  
G19  21907862.131    21907860.323    21907861.207                   -15081063.118 8 -15081063.122 7                 -11751481.705 8       266.000          75.000         198.000                  
G23  23953757.369    23953758.596    23953761.964                    -2249352.647 8  -2249352.662 6                  -1752750.579 6       119.000          29.000          36.000                  
G24  20184736.527    20184736.527    20184739.680                   -17991823.344 9 -17991823.344 9                 -14019609.127 9       660.000        1069.000        1721.000                  
G25  22514757.902    22514757.600    22514762.594                   -10714241.900 8 -10714241.904 8                  -8348765.027 8       219.000         116.000         224.000                  
> 2024 10 31 15 55 50.0000000  0 11
G10  25642799.335    25642799.782    25642805.931                     3901716.052 7   3901716.051 6                   3040282.917 6        72.000          27.000          44.000                  
G11  24552070.788    24552069.854    24552073.770                    -2936853.679 8  -2936853.668 6                  -2288458.327 6       136.000          30.000          38.000                  
G12  20294283.383    20294283.026    20294283.888                   -23879181.098 9 -23879181.100 9                 -18607153.925 9       814.000        1561.000        1532.000                  
G13  21683294.355    21683293.621    21683295.906                   -16310847.956 8 -16310847.950 7                 -12709767.644 8       330.000          70.000         116.000                  
G15  20185452.110    20185452.136    20185453.833                   -20139679.788 9 -20139679.791 9                 -15693257.346 9       721.000        1176.000        1412.000                  
G17  25074737.975    25074736.999    25074740.236                      513775.670 7    513775.689 6                    400334.182 6        93.000          27.000          50.000                  
G19  21943774.776    21943773.027    21943774.108                   -14892339.671 8 -14892339.671 7                 -11604424.701 8       260.000          74.000         178.000                  
G23  23963642.044    23963641.678    23963645.490                    -2197414.398 8  -2197414.381 6                  -1712279.609 6       120.000          24.000          42.000                  
G24  20224570.832    20224570.697    20224573.897                   -17782493.972 9 -17782493.975 9                 -13856495.488 9       654.000        1049.000        1666.000                  
G25  22514825.452    22514825.078    22514830.155                   -10713887.470 8 -10713887.469 8                  -8348489.072 8       216.000         115.000         223.000                  
G29  24989484.570    24989486.022    24989523.885                     -602993.415 8   -602993.427 6                   -469870.120 6       107.000          27.000          19.000                  
> 2024 10 31 15 56  0.0000000  0 11
G10  25690751.400    25690748.868    25690755.992                     4153689.874 7   4153689.868 6                   3236625.123 6        72.000          24.000          42.000                  
G11  24491320.665    24491320.396    24491324.827                    -3256094.316 8  -3256094.321 6                  -2537217.381 6       141.000          29.000          40.000                  
G12  20323042.824    20323042.511    20323043.430                   -23728049.411 9 -23728049.412 9                 -18489389.136 9       794.000        1488.000        1579.000                  
G13  21634459.519    21634458.994    21634460.774                   -16567476.050 8 -16567476.058 7                 -12909737.694 8       345.000          71.000         126.000                  
G15  20154164.692    20154164.465    20154166.221                   -20304097.912 9 -20304097.914 9                 -15821375.471 9       730.000        1207.000        1495.000                  
G17  25131202.900    25131201.963    25131204.845                      810497.591 7    810497.579 6                    631545.554 6        94.000          28.000          50.000                  
G19  21980449.394    21980447.604    21980448.545                   -14699615.510 8 -14699615.507 7                 -11454250.269 8       259.000          67.000         177.000                  
G23  23973665.456    23973664.401    23973666.746                    -2144748.239 8  -2144748.232 6                  -1671241.452 6       120.000          27.000          37.000                  
G24  20265052.863    20265052.716    20265056.017                   -17569759.972 9 -17569759.973 9                 -13690728.900 9       640.000         991.000        1718.000                  
G25  22515559.574    22515559.130    22515564.183                   -10710031.556 8 -10710031.558 8                  -8345484.692 8       213.000         116.000         233.000                  
G29  24921063.488    24921062.749    24921067.034                     -962550.201 8   -962550.202 6                   -750040.522 7       114.000          33.000          67.000                  
> 2024 10 31 15 56 10.0000000  0 11
G10  25738661.120    25738659.952    25738667.769                     4405458.051 7   4405458.073 6                   3432807.012 6        72.000          26.000          35.000                  
G11  24430929.192    24430928.534    24430932.389                    -3573455.047 8  -3573455.046 6                  -2784511.602 6       152.000          35.000          42.000                  
G12  20352773.429    20352772.850    20352773.685                   -23571816.598 9 -23571816.599 9                 -18367649.450 9       787.000        1466.000        1566.000                  
G13  21586045.489    21586044.978    21586046.958                   -16821894.036 8 -16821894.037 7                 -13107985.582 8       364.000          84.000         129.000                  
G15  20123510.243    20123510.072    20123511.781                   -20465188.618 9 -20465188.620 9                 -15946900.806 9       741.000        1233.000        1599.000                  
G17  25187924.390    25187924.104    25187926.412                     1108570.647 7   1108570.660 6                    863809.675 6        86.000          21.000          46.000                  
G19  22017880.617    22017878.722    22017879.640                   -14502914.443 8 -14502914.438 7                 -11300976.961 8       252.000          63.000         193.000                  
G23  23983829.252    23983828.885    23983832.555                    -2091331.936 8  -2091331.952 6                  -1629618.821 6       119.000          28.000          33.000                  
G24  20306180.392    20306179.980    20306183.424                   -17353635.406 9 -17353635.407 9                 -13522320.323 9       630.000         962.000        1773.000                  
G25  22516966.610    22516965.739    22516971.074                   -10702640.076 8 -10702640.073 8                  -8339725.341 8       207.000         107.000         249.000                  
G29  24852796.992    24852796.666    24852800.723                    -1321290.153 8  -1321290.161 6                  -1029578.074 7       116.000          38.000          91.000                  
> 2024 10 31 15 56 20.0000000  0 11
G10  25786528.452    25786525.071    25786532.850                     4656987.552 7   4656987.541 6                   3628802.775 6        64.000          21.000          39.000                  
G11  24370903.256    24370901.823    24370906.075                    -3888897.730 8  -3888897.716 6                  -3030311.246 6       156.000          34.000          47.000                  
G12  20383464.772    20383464.398    20383465.270                   -23410531.797 9 -23410531.799 9                 -18241973.160 9       748.000        1324.000        1518.000                  
G13  21538056.246    21538055.814    21538057.837                   -17074079.426 8 -17074079.431 7                 -13304493.796 8       378.000          93.000         142.000                  
G15  20093492.504    20093492.259    20093494.031                   -20622933.587 9 -20622933.589 9                 -16069819.078 9       753.000        1283.000        1667.000                  
G17  25244891.173    25244890.944    25244893.365                     1407931.279 7   1407931.278 6                   1097077.056 6        87.000          21.000          45.000                  
G19  22056056.816    22056054.393    22056056.134                   -14302298.830 8 -14302298.842 7                 -11144653.381 8       237.000          61.000         186.000                  
G23  23994134.394    23994134.048    23994137.767                    -2037181.101 8  -2037181.127 6                  -1587423.835 6       119.000          25.000          40.000                  
G24  20347942.670    20347942.488    20347945.903                   -17134172.651 9 -17134172.653 9                 -13351310.569 9       612.000         908.000        1734.000                  
G25  22519045.173    22519044.399    22519049.820                   -10691717.565 8 -10691717.569 8                  -8331214.552 8       203.000         105.000         245.000                  
G29  24784695.938    24784694.856    24784699.531                    -1679167.594 8  -1679167.597 6                  -1308443.559 7       125.000          44.000          86.000                  
> 2024 10 31 15 56 30.0000000  0 11
G10  25834341.804    25834339.618    25834347.573                     4908248.664 7   4908248.646 6                   3824589.320 6        68.000          22.000          37.000                  
G11  24311248.963    24311248.028    24311252.425                    -4202381.033 8  -4202381.037 6                  -3274584.101 6       162.000          44.000          47.000                  
G12  20415108.847    20415108.280    20415109.363                   -23244241.974 9 -23244241.975 9                 -18112396.865 9       724.000        1237.000        1467.000                  
G13  21490496.837    21490496.288    21490498.320                   -17324006.658 8 -17324006.658 8                 -13499242.409 8       406.000         106.000         150.000                  
G15  20064115.466    20064115.163    20064116.876                   -20777311.887 9 -20777311.889 9                 -16190113.973 9       757.000        1290.000        1741.000                  
G17  25302092.918    25302091.323    25302093.746                     1708519.078 7   1708519.070 6                   1331300.620 6        83.000          26.000          49.000                  
G19  22094966.355    22094964.120    22094965.486                   -14097828.546 8 -14097828.546 7                 -10985326.171 8       231.000          60.000         178.000                  
G23  24004576.436    24004576.293    24004579.952                    -1982308.248 8  -1982308.253 6                  -1544666.276 6       120.000          30.000          40.000                  
G24  20390331.146    20390330.773    20390334.207                   -16911421.266 9 -16911421.267 9                 -13177738.255 9       590.000         853.000        1675.000                  
G25  22521795.711    22521794.229    22521799.951                   -10677266.262 8 -10677266.266 7                  -8319954.072 8       204.000          98.000         238.000                  
G29  24716766.563    24716766.426    24716770.956                    -2036133.261 8  -2036133.255 6                  -1586598.579 7       130.000          42.000          95.000                  
> 2024 10 31 15 56 40.0000000  0 11
G10  25882105.347    25882102.936    25882112.005                     5159242.790 7   5159242.799 6                   4020167.670 6        66.000          21.000          35.000                  
G11  24251981.777    24251980.554    24251985.874                    -4513832.782 8  -4513832.767 6                  -3517273.936 6       166.000          42.000          45.000                  
G12  20447702.163    20447701.648    20447702.684                   -23072964.289 9 -23072964.290 9                 -17978933.932 9       736.000        1298.000        1381.000                  
G13  21443377.628    21443377.192    21443378.995                   -17571619.418 8 -17571619.417 8                 -13692187.544 8       424.000         110.000         159.000                  
G15  20035388.501    20035388.387    20035390.179                   -20928272.224 9 -20928272.226 9                 -16307745.524 9       750.000        1269.000        1767.000                  
G17  25359519.416    25359519.623    25359522.510                     2010304.756 7   2010304.755 6                   1566457.486 6        76.000          23.000          46.000                  
G19  22134603.891    22134601.857    22134603.081                   -13889533.169 8 -13889533.170 7                 -10823018.385 8       228.000          56.000         187.000                  
G23  24015160.655    24015159.089    24015163.666                    -1926694.963 8  -1926694.966 6                  -1501331.766 6       118.000          29.000          37.000                  
G24  20433341.420    20433341.327    20433344.783                   -16685400.258 9 -16685400.259 9                 -13001618.197 9       575.000         788.000        1629.000                  
G25  22525222.313    22525221.442    22525227.009                   -10659258.326 8 -10659258.332 8                  -8305922.205 8       201.000         104.000         237.000                  
G29  24649027.538    24649027.005    24649031.358                    -2392106.753 8  -2392106.742 6                  -1863980.484 8       133.000          46.000         112.000                  
> 2024 10 31 15 56 50.0000000  0 11
G10  25929810.066    25929807.550    25929815.476                     5409926.213 7   5409926.216 6                   4215503.747 6        59.000          22.000          28.000                  
G11  24193106.694    24193105.874    24193109.875                    -4823226.021 8  -4823226.016 6                  -3758359.739 7       175.000          41.000          51.000                  
G12  20481232.321    20481231.894    20481232.849                   -22896762.302 9 -22896762.304 9                 -17841633.886 9       741.000        1317.000        1254.000                  
G13  21396701.156    21396700.691    21396702.575                   -17816906.659 8 -17816906.660 8                 -13883320.583 8       444.000         123.000         158.000                  
G15  20007313.298    20007313.192    20007314.966                   -21075808.976 9 -21075808.978 9                 -16422709.346 9       748.000        1263.000        1761.000                  
G17  25417162.726    25417161.522    25417166.021                     2313213.944 7   2313213.955 6                   1802489.742 6        74.000          24.000          42.000                  
G19  22174954.978    22174952.822    22174954.014                   -13677488.114 8 -13677488.125 7                 -10657788.792 8       226.000          54.000         186.000                  
G23  24025879.197    24025877.704    24025882.971                    -1870368.077 8  -1870368.103 6                  -1457441.241 6       118.000          30.000          34.000                  
G24  20476961.805    20476961.804    20476965.273                   -16456174.169 9 -16456174.170 9                 -12823000.681 9       561.000         766.000        1554.000                  
G25  22529322.384    22529321.866    22529327.476                   -10637711.941 8 -10637711.940 7                  -8289133.122 8       199.000          95.000         231.000                  
G29  24581483.926    24581483.232    24581487.226                    -2747052.506 8  -2747052.517 6                  -2140561.534 8       145.000          48.000         116.000                  
> 2024 10 31 15 57  0.0000000  0 12
G06  24440579.648    24440577.400    24440596.065                      -64169.305 7    -64169.320 6                    -50004.972 6        89.000          32.000          34.000                  
G10  25977455.939    25977451.850    25977462.802                     5660299.510 7   5660299.533 6                   4410598.127 6        54.000          20.000          32.000                  
G11  24134635.726    24134634.932    24134639.317                    -5130490.294 8  -5130490.304 6                  -3997786.593 7       181.000          44.000          56.000                  
G12  20515695.777    20515695.311    20515696.195                   -22715657.197 9 -22715657.198 9                 -17700513.248 9       765.000        1398.000        1177.000                  
G13  21350477.600    21350477.403    21350479.290                   -18059813.944 8 -18059813.936 8                 -14072599.110 8       465.000         130.000         166.000                  
G15  19979899.014    19979898.760    19979900.481                   -21219873.419 9 -21219873.420 9                 -16534967.478 9       741.000        1235.000        1805.000                  
G17  25475013.674    25475011.934    25475015.704                     2617216.043 7   2617216.048 6                   2039373.508 6        72.000          26.000          41.000                  
G19  22216013.035    22216010.922    22216012.825                   -13461725.748 8 -13461725.746 6                 -10489662.607 8       224.000          50.000         195.000                  
G23  24036737.257    24036736.231    24036740.293                    -1813310.857 8  -1813310.825 6                  -1412981.645 6       115.000          25.000          39.000                  
G24  20521188.480    20521188.123    20521191.597                   -16223764.308 9 -16223764.308 9                 -12641902.318 9       556.000         751.000        1524.000                  
G25  22534101.465    22534100.216    22534106.045                   -10612602.573 8 -10612602.570 7                  -8269567.695 8       199.000          97.000         234.000                  
G29  24514150.278    24514149.882    24514154.181                    -3100891.060 8  -3100891.062 7                  -2416279.841 8       151.000          57.000         122.000                  
> 2024 10 31 15 57 10.0000000  0 11
G06  24426868.883    24426866.840    24426875.561                     -136222.359 7   -136222.350 6                   -106147.808 7        90.000          27.000          65.000                  
G11  24076577.625    24076577.062    24076581.917                    -5435588.373 8  -5435588.349 6                  -4235525.501 7       188.000          40.000          51.000                  
G12  20551081.569    20551081.088    20551082.048                   -22529704.400 9 -22529704.400 9                 -17555615.196 9       764.000        1388.000        1155.000                  
G13  21304711.031    21304710.635    21304712.517                   -18300320.041 8 -18300320.039 8                 -14260006.586 8       479.000         140.000         172.000                  
G15  19953148.035    19953147.837    19953149.697                   -21360450.466 9 -21360450.467 9                 -16644508.156 9       729.000        1208.000        1840.000                  
G17  25533060.302    25533057.935    25533062.026                     2922247.428 7   2922247.391 6                   2277059.214 6        67.000          26.000          45.000                  
G19  22257766.447    22257764.834    22257766.542                   -13242312.236 8 -13242312.240 6                 -10318691.389 8       225.000          49.000         204.000                  
G23  24047731.437    24047729.509    24047734.827                    -1755539.760 8  -1755539.750 6                  -1367965.765 6       117.000          33.000          34.000                  
G24  20566010.120    20566009.813    20566013.419                   -15988225.417 9 -15988225.420 9                 -12458365.760 9       554.000         755.000        1498.000                  
G25  22539556.005    22539555.088    22539560.762                   -10583939.688 8 -10583939.694 7                  -8247233.301 8       195.000          98.000         244.000                  
G29  24447036.130    24447036.447    24447040.431                    -3453575.805 8  -3453575.802 7                  -2691099.063 8       160.000          59.000         129.000                  
> 2024 10 31 15 57 20.0000000  0 11
G06  24413707.289    24413706.313    24413713.891                     -205385.523 7   -205385.524 6                   -160041.750 7        88.000          40.000          62.000                  
G11  24018940.396    24018940.148    24018944.028                    -5738474.832 8  -5738474.820 6                  -4471541.051 7       195.000          47.000          61.000                  
G12  20587380.670    20587380.186    20587381.296                   -22338952.059 9 -22338952.060 9                 -17406977.243 9       756.000        1364.000        1132.000                  
G13  21259406.739    21259406.360    21259408.212                   -18538395.762 8 -18538395.761 8                 -14445520.259 8       495.000         146.000         185.000                  
G15  19927065.042    19927064.968    19927066.893                   -21497517.470 9 -21497517.472 9                 -16751313.733 9       733.000        1202.000        1920.000                  
G17  25591290.827    25591289.952    25591294.412                     3228252.802 7   3228252.819 6                   2515503.812 6        66.000          26.000          39.000                  
G19  22300204.087    22300201.408    22300203.504                   -13019305.986 8 -13019305.995 6                 -10144920.651 8       228.000          50.000         192.000                  
G23  24058859.159    24058857.725    24058863.227                    -1697062.936 8  -1697062.925 6                  -1322400.012 6       115.000          27.000          36.000                  
G24  20611418.464    20611418.088    20611421.750                   -15749604.269 9 -15749604.270 9                 -12272427.451 9       548.000         741.000        1465.000                  
G25  22545686.640    22545685.477    22545691.266                   -10551725.306 8 -10551725.308 7                  -8222131.512 8       192.000          88.000         246.000                  
G29  24380154.109    24380152.953    24380157.069                    -3805051.472 8  -3805051.474 7                  -2964976.139 8       170.000          60.000         147.000                  
> 2024 10 31 15 57 30.0000000  0 11
G06  24401103.275    24401101.011    24401109.415                     -271626.264 7   -271626.253 6                   -211658.468 7        89.000          28.000          59.000                  
G11  23961738.535    23961737.713    23961741.662                    -6039076.411 8  -6039076.410 6                  -4705776.143 7       201.000          45.000          53.000                  
G12  20624588.968    20624588.625    20624589.906                   -22143421.447 9 -22143421.448 9                 -17254615.967 9       749.000        1352.000        1075.000                  
G13  21214576.088    21214575.310    21214577.445                   -18773983.987 9 -18773983.988 8                 -14629095.621 8       507.000         157.000         189.000                  
G15  19901659.778    19901659.494    19901661.508                   -21631024.384 9 -21631024.386 9                 -16855345.215 9       746.000        1260.000        1960.000                  
G17  25649703.367    25649701.638    25649707.758                     3535205.007 7   3535204.991 6                   2754686.033 6        65.000          23.000          43.000                  
G19  22343318.249    22343316.931    22343318.065                   -12792737.822 8 -12792737.838 7                  -9968374.416 8       228.000          56.000         190.000                  
G23  24070125.283    24070124.549    24070129.635                    -1637860.689 8  -1637860.696 6                  -1276268.995 6       116.000          26.000          41.000                  
G24  20657409.585    20657409.350    20657412.984                   -15507920.002 9 -15507920.004 9                 -12084102.308 9       545.000         720.000        1419.000                  
G25  22552497.778    22552496.591    22552502.591                   -10515934.411 8 -10515934.415 7                  -8194242.833 8       194.000         100.000         241.000                  
G29  24313515.144    24313514.976    24313519.177                    -4155234.551 8  -4155234.547 7                  -3237845.977 8       177.000          74.000         156.000                  
> 2024 10 31 15 57 40.0000000  0 11
G06  24389049.790    24389047.492    24389055.738                     -334971.382 7   -334971.416 6                   -261018.842 7        85.000          29.000          64.000                  
G11  23904972.455    23904972.790    23904976.995                    -6337378.604 8  -6337378.592 7                  -4938219.498 7       206.000          55.000          63.000                  
G12  20662691.280    20662691.014    20662692.208                   -21943193.445 9 -21943193.446 9                 -17098594.385 9       760.000        1362.000        1087.000                  
G13  21170217.925    21170217.724    21170219.595                   -19007086.458 9 -19007086.460 8                 -14810734.026 8       521.000         168.000         204.000                  
G15  19876930.053    19876929.890    19876931.842                   -21760980.239 9 -21760980.241 9                 -16956609.634 9       774.000        1343.000        2068.000                  
G17  25708278.090    25708277.162    25708283.793                     3843018.428 7   3843018.416 6                   2994539.239 6        62.000          21.000          37.000                  
G19  22387094.092    22387091.941    22387093.583                   -12562698.187 8 -12562698.193 7                  -9789123.150 8       228.000          59.000         183.000                  
G23  24081522.699    24081521.944    24081526.570                    -1577971.959 8  -1577971.947 6                  -1229603.037 6       112.000          28.000          37.000                  
G24  20703968.724    20703968.505    20703972.303                   -15263250.613 9 -15263250.613 9                 -11893451.099 9       532.000         694.000        1401.000                  
G25  22559982.437    22559981.350    22559987.508                   -10476601.402 8 -10476601.406 7                  -8163594.067 8       193.000          94.000         260.000                  
G29  24247128.542    24247127.986    24247132.489                    -4504100.012 8  -4504100.011 7                  -3509689.074 8       179.000          80.000         167.000                  
> 2024 10 31 15 57 50.0000000  0 11
G06  24377554.462    24377552.255    24377561.384                     -395380.378 7   -395380.395 6                   -308091.336 7        83.000          28.000          62.000                  
G11  23848661.149    23848661.073    23848664.756                    -6633299.121 8  -6633299.123 7                  -5168806.964 7       212.000          54.000          68.000                  
G12  20701685.087    20701684.498    20701685.818                   -21738282.008 9 -21738282.011 9                 -16938923.375 9       734.000        1279.000        1108.000                  
G13  21126345.702    21126345.353    21126347.287                   -19237637.309 9 -19237637.307 8                 -14990384.142 8       532.000         171.000         219.000                  
G15  19852887.363    19852887.046    19852889.027                   -21887326.821 9 -21887326.823 9                 -17055061.627 9       801.000        1443.000        2088.000                  
G17  25767016.183    25767012.836    25767020.982                     4151675.581 7   4151675.581 6                   3235049.755 6        61.000          20.000          33.000                  
G19  22431525.657    22431523.357    22431525.716                   -12329209.628 8 -12329209.623 7                  -9607184.421 8       230.000          54.000         171.000                  
G23  24093055.101    24093054.372    24093059.588                    -1517367.788 8  -1517367.773 6                  -1182379.600 6       112.000          27.000          40.000                  
G24  20751093.997    20751093.855    20751097.620                   -15015606.422 9 -15015606.423 9                 -11700481.869 9       522.000         678.000        1377.000                  
G25  22568147.955    22568146.634    22568153.160                   -10433693.697 8 -10433693.709 7                  -8130159.812 8       191.000          87.000         259.000                  
G29  24181009.925    24181009.194    24181013.627                    -4851554.607 8  -4851554.604 7                  -3780432.780 8       188.000          83.000         174.000                  
> 2024 10 31 15 58  0.0000000  0 12
G05  24900619.842    24900629.932    24900647.973                     -455656.445 7   -455656.440 6                   -355059.463 6        60.000          20.000          20.000                  
G06  24366612.324    24366611.709    24366619.966                     -452878.231 7   -452878.213 6                   -352895.369 7        79.000          26.000          63.000                  
G11  23792805.980    23792805.921    23792809.792                    -6926820.517 8  -6926820.522 7                  -5397524.962 7       212.000          54.000          74.000                  
G12  20741554.576    20741553.950    20741555.541                   -21528766.778 9 -21528766.780 9                 -16775664.996 9       672.000        1089.000        1115.000                  
G13  21082959.342    21082958.762    21082960.919                   -19465635.534 9 -19465635.535 8                 -15168045.183 8       540.000         180.000         230.000                  
G15  19829530.068    19829529.653    19829531.572                   -22010071.165 9 -22010071.167 9                 -17150706.670 9       828.000        1542.000        2115.000                  
G17  25825897.896    25825895.617    25825902.755                     4461094.428 7   4461094.418 6                   3476153.724 6        62.000          22.000          42.000                  
G19  22476596.554    22476595.072    22476597.138                   -12092359.945 8 -12092359.938 7                  -9422626.642 8       236.000          58.000         168.000                  
G23  24104718.114    24104716.759    24104722.366                    -1456083.942 8  -1456083.917 6                  -1134626.514 6       113.000          19.000          37.000                  
G24  20798771.175    20798770.887    20798774.787                   -14765062.715 9 -14765062.716 9                 -11505253.274 9       516.000         658.000        1356.000                  
G25  22576987.189    22576985.894    22576992.456                   -10387244.239 8 -10387244.234 7                  -8093965.731 8       189.000          90.000         268.000                  
G29  24115165.047    24115164.751    24115169.155                    -5197569.522 8  -5197569.525 7                  -4050054.635 8       196.000          88.000         195.000                  
> 2024 10 31 15 58 10.0000000  0 12
G05  24832516.902    24832525.107    24832532.275                     -813532.506 7   -813532.489 6                   -633921.359 6        54.000          22.000          36.000                  
G06  24356230.947    24356230.130    24356238.623                     -507432.801 7   -507432.792 6                   -395405.905 7        79.000          27.000          73.000                  
G11  23737421.434    23737421.270    23737425.354                    -7217867.804 8  -7217867.814 7                  -5624315.040 7       214.000          57.000          79.000                  
G12  20782295.709    20782295.292    20782296.789                   -21314670.519 9 -21314670.520 9                 -16608836.981 9       648.000         995.000        1092.000                  
G13  21040069.811    21040069.210    21040071.041                   -19691022.528 9 -19691022.530 8                 -15343671.478 8       549.000         179.000         236.000                  
G15  19806867.508    19806867.257    19806869.259                   -22129163.258 9 -22129163.261 9                 -17243505.797 9       847.000        1610.000        2137.000                  
G17  25884919.902    25884916.780    25884925.748                     4771250.803 7   4771250.792 6                   3717832.224 6        59.000          24.000          36.000                  
G19  22522301.734    22522300.042    22522302.056                   -11852179.586 8 -11852179.572 7                  -9235473.525 8       237.000          58.000         158.000                  
G23  24116513.203    24116512.636    24116518.898                    -1394098.529 8  -1394098.542 6                  -1086326.712 6       109.000          26.000          31.000                  
G24  20846996.324    20846996.333    20847000.315                   -14511637.242 9 -14511637.244 9                 -11307779.146 9       506.000         625.000        1344.000                  
G25  22586505.215    22586503.619    22586510.270                   -10337229.062 8 -10337229.070 7                  -8054993.159 8       194.000          89.000         264.000                  
G29  24049611.085    24049610.738    24049614.942                    -5542057.854 8  -5542057.856 7                  -4318486.921 8       203.000          86.000         196.000                  
> 2024 10 31 15 58 20.0000000  0 11
G06  24346409.914    24346408.627    24346416.906                     -559048.786 7   -559048.765 6                   -435626.601 7        74.000          23.000          76.000                  
G11  23682515.318    23682515.255    23682519.102                    -7506402.247 8  -7506402.242 7                  -5849147.031 7       214.000          66.000          93.000                  
G12  20823897.381    20823897.040    20823898.622                   -21096053.066 9 -21096053.067 9                 -16438485.949 9       632.000         950.000        1061.000                  
G13  20997681.000    20997680.646    20997682.508                   -19913776.020 9 -19913776.020 8                 -15517245.679 8       562.000         196.000         244.000                  
G15  19784902.628    19784902.390    19784904.456                   -22244589.836 9 -22244589.838 9                 -17333448.671 9       863.000        1683.000        2167.000                  
G17  25944069.750    25944068.124    25944077.277                     5082084.541 7   5082084.534 6                   3960038.375 6        59.000          23.000          33.000                  
G19  22568627.974    22568626.036    22568628.503                   -11608735.506 8 -11608735.509 6                  -9045777.246 8       235.000          46.000         150.000                  
G23  24128441.948    24128439.010    24128445.383                    -1331425.734 8  -1331425.738 6                  -1037491.266 6       107.000          23.000          38.000                  
G24  20895759.946    20895759.787    20895763.962                   -14255384.037 8 -14255384.038 9                 -11108101.580 9       488.000         577.000        1349.000                  
G25  22596698.797    22596697.624    22596704.253                   -10283661.204 8 -10283661.205 7                  -8013252.255 8       188.000          91.000         283.000                  
G29  23984357.721    23984356.757    23984360.891                    -5884968.569 8  -5884968.573 8                  -4585689.874 8       215.000         108.000         201.000                  
> 2024 10 31 15 58 30.0000000  0 11
G06  24337147.651    24337145.688    24337154.668                     -607725.922 7   -607725.910 6                   -473557.249 7        73.000          28.000          78.000                  
G11  23628095.855    23628095.384    23628099.511                    -7792379.637 8  -7792379.632 7                  -6071986.489 8       215.000          66.000         105.000                  
G12  20866349.007    20866348.652    20866350.343                   -20872969.408 9 -20872969.410 9                 -16264654.757 9       628.000         935.000        1029.000                  
G13  20955799.046    20955798.387    20955800.471                   -20133868.371 9 -20133868.369 8                 -15688746.250 8       575.000         206.000         248.000                  
G15  19763638.839    19763638.539    19763640.607                   -22356332.577 9 -22356332.579 9                 -17420521.007 9       867.000        1709.000        2216.000                  
G17  26003341.939    26003337.609    26003348.062                     5393541.443 7   5393541.446 6                   4202729.976 6        56.000          19.000          33.000                  
G19  22615564.053    22615561.790    22615564.060                   -11362089.463 8 -11362089.478 7                  -8853585.943 8       232.000          62.000         145.000                  
G23  24140495.963    24140494.880    24140501.575                    -1268074.115 8  -1268074.101 6                   -988126.850 6       105.000          26.000          33.000                  
G24  20945052.668    20945052.241    20945056.510                   -13996351.643 8 -13996351.644 9                 -10906258.405 9       470.000         531.000        1365.000                  
G25  22607566.957    22607565.856    22607572.574                   -10226548.840 8 -10226548.833 7                  -7968749.378 8       185.000          84.000         284.000                  
G29  23919414.110    23919414.154    23919418.060                    -6226244.729 8  -6226244.736 8                  -4851619.120 8       224.000         115.000         217.000                  
> 2024 10 31 15 58 40.0000000  0 11
G06  24328448.692    24328447.651    24328456.874                     -653436.846 7   -653436.843 6                   -509176.510 7        73.000          28.000          85.000                  
G11  23574175.993    23574175.559    23574179.885                    -8075728.204 8  -8075728.197 6                  -6292777.485 8       216.000          50.000         113.000                  
G12  20909645.368    20909644.874    20909646.406                   -20645447.509 9 -20645447.511 9                 -16087365.187 9       629.000         947.000         951.000                  
G13  20914433.576    20914433.305    20914435.144                   -20351244.378 9 -20351244.377 8                 -15858130.172 8       593.000         215.000         258.000                  
G15  19743084.636    19743084.331    19743086.418                   -22464345.980 9 -22464345.983 9                 -17504687.356 9       860.000        1666.000        2229.000                  
G17  26062723.692    26062721.044    26062731.185                     5705595.196 7   5705595.215 6                   4445886.504 6        60.000          22.000          28.000                  
G19  22663102.090    22663099.692    22663102.179                   -11112275.687 8 -11112275.687 7                  -8658926.264 8       235.000          59.000         137.000                  
G23  24152684.962    24152683.710    24152690.793                    -1204024.508 8  -1204024.500 6                   -938218.506 6       106.000          20.000          36.000                  
G24  20994869.685    20994869.519    20994873.941                   -13734561.025 8 -13734561.027 9                 -10702265.957 9       460.000         509.000        1386.000                  
G25  22619113.372    22619112.119    22619119.118                   -10165873.291 8 -10165873.285 7                  -7921469.970 8       183.000          84.000         294.000                  
G29  23854798.451    23854798.481    23854802.135                    -6565801.463 8  -6565801.469 8                  -5116208.531 8       230.000         113.000         238.000                  
> 2024 10 31 15 58 50.0000000  0 11
G06  24320310.664    24320308.732    24320317.295                     -696212.617 7   -696212.626 6                   -542508.591 7        81.000          30.000          92.000                  
G11  23520759.168    23520758.503    23520763.636                    -8356434.115 8  -8356434.108 7                  -6511509.239 8       220.000          63.000         124.000                  
G12  20953769.536    20953769.062    20953770.506                   -20413573.924 9 -20413573.925 9                 -15906684.683 9       618.000         917.000         856.000                  
G13  20873584.789    20873584.297    20873586.162                   -20565906.700 9 -20565906.697 8                 -16025399.514 8       603.000         214.000         268.000                  
G15  19723237.477    19723237.258    19723239.373                   -22568642.971 9 -22568642.973 9                 -17585957.785 9       834.000        1559.000        2176.000                  
G17  26122207.111    26122202.210    26122213.068                     6018162.630 7   6018162.615 6                   4689443.246 6        57.000          24.000          29.000                  
G19  22711225.718    22711223.865    22711225.764                   -10859386.515 8 -10859386.502 7                  -8461870.168 8       235.000          62.000         139.000                  
G23  24164998.516    24164998.140    24165003.370                    -1139315.470 8  -1139315.469 6                   -887796.253 6       102.000          27.000          40.000                  
G24  21045196.883    21045196.737    21045201.141                   -13470090.990 8 -13470090.991 8                 -10496185.643 9       443.000         487.000        1366.000                  
G25  22631330.416    22631328.783    22631335.998                   -10101674.362 8 -10101674.365 7                  -7871445.051 8       182.000          93.000         300.000                  
G29  23790515.687    23790514.839    23790518.856                    -6903611.340 8  -6903611.338 8                  -5379436.735 8       237.000         128.000         260.000                  
> 2024 10 31 15 59  0.0000000  0 11
G06  24312735.263    24312734.042    24312742.756                     -736016.721 7   -736016.732 6                   -573525.044 7        83.000          21.000          85.000                  
G11  23467861.506    23467860.726    23467865.283                    -8634415.448 8  -8634415.450 7                  -6728117.920 8       230.000          67.000         132.000                  
G12  20998718.094    20998717.743    20998719.241                   -20177367.629 9 -20177367.630 9                 -15722628.032 9       605.000         885.000         784.000                  
G13  20833264.653    20833264.278    20833266.092                   -20777790.073 9 -20777790.074 8                 -16190503.426 8       614.000         224.000         273.000                  
G15  19704108.122    19704107.797    19704109.906                   -22669168.797 9 -22669168.800 9                 -17664289.632 9       805.000        1465.000        2077.000                  
G17  26181783.196    26181777.482    26181789.560                     6331227.517 7   6331227.484 6                   4933387.406 6        58.000          23.000          32.000                  
G19  22759929.808    22759927.690    22759930.331                   -10603446.136 8 -10603446.137 7                  -8262436.507 8       242.000          56.000         135.000                  
G23  24177443.524    24177443.026    24177449.815                    -1073917.303 7  -1073917.271 6                   -836836.968 6       100.000          21.000          37.000                  
G24  21096031.727    21096031.635    21096036.161                   -13202952.179 8 -13202952.181 8                 -10288025.756 9       435.000         448.000        1329.000                  
G25  22644222.749    22644221.819    22644228.529                   -10033924.454 8 -10033924.464 7                  -7818653.109 8       183.000          81.000         307.000                  
G29  23726583.110    23726582.353    23726586.318                    -7239578.482 8  -7239578.484 8                  -5641229.018 8       239.000         128.000         267.000                  
> 2024 10 31 15 59 10.0000000  0 11
G06  24305721.107    24305720.712    24305729.706                     -772872.362 7   -772872.358 6                   -602243.952 7        83.000          28.000          95.000                  
G11  23415485.625    23415485.197    23415489.650                    -8909649.627 8  -8909649.624 7                  -6942585.938 8       238.000          77.000         149.000                  
G12  21044476.203    21044475.982    21044477.402                   -19936907.380 9 -19936907.382 9                 -15535256.604 9       590.000         829.000         727.000                  
G13  20793474.595    20793474.228    20793475.992                   -20986888.611 9 -20986888.612 8                 -16353437.323 8       627.000         230.000         286.000                  
G15  19685695.340    19685694.977    19685697.044                   -22765928.507 9 -22765928.509 9                 -17739686.829 9       782.000        1386.000        2022.000                  
G17  26241438.626    26241434.114    26241446.903                     6644716.251 7   6644716.256 6                   5177661.540 6        53.000          17.000          32.000                  
G19  22809198.632    22809196.294    22809199.018                   -10344538.216 8 -10344538.209 7                  -8060690.465 8       233.000          54.000         134.000                  
G23  24190014.882    24190013.249    24190020.640                    -1007859.365 8  -1007859.360 6                   -785363.554 6       102.000          26.000          30.000                  
G24  21147361.242    21147361.190    21147365.730                   -12933214.413 8 -12933214.414 8                 -10077840.700 9       418.000         437.000        1257.000                  
G25  22657784.402    22657783.722    22657790.597                    -9962655.871 8  -9962655.866 7                  -7763119.318 8       182.000          83.000         303.000                  
G29  23663008.155    23663007.322    23663011.281                    -7573665.798 8  -7573665.797 8                  -5901556.498 8       247.000         143.000         295.000                  
> 2024 10 31 15 59 20.0000000  0 11
G06  24299272.942    24299271.466    24299280.597                     -806764.110 7   -806764.091 6                   -628653.284 8        92.000          30.000         101.000                  
G11  23363644.669    23363644.377    23363648.848                    -9182074.950 8  -9182074.949 7                  -7154865.209 8       245.000          74.000         156.000                  
G12  21091036.579    21091036.094    21091037.627                   -19692233.247 9 -19692233.249 9                 -15344601.621 9       595.000         833.000         709.000                  
G13  20754223.073    20754222.522    20754224.296                   -21193157.259 9 -21193157.257 8                 -16514166.093 8       629.000         235.000         295.000                  
G15  19668005.449    19668005.256    19668007.363                   -22858888.572 9 -22858888.574 9                 -17812123.250 9       776.000        1358.000        2048.000                  
G17  26301170.348    26301164.286    26301177.363                     6958593.951 7   6958593.959 6                   5422238.504 6        57.000          26.000          23.000                  
G19  22859023.371    22859021.792    22859024.202                   -10082707.184 8 -10082707.189 7                  -7856666.655 8       235.000          64.000         142.000                  
G23  24202711.649    24202711.885    24202717.929                     -941131.699 8   -941131.716 6                   -733368.231 6       104.000          26.000          33.000                  
G24  21199179.828    21199179.492    21199184.043                   -12660908.279 8 -12660908.281 8                  -9865654.304 9       416.000         418.000        1198.000                  
G25  22672017.713    22672016.427    22672023.496                    -9887862.315 8  -9887862.315 7                  -7704838.779 8       180.000          87.000         283.000                  
G29  23599805.059    23599804.674    23599808.574                    -7905796.625 8  -7905796.626 8                  -6160359.420 8       253.000         142.000         308.000                  
> 2024 10 31 15 59 30.0000000  0 10
G06  24293388.288    24293387.349    24293395.840                     -837688.688 7   -837688.689 6                   -652750.481 8        94.000          34.000         104.000                  
G11  23312347.624    23312347.503    23312351.761                    -9451641.465 8  -9451641.462 7                  -7364916.813 8       256.000          78.000         167.000                  
G12  21138388.585    21138388.063    21138389.749                   -19443397.454 9 -19443397.455 9                 -15150703.764 9       608.000         868.000         693.000                  
G13  20715516.157    20715515.544    20715517.533                   -21396562.793 9 -21396562.793 8                 -16672663.854 8       629.000         230.000         308.000                  
G15  19651042.805    19651042.716    19651044.812                   -22948027.478 9 -22948027.481 9                 -17881582.129 9       779.000        1368.000        2104.000                  
G19  22909393.925    22909392.608    22909394.992                    -9818009.288 8  -9818009.280 7                  -7650408.915 8       234.000          55.000         138.000                  
G23  24215536.934    24215537.322    24215543.402                     -873735.828 7   -873735.838 6                   -680852.142 6        98.000          27.000          33.000                  
G24  21251478.567    21251478.589    21251483.153                   -12386075.841 8 -12386075.843 8                  -9651499.347 9       402.000         395.000        1175.000                  
G25  22686920.087    22686918.867    22686925.855                    -9809549.880 8  -9809549.877 7                  -7643816.227 8       180.000          80.000         282.000                  
G29  23536987.239    23536986.910    23536990.624                    -8235905.614 8  -8235905.617 8                  -6417586.866 8       264.000         158.000         335.000                  
> 2024 10 31 15 59 40.0000000  0 10
G06  24288061.752    24288062.217    24288070.458                     -865671.888 8   -865671.896 6                   -674555.652 8       103.000          46.000         111.000                  
G11  23261598.943    23261598.321    23261602.615                    -9718327.894 8  -9718327.888 7                  -7572724.168 8       263.000          82.000         176.000                  
G12  21186516.874    21186516.503    21186518.257                   -19190481.188 9 -19190481.190 9                 -14953626.303 9       582.000         809.000         673.000                  
G13  20677354.870    20677354.387    20677356.215                   -21597100.561 9 -21597100.561 8                 -16828926.978 8       630.000         237.000         313.000                  
G15  19634806.138    19634805.869    19634807.965                   -23033352.820 9 -23033352.823 9                 -17948069.391 9       790.000        1415.000        2182.000                  
G19  22960294.690    22960292.496    22960295.176                    -9550529.285 8  -9550529.283 7                  -7441983.290 8       242.000          52.000         142.000                  
G23  24228483.290    24228483.455    24228490.143                     -805701.630 7   -805701.603 6                   -627838.610 6        96.000          22.000          32.000                  
G24  21304245.364    21304244.839    21304249.591                   -12108787.685 8 -12108787.688 8                  -9435430.833 9       388.000         371.000        1132.000                  
G25  22702485.386    22702484.426    22702491.336                    -9727753.771 8  -9727753.769 7                  -7580079.101 8       181.000          80.000         272.000                  
G29  23474561.261    23474560.897    23474564.518                    -8563955.654 8  -8563955.658 8                  -6673209.936 8       270.000         160.000         357.000                  
> 2024 10 31 15 59 50.0000000  0 10
G06  24283306.143    24283304.578    24283313.329                     -890671.120 8   -890671.120 6                   -694035.597 8       109.000          41.000         113.000                  
G11  23211414.855    23211414.907    23211418.635                    -9982044.191 8  -9982044.191 7                  -7778217.128 8       271.000          92.000         173.000                  
G12  21235419.290    21235418.939    21235420.905                   -18933497.127 9 -18933497.129 9                 -14753379.118 9       547.000         727.000         609.000                  
G13  20639753.389    20639753.071    20639754.878                   -21794697.256 9 -21794697.255 8                 -16982898.345 8       638.000         253.000         329.000                  
G15  19619306.526    19619306.309    19619308.333                   -23114803.936 9 -23114803.939 9                 -18011537.761 9       814.000        1494.000        2317.000                  
G19  23011720.723    23011719.085    23011721.611                    -9280282.982 8  -9280282.976 7                  -7231402.084 8       241.000          67.000         145.000                  
G23  24241560.298    24241559.093    24241565.851                     -736989.976 7   -736989.963 6                   -574297.164 6        98.000          22.000          34.000                  
G24  21357478.310    21357478.185    21357482.952                   -11829045.354 8 -11829045.356 8                  -9217449.965 9       375.000         343.000        1069.000                  
G25  22718720.332    22718719.033    22718725.953                    -9642440.974 8  -9642440.978 7                  -7513601.675 8       180.000          87.000         255.000                  
G29  23412547.635    23412546.877    23412550.294                    -8889840.381 8  -8889840.384 8                  -6927145.732 8       276.000         166.000         375.000                  
> 2024 10 31 16 00  0.0000000  0 10
G06  24279108.530    24279107.545    24279116.058                     -912728.916 8   -912728.915 6                   -711223.458 8       108.000          39.000         111.000                  
G11  23161797.645    23161797.231    23161801.033                   -10242785.048 8 -10242785.046 8                  -7981391.539 8       273.000         102.000         181.000                  
G12  21285077.550    21285076.976    21285079.009                   -18672543.025 9 -18672543.026 9                 -14550038.369 9       533.000         685.000         589.000                  
G13  20602709.576    20602708.954    20602710.989                   -21989364.237 9 -21989364.238 8                 -17134586.809 8       646.000         240.000         342.000                  
G15  19604539.665    19604539.287    19604541.238                   -23192405.286 9 -23192405.289 9                 -18072006.300 9       837.000        1569.000        2449.000                  
G19  23063654.219    23063652.673    23063655.449                    -9007370.796 8  -9007370.783 7                  -7018743.549 8       239.000          57.000         144.000                  
G23  24254754.927    24254753.690    24254760.960                     -667646.164 7   -667646.162 6                   -520263.075 6        91.000          24.000          34.000                  
G24  21411162.687    21411162.182    21411166.894                   -11546934.845 8 -11546934.848 8                  -8997623.748 9       356.000         308.000         990.000                  
G25  22735613.509    22735612.641    22735619.640                    -9553663.713 8  -9553663.716 7                  -7444424.637 8       175.000          80.000         248.000                  
G29  23350949.594    23350948.929    23350952.474                    -9213537.916 8  -9213537.920 8                  -7179377.210 8       280.000         187.000         397.000                  
> 2024 10 31 16 00 10.0000000  0 11
G05  24022390.019    24022391.491    24022404.230                     -482412.938 7   -482412.932 6                   -375909.186 6        99.000          28.000          33.000                  
G06  24275476.617    24275476.002    24275484.055                     -931815.061 8   -931815.078 6                   -726095.703 8       112.000          49.000         111.000                  
G11  23112761.169    23112760.840    23112764.578                   -10500472.095 8 -10500472.091 7                  -8182186.347 8       282.000          95.000         185.000                  
G12  21335486.138    21335485.592    21335487.781                   -18407643.698 9 -18407643.699 9                 -14343623.407 9       507.000         628.000         586.000                  
G13  20566234.778    20566234.374    20566236.090                   -22181039.757 9 -22181039.757 8                 -17283944.248 8       650.000         252.000         357.000                  
G15  19590514.251    19590514.014    19590515.945                   -23266108.598 9 -23266108.601 9                 -18129437.400 9       858.000        1664.000        2580.000                  
G19  23116090.655    23116088.231    23116091.386                    -8731819.978 8  -8731819.983 7                  -6804028.924 8       240.000          61.000         131.000                  
G23  24268076.382    24268074.699    24268082.495                     -597642.072 7   -597642.054 6                   -465714.424 6        96.000          23.000          36.000                  
G24  21465294.392    21465294.380    21465299.137                   -11262468.785 8 -11262468.787 8                  -8775962.020 9       332.000         270.000         940.000                  
G25  22753170.895    22753169.763    22753176.353                    -9461401.545 8  -9461401.539 7                  -7372532.067 8       174.000          83.000         234.000                  
G29  23289786.199    23289785.702    23289788.746                    -9534952.628 8  -9534952.632 8                  -7429829.860 8       288.000         179.000         406.000                  
> 2024 10 31 16 00 20.0000000  0 11
G05  23955698.418    23955698.386    23955702.206                     -832878.881 8   -832878.890 6                   -648998.337 8       107.000          31.000         131.000                  
G06  24272405.613    24272405.082    24272412.807                     -947952.661 8   -947952.642 6                   -738670.332 7       113.000          49.000          98.000                  
G11  23064310.610    23064310.463    23064313.798                   -10755079.923 8 -10755079.920 7                  -8380581.749 8       284.000         100.000         194.000                  
G12  21386630.865    21386630.257    21386632.545                   -18138877.029 8 -18138877.031 9                 -14134194.918 9       483.000         559.000         564.000                  
G13  20530330.863    20530330.605    20530332.364                   -22369715.045 9 -22369715.045 8                 -17430963.834 8       657.000         261.000         361.000                  
G15  19577229.699    19577229.480    19577231.463                   -23335918.998 9 -23335919.001 9                 -18183835.052 9       869.000        1687.000        2652.000                  
G19  23169013.283    23169011.012    23169013.943                    -8453710.375 8  -8453710.376 7                  -6587320.407 8       232.000          53.000         128.000                  
G23  24281518.253    24281517.334    24281524.211                     -527002.192 7   -527002.199 6                   -410670.312 6        89.000          21.000          30.000                  
G24  21519862.810    21519862.198    21519867.163                   -10975712.380 8 -10975712.381 8                  -8552515.590 9       306.000         231.000         877.000                  
G25  22771384.408    22771383.701    22771390.396                    -9365687.472 8  -9365687.483 7                  -7297949.683 8       177.000          84.000         231.000                  
G29  23229065.169    23229064.527    23229067.798                    -9854041.334 8  -9854041.334 8                  -7678470.031 8       292.000         197.000         404.000                  
> 2024 10 31 16 00 30.0000000  0 11
G05  23889170.448    23889169.150    23889172.942                    -1182489.664 8  -1182489.655 6                   -921421.787 8       110.000          41.000         151.000                  
G06  24269896.975    24269896.463    24269904.776                     -961133.146 8   -961133.158 6                   -748940.662 7       118.000          50.000         100.000                  
G11  23016456.740    23016456.772    23016460.116                   -11006551.145 8 -11006551.141 7                  -8576533.028 8       284.000          99.000         202.000                  
G12  21438502.643    21438502.087    21438504.329                   -17866289.047 8 -17866289.049 9                 -13921788.769 9       455.000         504.000         557.000                  
G13  20495005.714    20495005.450    20495007.245                   -22555349.305 9 -22555349.303 8                 -17575613.778 8       669.000         269.000         385.000                  
G15  19564691.017    19564690.783    19564692.694                   -23401809.978 9 -23401809.982 9                 -18235178.604 9       860.000        1667.000        2857.000                  
G19  23222413.056    23222412.087    23222414.757                    -8173089.593 8  -8173089.585 7                  -6368655.110 8       224.000          56.000         121.000                  
G23  24295084.129    24295083.102    24295090.390                     -455718.684 7   -455718.667 6                   -355124.666 6        90.000          24.000          30.000                  
G24  21574859.764    21574859.804    21574864.809                   -10686698.555 8 -10686698.559 8                  -8327310.116 9       284.000         202.000         860.000                  
G25  22790254.962    22790253.976    22790260.690                    -9266522.928 8  -9266522.929 7                  -7220678.598 8       180.000          82.000         222.000                  
G29  23168801.074    23168800.513    23168803.743                   -10170728.524 8 -10170728.528 8                  -7925238.894 8       290.000         190.000         418.000                  
> 2024 10 31 16 00 40.0000000  0 11
G05  23822812.191    23822811.675    23822814.961                    -1531199.072 8  -1531199.069 6                  -1193142.851 8       115.000          37.000         158.000                  
G06  24267951.515    24267951.300    24267959.201                     -971355.388 8   -971355.393 6                   -756905.826 7       123.000          50.000          90.000                  
G11  22969209.957    22969209.488    22969213.133                   -11254835.547 8 -11254835.549 7                  -8770001.060 8       285.000          95.000         204.000                  
G12  21491091.364    21491090.928    21491093.306                   -17589933.036 8 -17589933.040 8                 -13706446.475 9       434.000         444.000         574.000                  
G13  20460265.692    20460265.310    20460267.163                   -22737908.991 9 -22737908.991 8                 -17717867.939 8       674.000         277.000         405.000                  
G15  19552901.601    19552901.446    19552903.522                   -23463762.613 9 -23463762.617 9                 -18283453.307 9       844.000        1616.000        2966.000                  
G19  23276281.117    23276279.732    23276283.091                    -7890012.074 8  -7890012.078 6                  -6148075.443 8       220.000          48.000         112.000                  
G23  24308770.472    24308770.207    24308776.662                     -383790.491 7   -383790.514 6                   -299076.573 6        91.000          24.000          31.000                  
G24  21630279.479    21630279.516    21630284.325                   -10395466.912 8 -10395466.915 8                  -8100376.452 9       268.000         185.000         813.000                  
G25  22809780.363    22809779.334    22809785.893                    -9163916.856 8  -9163916.860 7                  -7140725.775 8       181.000          82.000         220.000                  
G29  23109007.074    23109006.836    23109009.847                   -10484945.382 8 -10484945.379 8                  -8170082.829 8       292.000         193.000         436.000                  
> 2024 10 31 16 00 50.0000000  0 11
G05  23756630.647    23756630.344    23756633.491                    -1878980.631 8  -1878980.637 6                  -1464140.927 8       116.000          45.000         170.000                  
G06  24266564.636    24266564.721    24266573.099                     -978639.029 8   -978639.039 6                   -762581.116 7       121.000          49.000          83.000                  
G11  22922574.711    22922574.433    22922578.069                   -11499903.334 8 -11499903.333 8                  -8960962.640 8       287.000         103.000         203.000                  
G12  21544383.089    21544382.819    21544385.265                   -17309882.698 8 -17309882.700 8                 -13488225.467 9       430.000         442.000         595.000                  
G13  20426113.333    20426112.847    20426114.887                   -22917380.829 9 -22917380.830 8                 -17857715.981 8       688.000         278.000         420.000                  
G15  19541861.551    19541861.263    19541863.261                   -23521778.740 9 -23521778.744 9                 -18328660.598 9       843.000        1590.000        2984.000                  
G19  23330603.052    23330601.202    23330604.219                    -7604552.372 8  -7604552.372 6                  -5925639.510 8       213.000          45.000         111.000                  
G23  24322577.556    24322576.882    24322582.724                     -311236.561 7   -311236.558 6                   -242540.922 6        89.000          20.000          30.000                  
G24  21686110.201    21686109.718    21686114.748                   -10102077.127 8 -10102077.129 8                  -7871761.106 9       260.000         168.000         804.000                  
G25  22829954.206    22829953.690    22829960.185                    -9057899.033 8  -9057899.032 7                  -7058114.425 8       181.000          82.000         206.000                  
G29  23049693.027    23049692.431    23049695.474                   -10796642.963 8 -10796642.962 8                  -8412963.701 8       295.000         191.000         452.000                  
> 2024 10 31 16 01  0.0000000  0 11
G05  23690636.322    23690635.936    23690638.744                    -2225780.833 8  -2225780.840 6                  -1734374.323 8       125.000          37.000         179.000                  
G06  24265740.348    24265739.192    24265747.019                     -982977.649 8   -982977.649 7                   -765961.551 7       119.000          52.000          81.000                  
G11  22876562.473    22876561.905    22876565.364                   -11741698.514 8 -11741698.518 7                  -9149374.132 8       286.000          98.000         212.000                  
G12  21598369.262    21598368.693    21598370.964                   -17026185.409 8 -17026185.412 8                 -13267162.667 9       414.000         404.000         583.000                  
G13  20392556.077    20392555.659    20392557.225                   -23093725.325 9 -23093725.325 8                 -17995127.128 8       696.000         290.000         439.000                  
G15  19531574.885    19531574.717    19531576.633                   -23575834.419 9 -23575834.423 9                 -18370781.815 9       832.000        1555.000        2923.000                  
G19  23385368.791    23385366.560    23385369.761                    -7316758.396 8  -7316758.386 6                  -5701384.638 7       208.000          42.000          95.000                  
G23  24336503.502    24336503.747    24336509.545                     -238049.247 7   -238049.262 6                   -185511.584 6        86.000          19.000          28.000                  
G24  21742344.758    21742344.136    21742349.478                    -9806562.144 8  -9806562.143 8                  -7641489.742 9       250.000         158.000         788.000                  
G25  22850778.292    22850776.721    22850783.407                    -8948473.335 8  -8948473.331 7                  -6972847.560 8       180.000          85.000         192.000                  
G29  22990872.681    22990871.919    22990874.991                   -11105745.619 8 -11105745.620 8                  -8653822.554 8       294.000         193.000         484.000                  
> 2024 10 31 16 01 10.0000000  0 11
G05  23624837.584    23624837.760    23624840.467                    -2571552.886 8  -2571552.883 6                  -2003806.577 8       134.000          43.000         188.000                  
G06  24265473.281    24265474.107    24265481.130                     -984372.243 8   -984372.219 6                   -767047.887 7       119.000          41.000          69.000                  
G11  22831181.473    22831181.846    22831185.030                   -11980172.198 8 -11980172.192 8                  -9335197.443 8       289.000         104.000         225.000                  
G12  21653038.737    21653038.050    21653040.245                   -16738895.610 8 -16738895.613 8                 -13043300.504 9       370.000         329.000         569.000                  
G13  20359599.978    20359599.459    20359601.108                   -23266910.137 9 -23266910.136 8                 -18130076.177 8       693.000         291.000         450.000                  
G15  19522045.208    19522045.007    19522046.914                   -23625913.041 9 -23625913.044 9                 -18409804.021 9       827.000        1534.000        2915.000                  
G19  23440567.509    23440565.724    23440569.097                    -7026684.766 8  -7026684.770 6                  -5475353.388 7       204.000          46.000          89.000                  
G23  24350551.248    24350551.198    24350556.656                     -164227.572 7   -164227.587 6                   -127988.001 6        87.000          21.000          35.000                  
G24  21798976.597    21798976.035    21798981.091                    -9508961.578 8  -9508961.584 8                  -7409593.238 9       234.000         139.000         783.000                  
G25  22872246.435    22872245.798    22872252.458                    -8835651.078 8  -8835651.076 7                  -6884934.013 8       183.000          84.000         188.000                  
G29  22932558.470    22932558.008    22932561.235                   -11412184.497 8 -11412184.497 8                  -8892605.736 9       291.000         192.000         506.000                  
> 2024 10 31 16 01 20.0000000  0 11
G05  23559239.799    23559239.489    23559242.400                    -2916269.578 8  -2916269.573 7                  -2272416.503 8       148.000          57.000         203.000                  
G06  24265764.176    24265764.055    24265771.395                     -982844.279 8   -982844.284 6                   -765856.893 7       116.000          48.000          68.000                  
G11  22786439.310    22786438.924    22786442.154                   -12215295.788 8 -12215295.794 8                  -9518410.298 8       291.000         109.000         234.000                  
G12  21708377.661    21708376.886    21708379.294                   -16448087.941 8 -16448087.942 8                 -12816697.143 9       340.000         281.000         567.000                  
G13  20327247.236    20327246.992    20327248.621                   -23436922.994 9 -23436922.993 8                 -18262553.571 8       694.000         287.000         457.000                  
G15  19513271.599    19513271.378    19513273.233                   -23672018.663 9 -23672018.666 9                 -18445730.380 9       834.000        1564.000        2835.000                  
G19  23496186.241    23496184.806    23496188.080                    -6734405.775 8  -6734405.761 6                  -5247603.652 7       198.000          39.000          87.000                  
G23  24364717.117    24364716.168    24364723.035                      -89790.343 7    -89790.363 6                    -69984.719 6        84.000          26.000          28.000                  
G24  21855992.925    21855993.073    21855998.317                    -9209334.769 8  -9209334.770 8                  -7176117.823 9       222.000         124.000         767.000                  
G25  22894356.134    22894355.408    22894362.051                    -8719464.106 8  -8719464.109 7                  -6794398.598 8       182.000          82.000         185.000                  
G29  22874760.993    22874760.552    22874763.722                   -11715910.435 8 -11715910.438 8                  -9129274.942 9       291.000         183.000         529.000                  
> 2024 10 31 16 01 30.0000000  0 11
G05  23493853.949    23493853.651    23493856.170                    -3259876.815 8  -3259876.826 7                  -2540161.932 8       166.000          70.000         228.000                  
G06  24266611.431    24266611.506    24266618.991                     -978389.213 8   -978389.214 6                   -762385.010 7       107.000          41.000          63.000                  
G11  22742344.561    22742343.798    22742347.277                   -12447014.502 8 -12447014.501 8                  -9698970.005 8       300.000         109.000         240.000                  
G12  21764376.599    21764376.026    21764378.380                   -16153810.475 8 -16153810.479 8                 -12587390.034 9       327.000         250.000         568.000                  
G13  20295505.574    20295505.250    20295507.040                   -23603725.460 9 -23603725.462 8                 -18392529.364 8       688.000         277.000         462.000                  
G15  19505257.972    19505257.896    19505259.715                   -23714129.372 9 -23714129.375 9                 -18478543.818 9       840.000        1577.000        2799.000                  
G19  23552215.687    23552214.362    23552217.608                    -6439969.190 8  -6439969.191 6                  -5018172.652 7       192.000          38.000          86.000                  
G23  24379001.936    24378999.550    24379005.654                      -14729.743 7    -14729.748 6                    -11495.686 6        85.000          24.000          33.000                  
G24  21913389.580    21913389.459    21913394.746                    -8907714.326 8  -8907714.328 8                  -6941088.918 9       213.000         112.000         749.000                  
G25  22917105.093    22917103.837    22917110.951                    -8599918.324 8  -8599918.324 7                  -6701245.926 8       182.000          77.000         187.000                  
G29  22817494.258    22817494.029    22817496.957                   -12016847.674 8 -12016847.674 8                  -9363771.145 9       294.000         193.000         553.000                  
> 2024 10 31 16 01 40.0000000  0 11
G05  23428687.020    23428686.922    23428689.416                    -3602326.677 8  -3602326.681 7                  -2807005.527 8       182.000          90.000         239.000                  
G06  24268015.555    24268015.559    24268022.639                     -971009.859 8   -971009.850 6                   -756634.447 7       101.000          38.000          61.000                  
G11  22698906.128    22698906.054    22698909.340                   -12675280.749 8 -12675280.744 8                  -9876839.490 8       309.000         124.000         242.000                  
G12  21821025.170    21821024.767    21821027.146                   -15856118.526 8 -15856118.527 8                 -12355422.273 9       302.000         220.000         543.000                  
G13  20264380.974    20264380.489    20264382.294                   -23767286.153 9 -23767286.152 8                 -18519979.097 8       681.000         270.000         478.000                  
G15  19498007.653    19498007.356    19498009.121                   -23752230.870 9 -23752230.873 9                 -18508233.192 9       859.000        1653.000        2748.000                  
G19  23608645.478    23608643.936    23608647.457                    -6143429.355 8  -6143429.382 6                  -4787102.736 7       184.000          37.000          65.000                  
G23  24393401.376    24393401.286    24393407.679                       60955.350 7     60955.351 6                     47479.989 6        83.000          25.000          30.000                  
G24  21971158.939    21971157.732    21971163.060                    -8604139.494 8  -8604139.494 7                  -6704537.100 9       201.000         100.000         710.000                  
G25  22940491.159    22940489.283    22940496.328                    -8477027.114 8  -8477027.108 7                  -6605486.411 8       180.000          85.000         187.000                  
G29  22760771.540    22760771.025    22760773.893                   -12314927.119 8 -12314927.122 8                  -9596040.512 9       301.000         209.000         574.000                  
> 2024 10 31 16 01 50.0000000  0 11
G05  23363746.369    23363746.057    23363748.639                    -3943591.384 8  -3943591.385 7                  -3072925.659 8       197.000          94.000         273.000                  
G06  24269971.369    24269971.344    24269978.436                     -960729.855 7   -960729.846 6                   -748623.627 7        98.000          31.000          56.000                  
G11  22656130.588    22656130.324    22656133.647                   -12900067.568 8 -12900067.567 8                 -10051997.743 8       312.000         127.000         252.000                  
G12  21878309.564    21878308.963    21878311.537                   -15555087.706 8 -15555087.706 8                 -12120852.792 9       282.000         188.000         552.000                  
G13  20233875.269    20233874.788    20233876.491                   -23927594.324 9 -23927594.324 8                 -18644894.402 8       673.000         269.000         497.000                  
G15  19491518.678    19491518.558    19491520.207                   -23786329.728 9 -23786329.731 9                 -18534803.625 9       881.000        1740.000        2753.000                  
G19  23665461.494    23665459.403    23665463.254                    -5844860.697 8  -5844860.702 6                  -4554451.903 7       177.000          38.000          68.000                  
G23  24407920.519    24407918.012    24407924.530                      137245.976 7    137245.978 6                    106927.520 6        80.000          23.000          24.000                  
G24  22029287.393    22029286.695    22029291.936                    -8298669.524 8  -8298669.524 7                  -6466508.548 9       190.000          91.000         654.000                  
G25  22964505.160    22964505.062    22964511.804                    -8350824.611 8  -8350824.610 7                  -6507146.661 8       178.000          86.000         186.000                  
G29  22704601.681    22704601.334    22704604.070                   -12610099.896 8 -12610099.899 8                  -9826044.956 9       301.000         205.000         587.000                  
> 2024 10 31 16 02  0.0000000  0 11
G05  23299041.757    23299041.189    23299043.806                    -4283615.238 8  -4283615.243 8                  -3337878.918 8       205.000         106.000         292.000                  
G06  24272480.446    24272480.274    24272486.793                     -947545.765 7   -947545.776 6                   -738349.870 7        91.000          34.000          61.000                  
G11  22614027.725    22614027.123    22614030.262                   -13121320.898 8 -13121320.902 8                 -10224402.638 8       312.000         124.000         247.000                  
G12  21936220.238    21936219.694    21936221.929                   -15250765.962 8 -15250765.967 8                 -11883718.950 9       286.000         190.000         593.000                  
G13  20203995.604    20203995.189    20203996.999                   -24084612.000 9 -24084611.998 8                 -18767245.687 9       672.000         267.000         513.000                  
G15  19485795.343    19485795.130    19485796.831                   -23816405.739 9 -23816405.742 9                 -18558239.372 9       887.000        1773.000        2776.000                  
G19  23722654.256    23722653.037    23722655.429                    -5544310.046 8  -5544310.066 6                  -4320256.645 7       176.000          31.000          65.000                  
G23  24422553.888    24422552.342    24422558.841                      214150.828 7    214150.808 6                    166853.640 6        80.000          23.000          24.000                  
G24  22087770.404    22087770.328    22087775.600                    -7991335.915 8  -7991335.915 7                  -6227027.801 9       180.000          81.000         597.000                  
G25  22989150.091    22989149.465    22989155.881                    -8221318.033 8  -8221318.036 7                  -6406232.315 8       176.000          78.000         184.000                  
G29  22648999.729    22648999.300    22649001.782                   -12902289.567 8 -12902289.568 8                 -10053724.912 9       311.000         215.000         586.000                  
> 2024 10 31 16 02 10.0000000  0 11
G05  23234581.124    23234580.848    23234582.889                    -4622356.219 8  -4622356.226 8                  -3601832.549 8       208.000         109.000         318.000                  
G06  24275538.506    24275539.227    24275545.601                     -931468.796 7   -931468.782 6                   -725821.961 7        92.000          33.000          59.000                  
G11  22572604.297    22572603.707    22572606.656                   -13339001.187 8 -13339001.189 8                 -10394023.360 8       317.000         126.000         249.000                  
G12  21994744.778    21994744.509    21994746.743                   -14943215.721 8 -14943215.723 8                 -11644069.400 9       281.000         182.000         615.000                  
G13  20174746.754    20174746.478    20174748.015                   -24238315.550 9 -24238315.550 8                 -18887014.547 9       683.000         273.000         524.000                  
G15  19480838.549    19480838.391    19480840.014                   -23842453.427 9 -23842453.430 9                 -18578536.173 9       890.000        1776.000        2788.000                  
G19  23780213.032    23780211.291    23780214.357                    -5241837.875 8  -5241837.891 6                  -4084564.081 7       170.000          33.000          56.000                  
G23  24437303.927    24437303.274    24437310.019                      291664.563 7    291664.543 6                    227254.275 6        80.000          21.000          30.000                  
G24  22146600.814    22146600.285    22146605.132                    -7682184.033 8  -7682184.031 7                  -5986130.211 9       172.000          80.000         552.000                  
G25  23014418.602    23014417.901    23014424.280                    -8088529.304 8  -8088529.304 7                  -6302760.454 8       170.000          85.000         171.000                  
G29  22593977.491    22593976.885    22593979.254                   -13191433.651 8 -13191433.653 8                 -10279031.697 9       318.000         230.000         599.000                  
> 2024 10 31 16 02 20.0000000  0 12
G05  23170372.645    23170372.564    23170374.237                    -4959771.179 8  -4959771.177 8                  -3864752.940 8       217.000         111.000         351.000                  
G06  24279147.558    24279145.996    24279153.477                     -912509.921 7   -912509.894 6                   -711048.409 7        91.000          29.000          56.000                  
G11  22531868.246    22531867.888    22531870.656                   -13553068.548 8 -13553068.552 8                 -10560828.829 8       319.000         123.000         241.000                  
G12  22053872.171    22053871.837    22053874.177                   -14632498.499 8 -14632498.500 8                 -11401952.080 9       271.000         179.000         624.000                  
G13  20146132.994    20146132.488    20146134.229                   -24388681.141 9 -24388681.143 8                 -19004182.403 9       684.000         285.000         544.000                  
G15  19476649.473    19476649.263    19476650.828                   -23864467.200 9 -23864467.203 9                 -18595689.670 9       893.000        1780.000        2882.000                  
G19  23838126.442    23838124.556    23838127.343                    -4937503.874 8  -4937503.868 6                  -3847420.748 7       169.000          39.000          57.000                  
G20  24218088.661    24218077.800    24218090.569                     -319517.817 7   -319517.801 6                   -248977.573 6        87.000          20.000          21.000                  
G23  24452169.044    24452168.419    24452175.367                      369782.833 7    369782.825 6                    288125.889 6        76.000          25.000          26.000                  
G24  22205768.139    22205767.774    22205772.461                    -7371258.230 8  -7371258.233 7                  -5743850.353 9       169.000          66.000         519.000                  
G25  23040308.321    23040306.871    23040313.687                    -7952480.022 8  -7952480.010 7                  -6196747.902 8       169.000          64.000         179.000                  
G29  22539546.425    22539546.005    22539548.421                   -13477468.987 8 -13477468.985 8                 -10501916.096 9       328.000         240.000         632.000                  
> 2024 10 31 16 02 30.0000000  0 12
G05  23106425.325    23106424.390    23106427.072                    -5295818.099 8  -5295818.101 8                  -4126607.349 8       221.000         125.000         387.000                  
G06  24283300.513    24283299.379    24283306.750                     -890681.984 7   -890681.981 6                   -694039.240 7        91.000          31.000          59.000                  
G11  22491827.211    22491826.869    22491829.282                   -13763484.965 8 -13763484.962 8                 -10724789.424 8       312.000         122.000         228.000                  
G12  22113590.570    22113590.271    22113592.376                   -14318677.163 8 -14318677.165 8                 -11157415.967 9       278.000         185.000         603.000                  
G13  20118158.907    20118158.235    20118159.880                   -24535686.453 9 -24535686.454 8                 -19118731.868 9       691.000         289.000         555.000                  
G15  19473228.618    19473228.344    19473230.015                   -23882443.654 9 -23882443.657 9                 -18609697.209 9       880.000        1722.000        3016.000                  
G19  23896381.693    23896379.686    23896382.757                    -4631368.742 8  -4631368.720 6                  -3608873.927 7       164.000          28.000          59.000                  
G20  24155305.750    24155299.257    24155308.512                     -649437.990 7   -649437.990 6                   -506057.897 6        87.000          21.000          19.000                  
G23  24467146.082    24467147.674    24467153.891                      448499.982 7    448499.970 6                    349464.161 6        74.000          25.000          28.000                  
G24  22265263.641    22265263.914    22265268.702                    -7058603.960 8  -7058603.961 7                  -5500223.646 8       167.000          70.000         482.000                  
G25  23066814.103    23066812.170    23066818.826                    -7813193.798 8  -7813193.795 7                  -6088213.077 8       162.000          71.000         178.000                  
G29  22485718.875    22485718.479    22485720.712                   -13760333.785 8 -13760333.788 8                 -10722329.964 9       332.000         250.000         652.000                  
> 2024 10 31 16 02 40.0000000  0 12
G05  23042748.530    23042747.981    23042749.807                    -5630439.936 8  -5630439.939 8                  -4387351.318 8       246.000         151.000         418.000                  
G06  24287998.440    24287999.238    24288006.310                     -865983.889 7   -865983.914 6                   -674793.608 7        92.000          27.000          63.000                  
G11  22452490.751    22452490.284    22452492.963                   -13970198.453 8 -13970198.456 8                 -10885864.633 8       309.000         133.000         226.000                  
G12  22173890.595    22173889.946    22173892.142                   -14001800.175 8 -14001800.178 8                 -10910498.834 9       278.000         195.000         594.000                  
G13  20090830.805    20090830.389    20090832.053                   -24679295.117 9 -24679295.117 8                 -19230634.598 9       712.000         292.000         565.000                  
G15  19470579.263    19470579.029    19470580.657                   -23896365.608 9 -23896365.611 9                 -18620545.408 9       874.000        1686.000        3131.000                  
G19  23954970.051    23954969.337    23954972.317                    -4323478.457 8  -4323478.445 6                  -3368959.444 7       158.000          31.000          54.000                  
G20  24092750.601    24092746.082    24092765.068                     -978168.148 7   -978168.168 6                   -762211.469 6        96.000          22.000          20.000                  
G23  24482242.761    24482242.848    24482249.013                      527824.948 7    527824.940 6                    411276.086 6        71.000          23.000          26.000                  
G24  22325083.639    22325083.030    22325087.880                    -6744252.041 8  -6744252.041 7                  -5255274.094 8       156.000          60.000         456.000                  
G25  23093932.332    23093931.720    23093938.327                    -7670680.301 8  -7670680.295 7                  -5977163.503 8       154.000          59.000         176.000                  
G29  22432508.897    22432508.804    22432510.844                   -14039951.763 8 -14039951.763 8                 -10940213.859 9       337.000         248.000         695.000                  
> 2024 10 31 16 02 50.0000000  0 12
G05  22979346.431    22979346.010    22979347.999                    -5963618.128 8  -5963618.129 8                  -4646970.395 8       261.000         172.000         449.000                  
G06  24293238.450    24293237.642    24293245.028                     -838453.657 7   -838453.658 6                   -653341.156 7        94.000          38.000          61.000                  
G11  22413861.380    22413860.996    22413863.484                   -14173196.152 8 -14173196.153 8                 -11044044.441 8       308.000         120.000         223.000                  
G12  22234754.537    22234754.400    22234756.831                   -13681954.616 8 -13681954.614 8                 -10661268.531 9       269.000         175.000         613.000                  
G13  20064148.926    20064148.454    20064149.928                   -24819509.828 9 -24819509.827 8                 -19339892.696 9       720.000         312.000         562.000                  
G15  19468697.223    19468697.070    19468698.660                   -23906255.119 9 -23906255.122 9                 -18628251.446 9       853.000        1634.000        3203.000                  
G19  24013879.371    24013876.617    24013880.222                    -4013917.393 8  -4013917.382 6                  -3127743.082 6       154.000          28.000          50.000                  
G20  24030425.258    24030420.692    24030424.774                    -1305695.017 7  -1305695.010 6                  -1017427.149 6        98.000          26.000          25.000                  
G23  24497448.665    24497447.784    24497453.846                      607728.184 7    607728.236 6                    473538.518 6        75.000          19.000          29.000                  
G24  22385211.344    22385211.717    22385216.992                    -6428271.523 8  -6428271.518 7                  -5009055.511 8       144.000          53.000         427.000                  
G25  23121656.401    23121655.307    23121662.339                    -7524988.335 8  -7524988.335 7                  -5863637.210 8       148.000          55.000         165.000                  
G29  22379924.033    22379923.736    22379926.217                   -14316285.487 8 -14316285.487 8                 -11155538.613 9       334.000         246.000         740.000                  
> 2024 10 31 16 03  0.0000000  0 12
G05  22916235.082    22916234.792    22916236.508                    -6295269.638 8  -6295269.636 8                  -4905399.869 8       280.000         191.000         470.000                  
G06  24299020.071    24299020.578    24299026.702                     -808065.443 7   -808065.458 6                   -629661.739 7        91.000          37.000          60.000                  
G11  22375953.727    22375953.157    22375955.804                   -14372401.374 8 -14372401.382 8                 -11199269.085 8       306.000         120.000         213.000                  
G12  22296180.329    22296179.435    22296181.977                   -13359163.204 8 -13359163.206 8                 -10409742.777 9       271.000         182.000         625.000                  
G13  20038124.467    20038123.945    20038125.368                   -24956269.147 9 -24956269.146 8                 -19446458.289 9       737.000         323.000         577.000                  
G15  19467590.590    19467590.288    19467591.983                   -23912070.556 9 -23912070.560 9                 -18632782.885 9       847.000        1595.000        3228.000                  
G19  24073099.622    24073098.502    24073101.750                    -3702705.325 8  -3702705.322 6                  -2885240.220 6       146.000          30.000          47.000                  
G20  23968341.268    23968338.562    23968343.547                    -1631940.601 8  -1631940.599 6                  -1271643.500 6       103.000          23.000          23.000                  
G23  24512768.430    24512769.478    24512775.476                      688244.629 7    688244.636 6                    536278.743 6        69.000          22.000          27.000                  
G24  22445650.203    22445649.807    22445655.223                    -6110666.923 8  -6110666.930 6                  -4761571.421 8       135.000          46.000         406.000                  
G25  23149988.416    23149987.468    23149994.330                    -7376102.886 8  -7376102.894 7                  -5747622.511 8       147.000          55.000         157.000                  
G29  22327983.732    22327983.397    22327985.802                   -14589233.099 8 -14589233.099 8                 -11368224.849 9       326.000         241.000         811.000                  
> 2024 10 31 16 03 10.0000000  0 12
G05  22853415.003    22853414.858    22853416.179                    -6625390.639 8  -6625390.640 8                  -5162636.755 9       292.000         218.000         513.000                  
G06  24305335.877    24305335.990    24305343.223                     -774873.438 7   -774873.446 6                   -603797.578 7        93.000          35.000          57.000                  
G11  22338766.754    22338766.660    22338769.118                   -14567817.525 8 -14567817.519 8                 -11351541.219 8       303.000         109.000         204.000                  
G12  22358146.481    22358146.100    22358148.340                   -13033528.067 8 -13033528.066 8                 -10156001.144 9       297.000         213.000         634.000                  
G13  20012753.705    20012753.421    20012754.775                   -25089591.726 9 -25089591.726 8                 -19550345.910 9       753.000         340.000         586.000                  
G15  19467252.198    19467251.517    19467253.184                   -23913850.543 9 -23913850.547 9                 -18634169.821 9       845.000        1607.000        3221.000                  
G19  24132617.576    24132615.706    24132619.490                    -3389941.196 8  -3389941.229 6                  -2641527.974 6       139.000          24.000          45.000                  
G20  23906501.718    23906499.767    23906504.302                    -1956906.274 8  -1956906.280 6                  -1524863.060 6       102.000          22.000          30.000                  
G23  24528200.593    24528200.215    24528204.598                      769329.777 7    769329.760 6                    599462.207 6        69.000          23.000          26.000                  
G24  22506382.173    22506381.067    22506386.344                    -5791521.971 8  -5791521.979 6                  -4512887.067 8       126.000          44.000         379.000                  
G25  23178914.758    23178914.837    23178921.278                    -7224088.925 8  -7224088.940 6                  -5629170.023 8       143.000          48.000         149.000                  
G29  22276691.779    22276691.557    22276694.078                   -14858772.466 8 -14858772.469 8                 -11578255.324 9       317.000         227.000         869.000                  
> 2024 10 31 16 03 20.0000000  0 12
G05  22790901.527    22790901.285    22790903.041                    -6953899.501 8  -6953899.500 8                  -5418617.451 9       307.000         226.000         562.000                  
G06  24312190.103    24312190.095    24312197.782                     -738855.437 7   -738855.435 6                   -575731.383 7       100.000          43.000          59.000                  
G11  22302315.266    22302315.101    22302317.314                   -14759371.677 8 -14759371.679 8                 -11500804.016 8       300.000         115.000         202.000                  
G12  22420649.725    22420648.743    22420651.059                   -12705074.392 8 -12705074.392 8                  -9900063.252 9       318.000         246.000         624.000                  
G13  19988048.395    19988047.959    19988049.070                   -25219419.717 9 -25219419.718 8                 -19651510.481 9       765.000         351.000         587.000                  
G15  19467687.946    19467687.829    19467689.459                   -23911557.731 9 -23911557.734 9                 -18632383.153 9       852.000        1638.000        3155.000                  
G19  24192425.939    24192423.775    24192427.627                    -3075646.846 8  -3075646.837 6                  -2396623.371 6       132.000          27.000          47.000                  
G20  23844920.823    23844919.151    23844922.469                    -2280516.306 8  -2280516.287 6                  -1777026.303 6       107.000          24.000          30.000                  
G23  24543745.133    24543743.899    24543749.473                      851016.207 7    851016.212 6                    663114.056 6        71.000          21.000          25.000                  
G24  22567403.768    22567403.941    22567409.343                    -5470843.204 8  -5470843.203 6                  -4263007.536 8       122.000          43.000         337.000                  
G25  23208440.275    23208439.295    23208446.042                    -7068935.100 8  -7068935.089 7                  -5508270.900 8       143.000          53.000         148.000                  
G29  22226068.126    22226067.082    22226069.504                   -15124804.689 8 -15124804.691 8                 -11785552.976 9       306.000         219.000         878.000                  
> 2024 10 31 16 03 30.0000000  0 12
G05  22728700.993    22728700.336    22728701.923                    -7280766.627 8  -7280766.628 8                  -5673318.874 9       306.000         227.000         603.000                  
G06  24319577.083    24319576.079    24319582.583                     -700041.304 8   -700041.305 6                   -545486.380 7       102.000          40.000          59.000                  
G11  22266602.298    22266602.181    22266604.543                   -14947043.121 8 -14947043.121 8                 -11647041.340 8       297.000         113.000         210.000                  
G12  22483674.020    22483673.644    22483675.675                   -12373878.785 8 -12373878.787 8                  -9641988.793 9       320.000         244.000         613.000                  
G13  19964009.067    19964008.566    19964009.761                   -25345747.410 9 -25345747.410 8                 -19749947.552 9       769.000         356.000         599.000                  
G15  19468896.539    19468896.282    19468897.880                   -23905206.922 9 -23905206.924 9                 -18627434.416 9       855.000        1649.000        3092.000                  
G19  24252511.340    24252509.024    24252513.063                    -2759895.324 8  -2759895.345 6                  -2150583.323 6       126.000          26.000          43.000                  
G20  23783603.126    23783601.719    23783604.253                    -2602746.371 8  -2602746.387 6                  -2028114.281 6       107.000          23.000          34.000                  
G23  24559399.500    24559398.167    24559405.228                      933284.972 7    933284.946 6                    727219.684 6        66.000          18.000          21.000                  
G24  22628708.405    22628708.470    22628713.296                    -5148688.556 8  -5148688.568 6                  -4011977.982 8       119.000          37.000         302.000                  
G25  23238556.082    23238553.834    23238560.823                    -6910682.080 8  -6910682.076 7                  -5384956.835 8       146.000          54.000         155.000                  
G29  22176119.399    22176119.031    22176121.538                   -15387282.661 8 -15387282.665 8                 -11990081.095 9       299.000         206.000         908.000                  
> 2024 10 31 16 03 40.0000000  0 12
G05  22666819.302    22666819.188    22666820.974                    -7605952.215 8  -7605952.216 8                  -5926710.024 9       302.000         219.000         657.000                  
G06  24327491.173    24327489.921    24327496.578                     -658451.763 8   -658451.787 6                   -513078.763 7       106.000          42.000          60.000                  
G11  22231634.052    22231633.625    22231636.193                   -15130802.124 8 -15130802.122 8                 -11790230.019 8       303.000         109.000         208.000                  
G12  22547207.509    22547206.941    22547209.181                   -12040008.141 8 -12040008.143 8                  -9381829.900 9       308.000         225.000         583.000                  
G13  19940638.408    19940638.072    19940639.184                   -25468559.760 9 -25468559.759 8                 -19845645.401 9       779.000         366.000         607.000                  
G15  19470876.079    19470875.875    19470877.451                   -23894804.026 9 -23894804.029 9                 -18619328.213 9       871.000        1701.000        3007.000                  
G19  24312862.200    24312859.443    24312864.172                    -2442749.762 8  -2442749.767 6                  -1903457.003 6       122.000          26.000          45.000                  
G20  23722552.567    23722551.698    23722554.620                    -2923562.305 8  -2923562.307 6                  -2278100.340 6       111.000          28.000          30.000                  
G23  24575162.438    24575164.012    24575166.693                     1016126.894 7   1016126.886 6                    791771.965 6        64.000          21.000          22.000                  
G24  22690284.812    22690284.262    22690289.104                    -4825105.950 8  -4825105.962 6                  -3759835.735 8       114.000          41.000         260.000                  
G25  23269253.801    23269252.560    23269259.235                    -6749361.427 8  -6749361.435 7                  -5259252.419 8       152.000          53.000         148.000                  
G29  22126858.580    22126857.917    22126860.669                   -15646149.779 8 -15646149.779 8                 -12191795.573 9       291.000         186.000         957.000                  
> 2024 10 31 16 03 50.0000000  0 11
G05  22605270.813    22605270.478    22605271.789                    -7929392.439 8  -7929392.440 8                  -6178741.154 9       299.000         226.000         688.000                  
G06  24335932.657    24335932.894    24335939.580                     -614084.280 8   -614084.302 6                   -478506.547 7       112.000          42.000          62.000                  
G11  22197420.558    22197420.216    22197422.599                   -15310595.841 8 -15310595.844 8                 -11930328.876 8       307.000         126.000         203.000                  
G12  22611241.739    22611241.096    22611243.409                   -11703505.610 8 -11703505.609 8                  -9119620.199 9       304.000         218.000         563.000                  
G13  19917944.266    19917943.906    19917945.113                   -25587818.312 9 -25587818.311 8                 -19938574.060 9       785.000         366.000         616.000                  
G15  19473630.220    19473629.843    19473631.383                   -23880331.895 9 -23880331.898 9                 -18608051.176 9       879.000        1746.000        2925.000                  
G19  24373470.009    24373468.638    24373472.693                    -2124249.158 8  -2124249.126 6                  -1655274.841 6       116.000          28.000          43.000                  
G20  23661783.165    23661781.203    23661785.220                    -3242906.070 8  -3242906.080 6                  -2526939.296 6       112.000          25.000          30.000                  
G24  22752127.054    22752126.734    22752131.786                    -4500119.304 8  -4500119.291 6                  -3506599.437 8       111.000          41.000         236.000                  
G25  23300533.663    23300533.036    23300539.390                    -6584981.400 8  -6584981.394 7                  -5131164.083 8       146.000          54.000         152.000                  
G29  22078300.144    22078299.556    22078302.075                   -15901326.026 8 -15901326.032 8                 -12390634.050 9       297.000         194.000         981.000                  
> 2024 10 31 16 04  0.0000000  0 11
G05  22544058.448    22544058.095    22544059.719                    -8251064.369 8  -8251064.372 8                  -6429394.412 9       306.000         225.000         748.000                  
G06  24344897.192    24344897.111    24344903.537                     -566977.902 8   -566977.886 6                   -441800.129 7       111.000          43.000          62.000                  
G11  22163963.421    22163962.974    22163965.166                   -15486413.190 8 -15486413.188 8                 -12067329.274 8       317.000         129.000         205.000                  
G12  22675761.019    22675760.553    22675762.662                   -11364455.186 8 -11364455.190 8                  -8855425.141 9       303.000         226.000         533.000                  
G13  19895925.616    19895925.336    19895926.394                   -25703526.423 9 -25703526.424 8                 -20028736.146 9       786.000         367.000         633.000                  
G15  19477153.595    19477153.345    19477154.909                   -23861815.199 9 -23861815.202 9                 -18593622.537 9       877.000        1740.000        2766.000                  
G19  24434321.987    24434320.442    24434324.195                    -1804473.250 8  -1804473.236 6                  -1406098.976 6       114.000          24.000          42.000                  
G20  23601296.272    23601295.870    23601299.197                    -3560760.492 8  -3560760.506 6                  -2774617.769 6       111.000          23.000          32.000                  
G24  22814225.353    22814224.284    22814229.912                    -4173793.354 8  -4173793.349 6                  -3252319.537 8       111.000          40.000         240.000                  
G25  23332387.721    23332385.962    23332392.728                    -6417591.867 8  -6417591.866 7                  -5000730.694 8       150.000          68.000         140.000                  
G29  22030451.196    22030450.644    22030453.171                   -16152772.803 8 -16152772.803 8                 -12586566.460 9       304.000         206.000         967.000                  
> 2024 10 31 16 04 10.0000000  0 11
G05  22483195.094    22483194.816    22483196.345                    -8570903.476 8  -8570903.478 8                  -6678619.502 9       308.000         232.000         792.000                  
G06  24354382.711    24354382.535    24354389.244                     -517130.873 8   -517130.864 6                   -402958.159 7       113.000          43.000          66.000                  
G11  22131272.733    22131272.649    22131274.439                   -15658202.527 8 -15658202.524 8                 -12201190.964 8       324.000         122.000         195.000                  
G12  22740756.937    22740756.427    22740758.605                   -11022899.429 8 -11022899.427 8                  -8589277.875 8       299.000         208.000         499.000                  
G13  19874589.827    19874589.489    19874590.517                   -25815646.580 9 -25815646.580 8                 -20116102.424 9       793.000         379.000         641.000                  
G15  19481449.823    19481449.625    19481451.104                   -23839238.117 9 -23839238.121 9                 -18576029.964 9       877.000        1745.000        2679.000                  
G19  24495408.952    24495407.043    24495411.110                    -1483460.457 8  -1483460.442 6                  -1155959.335 6       106.000          28.000          41.000                  
G20  23541105.051    23541104.673    23541106.867                    -3877066.964 8  -3877066.981 6                  -3021090.052 6       112.000          24.000          31.000                  
G24  22876573.439    22876573.221    22876578.166                    -3846151.269 8  -3846151.276 6                  -2997014.090 8       104.000          35.000         218.000                  
G25  23364811.515    23364810.298    23364816.606                    -6247201.835 8  -6247201.840 7                  -4867959.271 8       150.000          61.000         144.000                  
G29  21983327.209    21983326.900    21983329.119                   -16400410.457 8 -16400410.459 8                 -12779530.728 9       309.000         218.000         970.000                  
> 2024 10 31 16 04 20.0000000  0 11
G05  22422688.140    22422687.640    22422689.274                    -8888869.017 8  -8888869.017 8                  -6926384.671 9       312.000         228.000         815.000                  
G06  24364385.842    24364385.102    24364391.372                     -464566.261 8   -464566.266 6                   -361998.614 7       113.000          47.000          72.000                  
G11  22099354.076    22099353.687    22099355.713                   -15825937.222 8 -15825937.228 8                 -12331893.198 8       326.000         133.000         187.000                  
G12  22806217.121    22806216.522    22806218.747                   -10678905.063 8 -10678905.066 8                  -8321230.401 8       287.000         196.000         463.000                  
G13  19853939.309    19853938.727    19853939.823                   -25924166.273 9 -25924166.274 8                 -20200663.146 9       800.000         380.000         652.000                  
G15  19486516.963    19486516.769    19486518.255                   -23812609.912 9 -23812609.915 9                 -18555280.669 9       865.000        1687.000        2654.000                  
G19  24556720.089    24556717.056    24556721.418                    -1161272.909 8  -1161272.895 6                   -904904.299 6       101.000          27.000          42.000                  
G20  23481215.218    23481214.487    23481216.885                    -4191790.947 8  -4191790.942 6                  -3266329.224 6       114.000          26.000          30.000                  
G24  22939162.770    22939162.630    22939167.718                    -3517240.221 8  -3517240.221 6                  -2740719.847 8       105.000          29.000         203.000                  
G25  23397799.782    23397799.210    23397805.295                    -6073845.114 8  -6073845.119 7                  -4732876.148 8       152.000          53.000         140.000                  
G29  21936939.233    21936938.169    21936940.470                   -16644184.018 8 -16644184.020 8                 -12969484.006 9       317.000         227.000         960.000                  
> 2024 10 31 16 04 30.0000000  0 11
G05  22362547.759    22362547.143    22362548.779                    -9204907.962 8  -9204907.966 8                  -7172648.604 9       310.000         245.000         840.000                  
G06  24374904.067    24374902.819    24374909.679                     -409294.760 8   -409294.773 6                   -318929.813 7       109.000          37.000          67.000                  
G11  22068213.830    22068213.597    22068215.617                   -15989578.582 8 -15989578.584 8                 -12459405.826 8       335.000         137.000         190.000                  
G12  22872130.873    22872130.261    22872132.557                   -10332525.808 8 -10332525.807 8                  -8051324.584 8       275.000         190.000         438.000                  
G13  19833978.443    19833978.004    19833979.063                   -26029060.451 9 -26029060.451 8                 -20282398.794 9       804.000         386.000         658.000                  
G15  19492355.565    19492355.312    19492356.866                   -23781927.691 9 -23781927.694 9                 -18531372.405 9       847.000        1616.000        2677.000                  
G19  24618244.977    24618241.624    24618245.323                     -837959.602 8   -837959.600 6                   -652972.067 6       101.000          22.000          38.000                  
G20  23421635.515    23421633.510    23421637.323                    -4504885.168 8  -4504885.173 6                  -3510298.498 6       120.000          25.000          34.000                  
G24  23001988.558    23001988.070    23001992.740                    -3187094.311 8  -3187094.307 6                  -2483463.387 8       101.000          31.000         199.000                  
G25  23431349.183    23431348.468    23431354.560                    -5897543.127 8  -5897543.126 7                  -4595498.028 8       151.000          65.000         146.000                  
G29  21891297.856    21891297.581    21891299.745                   -16884026.036 8 -16884026.037 8                 -13156373.748 9       328.000         235.000         908.000                  
> 2024 10 31 16 04 40.0000000  0 11
G05  22302780.315    22302779.946    22302781.529                    -9518986.299 8  -9518986.301 8                  -7417384.803 9       317.000         235.000         855.000                  
G06  24385930.358    24385929.164    24385935.109                     -351347.348 8   -351347.351 6                   -273775.896 7       102.000          36.000          67.000                  
G11  22037856.083    22037855.812    22037857.892                   -16149108.474 8 -16149108.469 8                 -12583714.719 8       331.000         144.000         186.000                  
G12  22938484.262    22938484.094    22938486.323                    -9983835.078 8  -9983835.079 8                  -7779617.627 8       265.000         169.000         421.000                  
G13  19814708.521    19814708.054    19814709.081                   -26130324.455 9 -26130324.455 8                 -20361305.740 9       818.000         400.000         675.000                  
G15  19498962.196    19498961.971    19498963.476                   -23747209.152 9 -23747209.156 9                 -18504318.961 9       837.000        1584.000        2683.000                  
G19  24679971.763    24679967.617    24679971.191                     -513589.134 7   -513589.120 6                   -400216.091 6        97.000          23.000          34.000                  
G20  23362370.746    23362368.771    23362373.527                    -4816321.887 8  -4816321.875 6                  -3752976.185 6       130.000          23.000          35.000                  
G24  23065037.208    23065036.748    23065042.168                    -2855767.123 7  -2855767.124 6                  -2225286.451 8        99.000          36.000         195.000                  
G25  23465451.263    23465450.273    23465456.417                    -5718337.576 8  -5718337.588 7                  -4455857.396 8       155.000          61.000         137.000                  
G29  21846414.721    21846414.217    21846416.225                   -17119889.343 8 -17119889.346 8                 -13340163.208 9       332.000         253.000         847.000                  
> 2024 10 31 16 04 50.0000000  0 11
G05  22243399.510    22243399.408    22243400.805                    -9831032.866 8  -9831032.867 8                  -7660537.808 9       325.000         252.000         873.000                  
G06  24397467.566    24397466.548    24397473.256                     -290718.228 8   -290718.213 6                   -226532.367 7       103.000          36.000          73.000                  
G11  22008291.639    22008291.066    22008293.084                   -16304472.283 8 -16304472.281 8                 -12704777.311 8       333.000         148.000         191.000                  
G12  23005270.979    23005270.614    23005273.137                    -9632868.720 8  -9632868.717 8                  -7506137.456 8       257.000         158.000         395.000                  
G13  19796137.198    19796136.754    19796137.796                   -26227916.920 9 -26227916.921 8                 -20437351.748 9       832.000         414.000         696.000                  
G15  19506340.551    19506340.332    19506341.869                   -23708435.575 9 -23708435.579 9                 -18474105.745 9       827.000        1542.000        2760.000                  
G19  24741891.523    24741889.095    24741892.944                     -188192.390 7   -188192.389 6                   -146660.465 6        96.000          23.000          32.000                  
G20  23303433.848    23303432.131    23303435.548                    -5126036.059 8  -5126036.063 6                  -3994311.631 6       137.000          20.000          44.000                  
G24  23128309.203    23128307.591    23128313.344                    -2523274.704 8  -2523274.727 6                  -1966201.555 8       103.000          32.000         174.000                  
G25  23500104.017    23500103.949    23500109.717                    -5536233.281 8  -5536233.275 7                  -4313957.998 8       156.000          69.000         149.000                  
G29  21802304.618    21802304.032    21802306.006                   -17351689.883 8 -17351689.883 8                 -13520786.873 9       346.000         268.000         817.000                  
> 2024 10 31 16 05  0.0000000  0 11
G05  22184409.004    22184408.446    22184409.991                   -10141031.579 8 -10141031.580 8                  -7902095.087 9       337.000         263.000         895.000                  
G06  24409504.542    24409504.770    24409511.890                     -227457.470 7   -227457.489 6                   -177238.194 7        96.000          31.000          71.000                  
G11  21979518.787    21979518.602    21979520.850                   -16455671.607 8 -16455671.611 8                 -12822594.853 8       332.000         136.000         187.000                  
G12  23072473.264    23072472.999    23072475.523                    -9279717.777 8  -9279717.776 8                  -7230955.020 8       247.000         149.000         366.000                  
G13  19778261.857    19778261.421    19778262.444                   -26321852.408 9 -26321852.409 8                 -20510548.166 9       839.000         417.000         710.000                  
G15  19514483.352    19514483.090    19514484.741                   -23665644.209 9 -23665644.212 9                 -18440761.782 9       811.000        1511.000        2830.000                  
G19  24803990.386    24803989.725    24803993.108                      138144.769 7    138144.752 6                    107627.993 6        90.000          23.000          33.000                  
G20  23244827.269    23244825.228    23244828.658                    -5434017.870 8  -5434017.917 6                  -4234297.221 6       144.000          26.000          41.000                  
G24  23191788.049    23191787.196    23191792.972                    -2189688.232 8  -2189688.247 6                  -1706264.154 8       105.000          27.000         167.000                  
G25  23535297.792    23535297.143    23535303.521                    -5351290.926 8  -5351290.941 7                  -4169847.139 8       156.000          62.000         150.000                  
G29  21758972.639    21758972.118    21758974.096                   -17579399.382 8 -17579399.383 8                 -13698222.715 9       361.000         287.000         784.000                  
> 2024 10 31 16 05 10.0000000  0 11
G05  22125821.633    22125821.205    22125822.685                   -10448908.666 8 -10448908.668 8                  -8141999.149 9       342.000         288.000         927.000                  
G06  24422045.582    24422044.833    24422051.722                     -161558.222 7   -161558.232 6                   -125888.065 7        91.000          31.000          60.000                  
G11  21951549.751    21951549.211    21951551.345                   -16602651.504 8 -16602651.504 8                 -12937124.531 8       335.000         133.000         175.000                  
G12  23140085.944    23140085.006    23140087.472                    -8924415.898 8  -8924415.902 8                  -6954096.539 8       236.000         133.000         333.000                  
G13  19761090.312    19761089.973    19761091.076                   -26412088.775 9 -26412088.774 8                 -20580862.151 9       839.000         417.000         729.000                  
G15  19523394.544    19523394.331    19523395.837                   -23618815.857 9 -23618815.860 9                 -18404272.117 9       817.000        1518.000        2869.000                  
G19  24866265.920    24866263.005    24866267.610                      465394.023 7    465394.014 6                    362627.101 6        88.000          21.000          33.000                  
G20  23186562.705    23186560.829    23186563.166                    -5740200.132 8  -5740200.143 6                  -4472880.551 6       150.000          28.000          45.000                  
G24  23255474.012    23255472.758    23255477.922                    -1855021.201 8  -1855021.200 6                  -1445484.759 8       106.000          38.000         157.000                  
G25  23571031.154    23571029.769    23571036.458                    -5163514.230 8  -5163514.229 7                  -4023527.710 8       149.000          60.000         148.000                  
G29  21716435.681    21716434.975    21716436.767                   -17802933.128 8 -17802933.128 8                 -13872404.730 9       373.000         315.000         738.000                  
> 2024 10 31 16 05 20.0000000  0 11
G05  22067644.671    22067644.307    22067645.379                   -10754630.514 8 -10754630.515 8                  -8380223.810 9       345.000         289.000         949.000                  
G06  24435082.406    24435081.042    24435087.201                      -93054.354 7    -93054.351 6                    -72508.375 7        88.000          33.000          64.000                  
G11  21924385.771    21924385.370    21924387.362                   -16745398.131 8 -16745398.132 8                 -13048355.560 8       341.000         139.000         184.000                  
G12  23208092.734    23208091.671    23208094.676                    -8567036.530 8  -8567036.531 8                  -6675619.245 8       227.000         128.000         302.000                  
G13  19744623.155    19744622.777    19744623.713                   -26498624.653 9 -26498624.654 8                 -20648292.639 9       841.000         418.000         745.000                  
G15  19533069.755    19533069.511    19533071.029                   -23567972.107 9 -23567972.111 9                 -18364653.570 9       824.000        1535.000        2939.000                  
G19  24928699.309    24928696.852    24928701.858                      793487.292 7    793487.285 6                    618283.899 6        82.000          26.000          28.000                  
G20  23128645.946    23128643.684    23128646.173                    -6044555.696 8  -6044555.687 6                  -4710040.466 6       154.000          28.000          47.000                  
G24  23319353.407    23319353.394    23319358.680                    -1519327.065 8  -1519327.083 6                  -1183905.032 8       105.000          32.000         150.000                  
G25  23607294.173    23607293.290    23607300.119                    -4972947.533 8  -4972947.537 6                  -3875034.259 8       150.000          48.000         140.000                  
G29  21674701.462    21674700.949    21674702.632                   -18022246.947 8 -18022246.950 8                 -14043298.491 9       380.000         318.000         751.000                  
> 2024 10 31 16 05 30.0000000  0 11
G05  22009885.294    22009884.969    22009886.117                   -11058156.629 8 -11058156.630 8                  -8616737.509 9       354.000         307.000         969.000                  
G06  24448607.373    24448607.495    24448613.063                      -21973.248 7    -21973.250 6                    -17120.437 7        84.000          34.000          63.000                  
G11  21898031.368    21898031.052    21898032.722                   -16883891.635 8 -16883891.634 8                 -13156272.464 8       343.000         151.000         188.000                  
G12  23276482.270    23276482.169    23276484.387                    -8207646.064 8  -8207646.072 8                  -6395574.868 8       224.000         120.000         259.000                  
G13  19728861.510    19728861.015    19728862.107                   -26581452.483 9 -26581452.483 8                 -20712833.737 9       837.000         416.000         755.000                  
G15  19543506.188    19543505.912    19543507.398                   -23513128.532 9 -23513128.536 9                 -18321918.276 9       834.000        1565.000        2959.000                  
G19  24991283.748    24991280.690    24991285.061                     1122363.639 7   1122363.632 6                    874550.816 6        80.000          25.000          34.000                  
G20  23071081.797    23071080.696    23071082.563                    -6347050.394 8  -6347050.403 6                  -4945750.391 7       162.000          29.000          52.000                  
G24  23383422.313    23383421.387    23383425.748                    -1182652.084 8  -1182652.098 6                   -921561.014 8       108.000          38.000         147.000                  
G25  23644081.461    23644080.909    23644087.337                    -4779628.768 8  -4779628.760 7                  -3724396.336 8       147.000          52.000         132.000                  
G29  21633779.824    21633779.443    21633781.162                   -18237290.315 8 -18237290.315 8                 -14210864.620 9       383.000         329.000         804.000                  
> 2024 10 31 16 05 40.0000000  0 11
G05  21952557.196    21952556.725    21952557.977                   -11359418.027 8 -11359418.028 8                  -8851486.496 9       369.000         331.000         997.000                  
G06  24462624.054    24462623.664    24462630.418                       51685.429 7     51685.439 6                     40276.008 7        78.000          23.000          62.000                  
G11  21872495.393    21872494.805    21872496.733                   -17018084.801 8 -17018084.798 8                 -13260838.455 8       355.000         163.000         191.000                  
G12  23345248.464    23345247.360    23345249.757                    -7846282.425 8  -7846282.427 8                  -6113992.956 8       223.000         117.000         219.000                  
G13  19713812.128    19713811.815    19713812.719                   -26660536.855 9 -26660536.855 8                 -20774457.856 9       830.000         413.000         753.000                  
G15  19554705.975    19554705.747    19554707.201                   -23454273.150 9 -23454273.154 9                 -18276056.898 9       838.000        1584.000        2962.000                  
G19  25054008.743    25054006.493    25054011.604                     1451990.860 7   1451990.848 6                   1131402.814 6        76.000          22.000          27.000                  
G20  23013885.077    23013883.556    23013886.230                    -6647621.950 8  -6647621.952 6                  -5179961.767 7       167.000          33.000          65.000                  
G24  23447671.890    23447671.741    23447676.808                     -845014.044 8   -845014.023 6                   -658466.568 8       105.000          38.000         138.000                  
G25  23681390.891    23681389.428    23681396.352                    -4583567.896 8  -4583567.906 7                  -3571621.704 8       138.000          54.000         123.000                  
G29  21593686.126    21593685.396    21593687.168                   -18447985.165 8 -18447985.166 8                 -14375042.298 9       395.000         354.000         873.000                  
> 2024 10 31 16 05 50.0000000  0 11
G05  21895667.705    21895667.519    21895668.667                   -11658373.613 8 -11658373.615 8                  -9084438.756 9       383.000         359.000        1023.000                  
G06  24477126.106    24477125.549    24477132.574                      127893.753 7    127893.755 6                     99659.187 7        75.000          26.000          52.000                  
G11  21847780.874    21847780.380    21847782.511                   -17147959.155 8 -17147959.154 8                 -13362039.145 8       351.000         156.000         203.000                  
G12  23414375.965    23414375.777    23414378.140                    -7483011.099 8  -7483011.103 8                  -5830924.530 8       219.000         119.000         191.000                  
G13  19699476.441    19699475.959    19699476.991                   -26735871.056 9 -26735871.056 8                 -20833159.763 9       824.000         401.000         743.000                  
G15  19566665.911    19566665.733    19566667.217                   -23391422.538 9 -23391422.540 9                 -18227082.353 9       829.000        1556.000        2848.000                  
G19  25116867.481    25116863.638    25116869.818                     1782309.151 7   1782309.152 6                   1388793.301 6        74.000          23.000          24.000                  
G20  22957060.916    22957058.740    22957061.351                    -6946235.982 8  -6946235.994 6                  -5412647.814 7       175.000          30.000          63.000                  
G24  23512097.841    23512096.822    23512101.549                     -506458.229 8   -506458.222 6                   -394656.972 8       105.000          31.000         136.000                  
G25  23719214.031    23719213.330    23719220.619                    -4384803.231 8  -4384803.238 7                  -3416740.208 8       139.000          54.000         115.000                  
G29  21554429.055    21554428.477    21554430.097                   -18654281.998 8 -18654282.000 8                 -14535792.962 9       417.000         387.000         933.000                  
> 2024 10 31 16 06  0.0000000  0 11
G05  21839222.072    21839221.741    21839222.728                   -11954997.020 8 -11954997.020 8                  -9315573.738 9       389.000         365.000        1079.000                  
G06  24492104.760    24492103.781    24492111.133                      206608.632 7    206608.630 6                    160995.531 6        67.000          26.000          46.000                  
G11  21823888.552    21823888.555    21823890.430                   -17273511.894 8 -17273511.894 8                 -13459872.343 8       355.000         152.000         211.000                  
G12  23483852.552    23483852.154    23483854.119                    -7117911.998 8  -7117912.005 7                  -5546431.867 8       206.000          99.000         178.000                  
G13  19685853.010    19685852.455    19685853.306                   -26807463.614 9 -26807463.613 8                 -20888946.104 9       817.000         392.000         748.000                  
G15  19579380.217    19579379.968    19579381.387                   -23324608.755 9 -23324608.758 9                 -18175019.624 9       820.000        1519.000        2734.000                  
G19  25179840.569    25179839.803    25179844.928                     2113244.486 7   2113244.485 6                   1646664.584 6        74.000          21.000          29.000                  
G20  22900612.328    22900610.589    22900612.981                    -7242872.647 8  -7242872.651 6                  -5643793.045 7       172.000          33.000          73.000                  
G24  23576686.867    23576685.572    23576690.185                     -167044.402 7   -167044.390 6                   -130178.807 8        96.000          31.000         131.000                  
G25  23757542.359    23757541.619    23757548.363                    -4183388.092 8  -4183388.106 6                  -3259793.404 8       130.000          48.000         119.000                  
G29  21516015.567    21516014.822    21516016.521                   -18856146.657 8 -18856146.660 8                 -14693089.990 9       431.000         412.000        1006.000                  
> 2024 10 31 16 06 10.0000000  0 11
G05  21783235.727    21783235.453    21783236.598                   -12249206.765 8 -12249206.764 8                  -9544827.948 9       383.000         356.000        1118.000                  
G06  24507562.410    24507562.124    24507569.404                      287841.475 7    287841.462 6                    224293.951 6        61.000          21.000          47.000                  
G11  21800830.003    21800829.577    21800831.692                   -17394686.230 8 -17394686.227 8                 -13554293.799 8       363.000         166.000         226.000                  
G12  23553671.839    23553671.154    23553673.419                    -6751009.944 8  -6751009.945 7                  -5260534.312 8       188.000          86.000         170.000                  
G13  19672949.974    19672949.399    19672950.296                   -26875268.817 9 -26875268.815 8                 -20941781.258 9       815.000         393.000         748.000                  
G15  19592852.731    19592852.524    19592853.923                   -23253809.911 9 -23253809.915 9                 -18119851.654 9       815.000        1505.000        2621.000                  
G19  25242931.978    25242929.381    25242933.493                     2444778.046 7   2444778.046 6                   1905001.930 6        72.000          19.000          23.000                  
G20  22844554.148    22844552.798    22844554.967                    -7537457.141 8  -7537457.128 6                  -5873339.204 7       176.000          30.000          76.000                  
G24  23641436.067    23641435.684    23641441.096                      173222.919 7    173222.925 6                    134964.405 8        97.000          34.000         117.000                  
G25  23796375.356    23796374.306    23796380.522                    -3979321.317 8  -3979321.325 7                  -3100780.383 8       129.000          51.000         112.000                  
G29  21478461.910    21478461.402    21478463.020                   -19053490.675 8 -19053490.678 8                 -14846864.437 9       445.000         446.000        1049.000                  
> 2024 10 31 16 06 20.0000000  0 11
G05  21727711.828    21727711.530    21727712.927                   -12540984.890 8 -12540984.890 8                  -9772187.385 9       379.000         333.000        1141.000                  
G06  24523488.918    24523489.060    24523496.340                      371539.464 7    371539.473 6                    289513.237 6        62.000          23.000          42.000                  
G11  21778602.742    21778602.533    21778604.441                   -17511490.148 8 -17511490.142 8                 -13645309.731 8       368.000         175.000         241.000                  
G12  23623816.873    23623816.433    23623818.921                    -6382393.224 8  -6382393.227 7                  -4973300.664 8       176.000          70.000         153.000                  
G13  19660764.210    19660763.809    19660764.465                   -26939305.349 9 -26939305.348 8                 -20991679.789 9       814.000         385.000         746.000                  
G15  19607075.621    19607075.290    19607076.701                   -23179068.325 9 -23179068.327 9                 -18061611.415 9       801.000        1454.000        2490.000                  
G19  25306119.019    25306116.492    25306120.729                     2776827.632 7   2776827.633 6                   2163741.470 6        68.000          24.000          23.000                  
G20  22788889.369    22788888.286    22788890.014                    -7829978.487 8  -7829978.473 6                  -6101277.718 7       176.000          33.000          85.000                  
G24  23706337.407    23706337.134    23706341.784                      514275.679 7    514275.696 6                    400719.657 8        90.000          35.000         118.000                  
G25  23835701.764    23835699.479    23835706.151                    -3772665.833 8  -3772665.824 6                  -2939750.194 8       126.000          40.000         114.000                  
G29  21441773.115    21441772.603    21441774.394                   -19246290.359 8 -19246290.359 8                 -14997097.843 9       453.000         462.000        1084.000                  
> 2024 10 31 16 06 30.0000000  0 11
G05  21672665.365    21672665.247    21672666.485                   -12830255.178 8 -12830255.179 8                  -9997592.674 9       371.000         333.000        1130.000                  
G06  24539889.265    24539886.347    24539893.229                      457707.733 7    457707.730 6                    356657.450 6        57.000          20.000          46.000                  
G11  21757216.890    21757216.493    21757218.253                   -17623874.200 8 -17623874.200 8                 -13732881.617 8       376.000         165.000         247.000                  
G12  23694283.485    23694282.844    23694285.392                    -6012091.372 8  -6012091.382 7                  -4684753.932 8       161.000          68.000         145.000                  
G13  19649303.071    19649302.443    19649303.197                   -26999534.173 9 -26999534.171 8                 -21038611.275 9       806.000         396.000         758.000                  
G15  19622051.625    19622051.271    19622052.705                   -23100368.647 9 -23100368.649 9                 -18000286.950 9       782.000        1385.000        2404.000                  
G19  25369399.944    25369397.051    25369402.044                     3109369.694 7   3109369.690 6                   2422864.660 6        66.000          23.000          26.000                  
G20  22733630.303    22733628.961    22733630.473                    -8120367.235 8  -8120367.220 6                  -6327554.467 7       180.000          33.000          86.000                  
G24  23771385.364    23771384.745    23771389.374                      856104.532 7    856104.551 6                    667079.640 8        85.000          28.000         105.000                  
G25  23875518.507    23875516.503    23875523.160                    -3563426.544 8  -3563426.561 6                  -2776706.659 8       120.000          40.000         104.000                  
G29  21405964.876    21405964.312    21405965.986                   -19434464.346 8 -19434464.348 8                 -15143726.816 9       465.000         478.000        1129.000                  
> 2024 10 31 16 06 40.0000000  0 11
G05  21618099.364    21618099.164    21618100.376                   -13117001.862 8 -13117001.861 8                 -10221031.517 9       367.000         324.000        1134.000                  
G06  24556742.462    24556742.395    24556750.184                      546290.340 7    546290.332 6                    425682.941 6        58.000          24.000          48.000                  
G11  21736669.475    21736669.192    21736671.157                   -17731850.636 8 -17731850.636 8                 -13817018.997 8       376.000         183.000         244.000                  
G12  23765052.398    23765052.470    23765055.334                    -5640194.485 8  -5640194.488 7                  -4394964.317 8       154.000          61.000         127.000                  
G13  19638562.180    19638561.593    19638562.354                   -27055977.559 9 -27055977.558 8                 -21082593.068 9       803.000         383.000         773.000                  
G15  19637771.857    19637771.739    19637773.203                   -23017757.003 9 -23017757.005 9                 -17935914.200 9       768.000        1339.000        2351.000                  
G19  25432758.132    25432756.696    25432761.009                     3442320.428 7   3442320.463 6                   2682306.307 6        66.000          25.000          20.000                  
G20  22678777.910    22678776.584    22678778.998                    -8408614.733 8  -8408614.708 6                  -6552162.725 7       175.000          28.000          93.000                  
G24  23836567.382    23836566.838    23836571.631                     1198639.721 7   1198639.693 6                    933990.024 8        79.000          25.000         107.000                  
G25  23915813.696    23915812.801    23915819.222                    -3351669.367 8  -3351669.377 6                  -2611701.130 8       117.000          37.000         105.000                  
G29  21371040.556    21371039.995    21371041.430                   -19617992.910 8 -19617992.912 9                 -15286735.988 9       491.000         547.000        1119.000                  
> 2024 10 31 16 06 50.0000000  0 11
G05  21564027.336    21564027.072    21564028.304                   -13401150.650 8 -13401150.649 8                 -10442446.033 9       365.000         322.000        1094.000                  
G06  24574058.709    24574058.653    24574066.453                      637289.745 7    637289.748 6                    496591.631 6        57.000          28.000          39.000                  
G11  21716969.782    21716969.318    21716971.104                   -17835373.895 8 -17835373.892 8                 -13897686.372 8       385.000         189.000         243.000                  
G12  23836120.841    23836120.352    23836122.584                    -5266733.382 8  -5266733.396 7                  -4103955.837 8       145.000          55.000         118.000                  
G13  19628548.323    19628547.763    19628548.482                   -27108599.866 9 -27108599.865 8                 -21123597.398 9       803.000         387.000         774.000                  
G15  19654238.971    19654238.867    19654240.319                   -22931221.516 9 -22931221.518 9                 -17868483.908 9       759.000        1301.000        2266.000                  
G19  25496190.249    25496188.557    25496193.573                     3775655.300 7   3775655.302 6                   2942047.183 6        62.000          22.000          23.000                  
G20  22624346.454    22624345.077    22624348.037                    -8694653.477 8  -8694653.471 6                  -6775049.884 7       176.000          37.000          93.000                  
G24  23901881.988    23901880.574    23901886.909                     1541870.565 7   1541870.541 6                   1201442.471 7        71.000          27.000         100.000                  
G25  23956587.439    23956586.504    23956593.140                    -3137401.732 8  -3137401.731 6                  -2444739.401 8       114.000          40.000         105.000                  
G29  21337014.883    21337014.482    21337015.853                   -19796798.310 9 -19796798.313 9                 -15426064.772 9       506.000         561.000        1121.000                  
> 2024 10 31 16 07  0.0000000  0 11
G05  21510457.156    21510456.438    21510457.433                   -13682666.257 8 -13682666.259 8                 -10661808.723 9       373.000         327.000        1040.000                  
G06  24591828.835    24591827.441    24591836.610                      730669.130 7    730669.131 6                    569354.886 6        60.000          27.000          42.000                  
G11  21698118.063    21698117.705    21698120.033                   -17934438.313 8 -17934438.310 8                 -13974879.326 8       386.000         185.000         241.000                  
G12  23907472.844    23907471.719    23907474.305                    -4891777.500 8  -4891777.495 6                  -3811782.589 8       132.000          45.000         101.000                  
G13  19619261.031    19619260.611    19619261.258                   -27157404.759 9 -27157404.760 8                 -21161627.120 9       797.000         387.000         797.000                  
G15  19671447.412    19671447.439    19671448.812                   -22840789.846 9 -22840789.850 9                 -17798017.630 9       764.000        1324.000        2212.000                  
G19  25559685.675    25559680.912    25559685.559                     4109311.225 7   4109311.230 6                   3202038.258 6        59.000          18.000          22.000                  
G20  22570340.970    22570339.107    22570341.959                    -8978454.978 8  -8978454.991 6                  -6996193.743 8       173.000          31.000         101.000                  
G24  23967318.779    23967319.062    23967324.379                     1885747.809 7   1885747.836 6                   1469398.615 7        65.000          32.000          90.000                  
G25  23997830.924    23997829.312    23997836.045                    -2920670.243 8  -2920670.225 6                  -2275857.783 8       113.000          40.000         102.000                  
G29  21303895.283    21303894.785    21303896.178                   -19970842.600 9 -19970842.602 9                 -15561683.595 9       517.000         603.000        1113.000                  
> 2024 10 31 16 07 10.0000000  0 11
G05  21457395.908    21457395.388    21457396.365                   -13961503.261 8 -13961503.259 8                 -10879084.190 9       387.000         367.000         996.000                  
G06  24610047.530    24610044.803    24610053.146                      826400.932 7    826400.918 6                    643951.186 6        63.000          23.000          33.000                  
G11  21680117.558    21680117.633    21680119.574                   -18029029.621 8 -18029029.621 8                 -14048586.741 8       396.000         192.000         242.000                  
G12  23979097.319    23979096.127    23979100.053                    -4515386.371 8  -4515386.364 6                  -3518490.975 7       130.000          38.000          93.000                  
G13  19610701.055    19610700.572    19610701.358                   -27202387.006 9 -27202387.005 8                 -21196678.158 9       791.000         368.000         821.000                  
G15  19689394.115    19689393.839    19689395.231                   -22746480.531 9 -22746480.534 9                 -17724529.814 9       773.000        1354.000        2177.000                  
G19  25623228.679    25623224.438    25623229.152                     4443235.086 7   4443235.068 6                   3462238.021 6        58.000          28.000          23.000                  
G20  22516768.309    22516765.935    22516768.444                    -9259981.078 8  -9259981.075 6                  -7215564.571 8       174.000          36.000         101.000                  
G24  24032873.161    24032871.892    24032877.811                     2230232.145 7   2230232.154 6                   1737827.798 7        62.000          23.000          87.000                  
G25  24039535.337    24039533.801    24039540.618                    -2701512.169 8  -2701512.190 6                  -2105085.320 8       110.000          37.000         106.000                  
G29  21271690.582    21271690.106    21271691.363                   -20140079.074 9 -20140079.075 9                 -15693556.072 9       527.000         625.000        1037.000                  
> 2024 10 31 16 07 20.0000000  0 11
G05  21404856.465    21404856.355    21404857.098                   -14237598.288 8 -14237598.289 8                 -11094223.057 9       410.000         410.000         941.000                  
G06  24628710.191    24628707.807    24628716.254                      924475.500 7    924475.487 6                    720372.993 6        66.000          24.000          40.000                  
G11  21662975.147    21662974.602    21662976.456                   -18119116.344 8 -18119116.341 8                 -14118784.095 8       400.000         202.000         240.000                  
G12  24050988.140    24050986.894    24050990.140                    -4137600.836 8  -4137600.804 6                  -3224112.822 7       111.000          37.000          89.000                  
G13  19602872.931    19602872.500    19602873.155                   -27243523.880 9 -27243523.881 8                 -21228732.804 9       783.000         366.000         837.000                  
G15  19708078.392    19708077.945    19708079.339                   -22648294.631 9 -22648294.633 9                 -17648021.280 9       784.000        1383.000        2167.000                  
G19  25686815.068    25686812.418    25686820.257                     4777392.557 7   4777392.534 6                   3722619.749 6        58.000          19.000          23.000                  
G20  22463638.108    22463637.389    22463640.057                    -9539175.393 8  -9539175.391 6                  -7433118.431 8       178.000          25.000         112.000                  
G24  24098534.932    24098537.156    24098542.896                     2575302.838 7   2575302.887 6                   2006713.906 7        56.000          21.000          76.000                  
G25  24081697.009    24081695.981    24081703.344                    -2479946.804 8  -2479946.808 6                  -1932437.057 7       104.000          31.000         100.000                  
G29  21240412.915    21240412.635    21240413.617                   -20304443.720 9 -20304443.722 9                 -15821632.319 9       546.000         661.000        1000.000                  
> 2024 10 31 16 07 30.0000000  0 10
G05  21352844.103    21352843.583    21352844.281                   -14510926.590 8 -14510926.589 8                 -11307206.034 9       438.000         456.000         902.000                  
G06  24647809.191    24647807.721    24647816.040                     1024844.047 7   1024844.032 6                    798582.358 6        70.000          21.000          37.000                  
G11  21646687.734    21646687.157    21646689.052                   -18204706.763 8 -18204706.762 8                 -14185477.834 8       405.000         215.000         242.000                  
G12  24123128.692    24123127.371    24123130.563                    -3758500.219 8  -3758500.211 6                  -2928709.934 7       102.000          32.000          84.000                  
G13  19595773.195    19595772.977    19595773.706                   -27280831.817 9 -27280831.816 8                 -21257803.860 9       772.000         362.000         857.000                  
G15  19727492.226    19727492.050    19727493.492                   -22546272.620 9 -22546272.622 9                 -17568523.571 9       794.000        1428.000        2191.000                  
G20  22410956.972    22410955.316    22410957.986                    -9816020.400 8  -9816020.402 6                  -7648841.671 8       179.000          36.000         108.000                  
G24  24164301.984    24164302.212    24164308.852                     2920900.661 7   2920900.668 6                   2276010.749 7        53.000          19.000          63.000                  
G25  24124306.323    24124305.694    24124312.740                    -2256032.409 7  -2256032.394 6                  -1757958.391 7        95.000          26.000          96.000                  
G29  21210067.023    21210066.587    21210067.705                   -20463912.332 9 -20463912.332 9                 -15945893.476 9       555.000         683.000        1042.000                  
> 2024 10 31 16 07 40.0000000  0  9
G05  21301371.699    21301371.545    21301372.186                   -14781414.151 8 -14781414.153 9                 -11517975.447 9       465.000         519.000         864.000                  
G06  24667345.632    24667343.996    24667352.083                     1127507.068 7   1127507.088 6                    878579.574 6        72.000          31.000          32.000                  
G11  21631263.384    21631263.122    21631264.965                   -18285760.634 8 -18285760.627 8                 -14248636.600 8       413.000         210.000         249.000                  
G12  24195512.186    24195512.863    24195515.954                    -3378113.891 7  -3378113.868 6                  -2632305.198 7        98.000          33.000          67.000                  
G13  19589408.693    19589408.236    19589408.924                   -27314278.840 9 -27314278.841 8                 -21283866.411 9       765.000         352.000         873.000                  
G15  19747638.198    19747637.865    19747639.205                   -22440405.973 9 -22440405.973 9                 -17486030.046 9       805.000        1473.000        2216.000                  
G20  22358735.375    22358732.819    22358735.582                   -10090449.124 8 -10090449.128 6                  -7862682.095 8       183.000          32.000         109.000                  
G25  24167361.657    24167360.357    24167367.316                    -2029777.993 7  -2029778.009 6                  -1581656.328 8        91.000          33.000         103.000                  
G29  21180666.642    21180666.367    21180667.353                   -20618412.182 9 -20618412.184 9                 -16066282.873 9       570.000         720.000        1105.000                  
> 2024 10 31 16 07 50.0000000  0  9
G05  21250444.096    21250443.804    21250444.009                   -15049040.924 8 -15049040.925 9                 -11726515.675 9       497.000         597.000         828.000                  
G06  24687309.226    24687307.114    24687313.987                     1232410.789 7   1232410.791 6                    960322.798 6        73.000          26.000          38.000                  
G11  21616699.779    21616699.519    21616701.528                   -18362292.722 8 -18362292.720 8                 -14308271.904 8       421.000         223.000         251.000                  
G12  24268127.545    24268126.734    24268129.885                    -2996524.777 7  -2996524.791 6                  -2334963.242 7        92.000          36.000          62.000                  
G13  19583774.359    19583773.821    19583774.576                   -27343887.283 9 -27343887.284 8                 -21306937.863 9       762.000         346.000         883.000                  
G15  19768506.712    19768506.445    19768507.772                   -22330740.788 9 -22330740.791 9                 -17400576.623 9       815.000        1508.000        2208.000                  
G20  22306975.076    22306973.754    22306975.588                   -10362448.464 8 -10362448.471 6                  -8074629.495 8       187.000          36.000         104.000                  
G25  24210850.078    24210848.663    24210855.694                    -1801246.631 7  -1801246.652 6                  -1403580.032 8        84.000          24.000         101.000                  
G29  21152215.263    21152214.863    21152215.877                   -20767925.410 9 -20767925.411 9                 -16182786.592 9       568.000         719.000        1192.000                  
> 2024 10 31 16 08  0.0000000  0  9
G05  21200072.689    21200072.242    21200072.252                   -15313745.123 9 -15313745.123 9                 -11932778.570 9       529.000         682.000         834.000                  
G06  24707695.871    24707693.299    24707699.683                     1339542.651 7   1339542.639 6                   1043802.265 6        76.000          35.000          35.000                  
G11  21603001.737    21603001.328    21603003.008                   -18434277.268 8 -18434277.269 8                 -14364363.668 8       425.000         224.000         251.000                  
G12  24340962.908    24340962.020    24340965.815                    -2613773.934 7  -2613773.932 6                  -2036716.041 7        83.000          27.000          55.000                  
G13  19578873.966    19578873.495    19578874.201                   -27369638.599 9 -27369638.599 8                 -21327003.762 9       753.000         339.000         891.000                  
G15  19790097.179    19790096.838    19790098.159                   -22217282.221 9 -22217282.223 9                 -17312167.319 9       806.000        1473.000        2179.000                  
G20  22255687.936    22255685.972    22255688.406                   -10631963.857 8 -10631963.852 6                  -8284641.348 8       189.000          42.000         113.000                  
G25  24254767.150    24254765.277    24254772.702                    -1570460.133 7  -1570460.130 6                  -1223746.497 7        81.000          24.000         100.000                  
G29  21124723.599    21124723.204    21124724.424                   -20912393.875 9 -20912393.876 9                 -16295359.325 9       553.000         692.000        1267.000                  
> 2024 10 31 16 08 10.0000000  0  9
G05  21150268.915    21150268.651    21150269.323                   -15575464.712 9 -15575464.713 9                 -12136715.314 9       562.000         756.000         842.000                  
G06  24728502.264    24728501.911    24728508.865                     1448890.209 7   1448890.211 6                   1129008.224 6        74.000          29.000          36.000                  
G11  21590173.366    21590173.184    21590174.901                   -18501689.213 8 -18501689.210 8                 -14416892.367 8       421.000         225.000         263.000                  
G12  24414010.412    24414010.256    24414013.973                    -2229901.460 7  -2229901.448 6                  -1737594.859 6        77.000          24.000          45.000                  
G13  19574711.191    19574710.612    19574711.272                   -27391514.481 9 -27391514.481 8                 -21344049.842 9       753.000         334.000         893.000                  
G15  19812408.309    19812408.063    19812409.403                   -22100035.610 9 -22100035.611 9                 -17220806.289 9       789.000        1405.000        2124.000                  
G20  22204883.447    22204881.935    22204883.963                   -10898940.461 8 -10898940.459 6                  -8492674.915 8       189.000          41.000         107.000                  
G25  24299109.411    24299107.406    24299115.366                    -1337440.072 7  -1337440.068 6                  -1042172.519 7        73.000          24.000          91.000                  
G29  21098203.259    21098202.700    21098203.855                   -21051759.895 9 -21051759.895 9                 -16403956.130 9       563.000         703.000        1330.000                  
> 2024 10 31 16 08 20.0000000  0  9
G05  21101035.739    21101035.555    21101036.217                   -15834186.022 9 -15834186.023 9                 -12338316.230 9       598.000         847.000         889.000                  
G06  24749720.692    24749719.885    24749726.540                     1560392.442 7   1560392.440 6                   1215893.157 6        76.000          29.000          38.000                  
G11  21578210.753    21578210.260    21578212.234                   -18564552.814 8 -18564552.812 8                 -14465876.912 8       424.000         233.000         268.000                  
G12  24487256.955    24487255.934    24487259.182                    -1844995.459 7  -1844995.477 6                  -1437668.319 6        71.000          26.000          46.000                  
G13  19571279.836    19571279.291    19571279.980                   -27409545.601 9 -27409545.601 8                 -21358100.009 9       749.000         338.000         884.000                  
G15  19835429.964    19835429.864    19835431.120                   -21979055.199 9 -21979055.202 9                 -17126535.809 9       777.000        1364.000        2073.000                  
G20  22154564.273    22154562.740    22154564.083                   -11163371.937 8 -11163371.931 6                  -8698725.291 8       190.000          31.000         113.000                  
G25  24343860.810    24343860.928    24343868.633                    -1102256.471 7  -1102256.477 6                   -858912.685 7        65.000          21.000          87.000                  
G29  21072655.197    21072654.633    21072655.790                   -21186015.323 9 -21186015.325 9                 -16508570.663 9       560.000         699.000        1383.000                  
> 2024 10 31 16 08 30.0000000  0  9
G05  21052388.603    21052388.306    21052389.016                   -16089828.605 9 -16089828.604 9                 -12537518.143 9       629.000         939.000         931.000                  
G06  24771349.732    24771349.540    24771355.130                     1674054.784 7   1674054.776 6                   1304461.289 6        76.000          35.000          36.000                  
G11  21567121.848    21567121.481    21567123.087                   -18622826.724 8 -18622826.721 8                 -14511285.080 8       428.000         228.000         275.000                  
G12  24560694.063    24560693.386    24560697.079                    -1459076.872 7  -1459076.881 6                  -1136952.765 6        68.000          23.000          37.000                  
G13  19568587.014    19568586.487    19568587.064                   -27423696.676 9 -27423696.675 8                 -21369126.766 9       746.000         337.000         886.000                  
G15  19859164.813    19859164.510    19859165.682                   -21854329.041 9 -21854329.043 9                 -17029346.568 9       758.000        1308.000        2047.000                  
G20  22104743.178    22104740.943    22104743.243                   -11425185.198 8 -11425185.193 6                  -8902735.487 8       194.000          39.000         114.000                  
G25  24389025.067    24389025.923    24389033.811                     -864913.346 7   -864913.360 6                   -673970.215 7        64.000          26.000          87.000                  
G29  21048093.719    21048093.170    21048094.239                   -21315086.499 9 -21315086.501 9                 -16609145.525 9       560.000         694.000        1428.000                  
> 2024 10 31 16 08 40.0000000  0  9
G05  21004330.128    21004329.938    21004330.622                   -16342376.510 9 -16342376.510 9                 -12734308.625 9       654.000        1005.000         960.000                  
G06  24793378.698    24793378.693    24793384.468                     1789818.367 7   1789818.385 6                   1394666.753 6        79.000          24.000          36.000                  
G11  21556901.271    21556900.938    21556902.781                   -18676534.637 8 -18676534.635 8                 -14553135.325 8       427.000         223.000         278.000                  
G12  24634308.122    24634308.027    24634312.305                    -1072230.333 7  -1072230.342 6                   -835514.160 6        58.000          24.000          34.000                  
G13  19566626.670    19566626.376    19566626.948                   -27433996.907 9 -27433996.906 8                 -21377152.867 9       747.000         325.000         873.000                  
G15  19883601.980    19883601.819    19883603.091                   -21725909.764 9 -21725909.766 9                 -16929279.576 9       746.000        1246.000        2034.000                  
G20  22055421.381    22055419.630    22055421.616                   -11684371.250 8 -11684371.248 6                  -9104698.513 8       193.000          37.000         113.000                  
G25  24434591.393    24434589.353    24434597.801                     -625477.379 7   -625477.361 6                   -487396.833 7        65.000          21.000          84.000                  
G29  21024520.394    21024519.768    21024520.922                   -21438964.938 9 -21438964.940 9                 -16705674.100 9       571.000         718.000        1474.000                  
> 2024 10 31 16 08 50.0000000  0  9
G05  20956873.963    20956873.675    20956874.456                   -16591760.442 9 -16591760.443 9                 -12928633.685 9       665.000        1060.000        1017.000                  
G06  24815806.929    24815806.530    24815812.486                     1907677.516 7   1907677.525 6                   1486505.128 6        74.000          30.000          40.000                  
G11  21547555.570    21547555.014    21547556.698                   -18725647.941 8 -18725647.938 8                 -14591405.359 8       425.000         230.000         279.000                  
G12  24708091.198    24708093.207    24708097.950                     -684486.256 7   -684486.272 6                   -533376.167 6        52.000          24.000          32.000                  
G13  19565403.692    19565403.406    19565404.058                   -27440423.071 9 -27440423.069 8                 -21382160.215 9       745.000         326.000         871.000                  
G15  19908742.185    19908741.969    19908743.304                   -21593797.068 9 -21593797.070 9                 -16826334.595 9       727.000        1201.000        1958.000                  
G20  22006611.086    22006609.545    22006611.850                   -11940867.911 8 -11940867.900 6                  -9304565.908 8       190.000          36.000         124.000                  
G25  24480548.647    24480547.684    24480556.185                     -383963.439 7   -383963.462 6                   -299204.283 7        60.000          23.000          85.000                  
G29  21001946.833    21001946.256    21001947.199                   -21557589.938 9 -21557589.938 9                 -16798109.086 9       575.000         734.000        1547.000                  
> 2024 10 31 16 09  0.0000000  0  9
G05  20910024.958    20910024.519    20910025.371                   -16837953.412 9 -16837953.412 9                 -13120472.283 9       669.000        1089.000        1080.000                  
G06  24838625.099    24838623.034    24838629.851                     2027583.575 7   2027583.577 6                   1579938.485 6        70.000          24.000          39.000                  
G11  21539080.795    21539080.449    21539082.079                   -18770181.821 8 -18770181.819 8                 -14626107.012 8       427.000         224.000         281.000                  
G13  19564914.464    19564913.922    19564914.490                   -27442995.152 9 -27442995.153 8                 -21384164.383 9       742.000         321.000         860.000                  
G15  19934577.011    19934576.848    19934578.098                   -21458033.964 9 -21458033.964 9                 -16720545.137 9       717.000        1166.000        1859.000                  
G18  24762436.685    24762439.440    24762458.383                     -267467.696 7   -267467.676 6                   -208419.380 6        80.000          19.000          18.000                  
G20  21958317.215    21958315.111    21958317.115                   -12194655.846 8 -12194655.835 6                  -9502322.624 8       189.000          34.000         129.000                  
G25  24526893.631    24526890.765    24526899.913                     -140428.816 7   -140428.806 6                   -109437.168 7        64.000          26.000          83.000                  
G29  20980375.702    20980375.490    20980376.523                   -21670944.780 9 -21670944.783 9                 -16886437.460 9       576.000         734.000        1519.000                  
> 2024 10 31 16 09 10.0000000  0  9
G05  20863799.285    20863798.919    20863799.678                   -17080870.411 9 -17080870.412 9                 -13309758.181 9       686.000        1121.000        1135.000                  
G06  24861833.973    24861832.182    24861837.812                     2149546.885 7   2149546.892 6                   1674974.886 6        71.000          25.000          47.000                  
G11  21531485.814    21531485.524    21531487.132                   -18810093.296 8 -18810093.291 8                 -14657206.790 8       422.000         218.000         298.000                  
G13  19565165.788    19565165.285    19565165.767                   -27441674.560 9 -27441674.560 8                 -21383135.297 9       743.000         337.000         853.000                  
G15  19961109.601    19961109.318    19961110.583                   -21318604.722 9 -21318604.724 9                 -16611898.953 9       709.000        1152.000        1805.000                  
G18  24717056.853    24717060.017    24717061.419                     -505928.414 7   -505928.415 6                   -394230.780 6        81.000          21.000          31.000                  
G20  21910552.640    21910551.186    21910553.551                   -12445656.622 8 -12445656.614 6                  -9697907.551 8       193.000          31.000         130.000                  
G25  24573621.218    24573618.952    24573627.688                      105128.367 7    105128.366 6                     81905.940 7        65.000          20.000          76.000                  
G29  20959822.349    20959821.821    20959822.681                   -21778954.745 9 -21778954.746 9                 -16970600.994 9       595.000         782.000        1409.000                  
> 2024 10 31 16 09 20.0000000  0  9
G05  20818196.411    20818195.909    20818196.544                   -17320515.830 9 -17320515.830 9                 -13496494.795 9       710.000        1201.000        1148.000                  
G06  24885419.013    24885417.919    24885423.612                     2273487.755 7   2273487.750 6                   1771552.238 6        69.000          22.000          45.000                  
G11  21524761.471    21524761.172    21524762.657                   -18845430.319 8 -18845430.314 8                 -14684742.058 8       425.000         227.000         286.000                  
G13  19566147.689    19566147.321    19566147.898                   -27436513.248 9 -27436513.251 8                 -21379113.445 9       755.000         335.000         859.000                  
G15  19988325.357    19988325.177    19988326.563                   -21175584.002 9 -21175584.004 9                 -16500454.218 9       710.000        1144.000        1775.000                  
G18  24671879.874    24671881.873    24671882.381                     -743336.542 7   -743336.531 6                   -579224.277 6        83.000          26.000          39.000                  
G20  21863317.404    21863315.560    21863316.989                   -12693881.756 8 -12693881.743 6                  -9891329.637 8       192.000          43.000         142.000                  
G25  24620716.846    24620715.189    24620723.323                      352620.028 7    352620.015 6                    274756.446 7        64.000          20.000          74.000                  
G29  20940282.413    20940282.040    20940282.977                   -21881636.264 9 -21881636.265 9                 -17050612.490 9       581.000         751.000        1347.000                  
> 2024 10 31 16 09 30.0000000  0  9
G05  20773230.616    20773230.291    20773230.894                   -17556811.294 9 -17556811.295 9                 -13680621.054 9       725.000        1268.000        1158.000                  
G06  24909382.227    24909379.814    24909385.196                     2399409.473 7   2399409.484 6                   1869673.115 6        67.000          26.000          48.000                  
G11  21518914.042    21518913.584    21518915.223                   -18876158.765 8 -18876158.760 8                 -14708686.235 8       426.000         217.000         291.000                  
G13  19567866.661    19567866.068    19567866.778                   -27427480.613 9 -27427480.612 8                 -21372074.978 9       756.000         338.000         856.000                  
G15  20016226.426    20016226.124    20016227.423                   -21028963.626 9 -21028963.628 9                 -16386204.548 9       716.000        1161.000        1718.000                  
G18  24626917.790    24626917.797    24626920.225                     -979616.648 7   -979616.640 6                   -763338.328 6        82.000          22.000          37.000                  
G20  21816623.415    21816621.669    21816623.292                   -12939259.867 8 -12939259.861 6                 -10082533.260 8       193.000          43.000         141.000                  
G25  24668182.024    24668178.098    24668187.635                      602041.159 7    602041.143 6                    469110.423 7        66.000          21.000          77.000                  
G29  20921769.078    20921768.694    20921769.707                   -21978923.967 9 -21978923.968 9                 -17126421.006 9       568.000         719.000        1370.000                  
> 2024 10 31 16 09 40.0000000  0  9
G05  20728908.248    20728907.930    20728908.437                   -17789726.822 9 -17789726.822 9                 -13862113.597 9       733.000        1290.000        1201.000                  
G06  24933709.187    24933709.707    24933716.196                     2527266.322 7   2527266.344 6                   1969301.831 6        65.000          20.000          50.000                  
G11  21513940.219    21513940.135    21513941.662                   -18902293.851 8 -18902293.849 8                 -14729051.158 8       430.000         228.000         303.000                  
G13  19570318.679    19570318.224    19570318.644                   -27414595.051 9 -27414595.050 8                 -21362034.232 9       762.000         342.000         838.000                  
G15  20044804.467    20044804.295    20044805.602                   -20878784.340 9 -20878784.342 9                 -16269181.701 9       710.000        1139.000        1659.000                  
G18  24582175.017    24582174.539    24582176.932                    -1214741.353 7  -1214741.367 6                   -946552.125 6        89.000          23.000          42.000                  
G20  21770475.424    21770473.491    21770475.826                   -13181768.065 8 -13181768.054 6                 -10271500.577 8       199.000          37.000         142.000                  
G25  24716002.242    24715999.309    24716007.457                      853338.384 7    853338.402 6                    664926.277 7        64.000          22.000          68.000                  
G29  20904285.362    20904284.834    20904285.844                   -22070802.028 9 -22070802.030 9                 -17198014.225 9       563.000         698.000        1378.000                  
> 2024 10 31 16 09 50.0000000  0  9
G05  20685239.880    20685239.621    20685240.143                   -18019205.093 9 -18019205.094 9                 -14040927.754 9       752.000        1350.000        1287.000                  
G06  24958406.669    24958405.237    24958411.882                     2657041.037 7   2657041.041 6                   2070424.989 7        62.000          22.000          53.000                  
G11  21509843.004    21509843.048    21509844.497                   -18923824.651 8 -18923824.648 8                 -14745828.326 8       437.000         227.000         297.000                  
G13  19573505.428    19573504.913    19573505.492                   -27397848.264 9 -27397848.262 8                 -21348984.738 9       759.000         344.000         835.000                  
G15  20074057.224    20074056.946    20074058.335                   -20725059.978 9 -20725059.980 9                 -16149396.453 9       708.000        1139.000        1647.000                  
G18  24537661.032    24537661.546    24537663.487                    -1448655.749 7  -1448655.734 6                  -1128822.810 6        90.000          23.000          41.000                  
G20  21724882.639    21724881.198    21724883.540                   -13421356.401 8 -13421356.401 6                 -10458192.691 8       212.000          43.000         147.000                  
G25  24764174.080    24764171.648    24764180.076                     1106485.526 7   1106485.500 6                    862183.617 7        63.000          19.000          69.000                  
G29  20887838.719    20887838.183    20887839.314                   -22157228.647 9 -22157228.648 9                 -17265359.567 9       557.000         692.000        1426.000                  
> 2024 10 31 16 10  0.0000000  0  9
G05  20642231.034    20642230.624    20642231.167                   -18245218.531 9 -18245218.530 9                 -14217042.040 9       751.000        1351.000        1346.000                  
G06  24983456.925    24983456.079    24983462.968                     2788685.834 7   2788685.852 6                   2173005.429 7        57.000          23.000          58.000                  
G11  21506618.556    21506618.361    21506619.692                   -18940770.405 8 -18940770.400 8                 -14759032.734 8       443.000         235.000         295.000                  
G13  19577422.907    19577422.294    19577422.870                   -27377261.894 9 -27377261.894 8                 -21332943.363 9       758.000         332.000         841.000                  
G15  20103976.213    20103976.047    20103977.448                   -20567833.950 9 -20567833.951 9                 -16026882.633 9       702.000        1121.000        1617.000                  
G18  24493383.884    24493384.095    24493386.619                    -1681333.953 7  -1681333.968 6                  -1310130.237 6        96.000          25.000          44.000                  
G20  21679849.867    21679848.835    21679850.714                   -13658004.137 8 -13658004.129 6                 -10642593.425 8       219.000          46.000         151.000                  
G25  24812688.992    24812685.381    24812693.466                     1361427.223 7   1361427.213 6                   1060839.304 7        66.000          20.000          63.000                  
G29  20872431.727    20872431.241    20872432.392                   -22238192.741 9 -22238192.743 9                 -17328448.404 9       562.000         707.000        1485.000                  
> 2024 10 31 16 10 10.0000000  0  9
G05  20599894.576    20599894.304    20599894.774                   -18467696.999 9 -18467696.999 9                 -14390401.806 9       737.000        1306.000        1411.000                  
G06  25008864.217    25008861.231    25008868.601                     2922195.951 7   2922195.929 6                   2277039.341 7        53.000          19.000          58.000                  
G11  21504270.701    21504270.296    21504271.720                   -18953108.590 8 -18953108.586 8                 -14768646.834 8       446.000         249.000         304.000                  
G13  19582074.778    19582074.266    19582074.865                   -27352815.216 9 -27352815.214 8                 -21313893.953 9       756.000         339.000         819.000                  
G15  20134561.520    20134561.286    20134562.688                   -20407107.288 9 -20407107.290 9                 -15901641.046 9       696.000        1106.000        1585.000                  
G18  24449354.650    24449355.650    24449357.844                    -1912707.011 8  -1912706.980 6                  -1490420.640 6       103.000          25.000          50.000                  
G20  21635388.915    21635387.488    21635389.606                   -13891647.950 8 -13891647.929 6                 -10824653.439 8       230.000          47.000         145.000                  
G25  24861540.461    24861538.365    24861546.564                     1618150.925 7   1618150.926 6                   1260883.551 7        63.000          23.000          58.000                  
G29  20858074.161    20858073.828    20858074.914                   -22313641.596 9 -22313641.598 9                 -17387239.661 9       573.000         729.000        1532.000                  
> 2024 10 31 16 10 20.0000000  0  9
G05  20558232.974    20558232.641    20558233.211                   -18686629.859 9 -18686629.859 9                 -14560998.759 9       709.000        1215.000        1473.000                  
G06  25034609.702    25034610.268    25034617.463                     3057507.202 7   3057507.234 6                   2382476.733 7        54.000          22.000          63.000                  
G11  21502792.197    21502791.969    21502793.399                   -18960877.016 8 -18960877.013 8                 -14774700.088 8       449.000         246.000         316.000                  
G13  19587453.903    19587453.438    19587453.975                   -27324547.463 9 -27324547.463 8                 -21291867.083 9       759.000         341.000         792.000                  
G15  20165801.256    20165801.112    20165802.512                   -20242940.636 9 -20242940.637 9                 -15773718.945 9       685.000        1066.000        1566.000                  
G18  24405577.117    24405575.390    24405578.963                    -2142765.068 8  -2142765.074 6                  -1669686.392 6       106.000          23.000          44.000                  
G20  21591500.811    21591499.100    21591501.259                   -14122284.007 8 -14122284.005 7                 -11004369.757 8       241.000          51.000         145.000                  
G25  24910718.887    24910716.420    24910725.499                     1876584.797 7   1876584.797 6                   1462260.408 7        58.000          25.000          56.000                  
G29  20844764.844    20844764.258    20844765.333                   -22383583.182 9 -22383583.184 9                 -17441739.539 9       568.000         731.000        1565.000                  
> 2024 10 31 16 10 30.0000000  0  9
G05  20517259.770    20517259.474    20517260.078                   -18901944.759 9 -18901944.758 9                 -14728776.525 9       690.000        1131.000        1585.000                  
G11  21502188.026    21502187.663    21502189.105                   -18964052.589 8 -18964052.588 8                 -14777174.495 8       456.000         255.000         312.000                  
G13  19593564.426    19593563.964    19593564.444                   -27292436.589 9 -27292436.587 8                 -21266845.572 9       759.000         338.000         773.000                  
G15  20197695.844    20197695.737    20197697.178                   -20075333.048 9 -20075333.049 9                 -15643115.589 9       673.000        1028.000        1580.000                  
G18  24362061.286    24362060.903    24362063.796                    -2371436.175 8  -2371436.187 6                  -1847871.432 6       108.000          29.000          47.000                  
G20  21548196.823    21548195.545    21548197.095                   -14349846.805 8 -14349846.799 7                 -11181691.328 8       260.000          59.000         151.000                  
G25  24960222.077    24960219.271    24960227.804                     2136718.914 7   2136718.909 6                   1664962.136 7        62.000          26.000          57.000                  
G29  20832513.351    20832512.893    20832513.914                   -22447964.990 9 -22447964.992 9                 -17491907.119 9       596.000         790.000        1694.000                  
G30  24244244.539    24244244.220    24244264.612                     -325088.831 8   -325088.842 6                   -253320.360 6       113.000          35.000          17.000                  
> 2024 10 31 16 10 40.0000000  0  9
G05  20476979.966    20476979.658    20476980.305                   -19113616.186 9 -19113616.186 9                 -14893715.227 9       663.000        1053.000        1680.000                  
G11  21502452.979    21502452.614    21502454.025                   -18962659.800 8 -18962659.797 8                 -14776089.139 8       457.000         257.000         314.000                  
G13  19600401.285    19600400.975    19600401.514                   -27256507.601 9 -27256507.601 8                 -21238848.905 9       760.000         341.000         746.000                  
G15  20230236.723    20230236.485    20230237.879                   -19904330.524 9 -19904330.525 9                 -15509866.829 9       670.000        1017.000        1619.000                  
G18  24318816.595    24318815.202    24318817.998                    -2598694.735 8  -2598694.730 6                  -2024955.768 6       114.000          24.000          47.000                  
G20  21505481.566    21505480.475    21505481.400                   -14574317.687 8 -14574317.686 7                 -11356603.605 8       276.000          67.000         153.000                  
G25  25010034.307    25010034.008    25010043.505                     2398496.875 7   2398496.879 6                   1868944.750 6        62.000          18.000          48.000                  
G29  20821320.624    20821320.151    20821321.302                   -22506782.611 9 -22506782.612 9                 -17537738.970 9       604.000         811.000        1767.000                  
G30  24205459.229    24205457.362    24205465.821                     -528914.711 8   -528914.719 6                   -412143.319 7       114.000          35.000          66.000                  
> 2024 10 31 16 10 50.0000000  0  9
G05  20437403.545    20437403.416    20437404.212                   -19321590.107 9 -19321590.108 9                 -15055772.759 9       646.000        1000.000        1839.000                  
G11  21503588.018    21503587.683    21503589.252                   -18956695.287 8 -18956695.283 8                 -14771441.399 8       457.000         261.000         327.000                  
G13  19607965.719    19607965.235    19607965.537                   -27216757.227 9 -27216757.226 8                 -21207874.535 9       769.000         352.000         716.000                  
G15  20263420.127    20263419.871    20263421.234                   -19729950.440 9 -19729950.441 9                 -15373986.205 9       654.000         967.000        1675.000                  
G18  24275847.851    24275848.161    24275850.958                    -2824486.081 8  -2824486.078 6                  -2200896.831 7       114.000          28.000          55.000                  
G20  21463363.647    21463361.983    21463363.772                   -14795649.194 8 -14795649.180 7                 -11529069.618 8       284.000          66.000         154.000                  
G25  25060158.517    25060157.028    25060165.423                     2661891.077 7   2661891.070 6                   2074186.797 6        61.000          24.000          49.000                  
G29  20811192.883    20811192.443    20811193.511                   -22560004.164 9 -22560004.164 9                 -17579210.248 9       614.000         845.000        1746.000                  
G30  24166774.016    24166773.592    24166788.296                     -732201.627 8   -732201.615 6                   -570551.030 7       119.000          35.000          56.000                  
> 2024 10 31 16 11  0.0000000  0  9
G05  20398538.816    20398538.518    20398539.368                   -19525826.344 9 -19525826.344 9                 -15214917.811 9       652.000        1018.000        1964.000                  
G11  21505590.980    21505590.545    21505591.929                   -18946170.304 8 -18946170.302 8                 -14763240.050 8       459.000         255.000         333.000                  
G13  19616254.990    19616254.590    19616254.886                   -27173196.344 9 -27173196.344 8                 -21173930.940 9       772.000         354.000         706.000                  
G15  20297240.241    20297240.023    20297241.418                   -19552224.061 9 -19552224.062 9                 -15235498.084 9       643.000         923.000        1689.000                  
G18  24233169.871    24233168.381    24233170.997                    -3048768.964 8  -3048768.974 6                  -2375662.478 6       117.000          25.000          50.000                  
G20  21421849.225    21421847.909    21421849.489                   -15013807.807 8 -15013807.812 7                 -11699063.250 8       291.000          72.000         158.000                  
G25  25110579.932    25110578.630    25110586.398                     2926860.498 7   2926860.520 6                   2280656.239 6        61.000          18.000          49.000                  
G29  20802133.326    20802132.829    20802133.746                   -22607612.658 9 -22607612.659 9                 -17616307.710 9       621.000         861.000        1626.000                  
G30  24128195.273    24128194.711    24128197.657                     -934931.168 8   -934931.176 6                   -728518.388 8       123.000          46.000         123.000                  
> 2024 10 31 16 11 10.0000000  0  9
G05  20360390.485    20360390.241    20360391.193                   -19726296.088 9 -19726296.088 9                 -15371127.938 9       655.000        1040.000        2056.000                  
G11  21508456.903    21508456.751    21508458.158                   -18931107.898 8 -18931107.893 8                 -14751503.051 8       448.000         249.000         346.000                  
G13  19625265.127    19625264.610    19625264.981                   -27125847.513 9 -27125847.514 8                 -21137035.696 9       777.000         361.000         684.000                  
G15  20331689.141    20331688.971    20331690.271                   -19371194.012 9 -19371194.013 9                 -15094435.680 9       636.000         913.000        1716.000                  
G18  24190781.384    24190780.784    24190783.815                    -3271512.803 8  -3271512.806 6                  -2549228.890 7       113.000          28.000          57.000                  
G20  21380942.610    21380941.543    21380942.947                   -15228771.019 8 -15228771.024 7                 -11866566.972 8       305.000          78.000         153.000                  
G25  25161293.844    25161290.913    25161299.013                     3193353.315 7   3193353.321 6                   2488312.762 6        61.000          20.000          46.000                  
G29  20794142.596    20794142.112    20794143.118                   -22649603.495 9 -22649603.495 9                 -17649027.775 9       607.000         815.000        1558.000                  
G30  24089725.289    24089724.441    24089727.458                    -1137095.585 8  -1137095.584 6                   -886048.930 8       129.000          46.000         135.000                  
> 2024 10 31 16 11 20.0000000  0  9
G05  20322972.062    20322971.721    20322972.527                   -19922932.120 9 -19922932.120 9                 -15524350.758 9       676.000        1096.000        2098.000                  
G11  21512189.371    21512189.030    21512190.769                   -18911493.385 8 -18911493.383 8                 -14736218.949 8       441.000         242.000         338.000                  
G13  19634999.143    19634998.524    19634999.086                   -27074694.869 9 -27074694.870 8                 -21097176.442 9       774.000         362.000         674.000                  
G15  20366765.984    20366765.736    20366767.045                   -19186864.255 9 -19186864.256 9                 -14950802.077 9       623.000         884.000        1772.000                  
G18  24148701.150    24148700.239    24148702.469                    -3492648.067 8  -3492648.068 6                  -2721541.870 7       116.000          22.000          58.000                  
G20  21340656.520    21340654.978    21340656.322                   -15440477.834 8 -15440477.834 7                 -12031533.240 8       316.000          84.000         157.000                  
G25  25212292.999    25212290.350    25212299.176                     3461356.447 7   3461356.461 6                   2697146.134 6        58.000          22.000          45.000                  
G29  20787228.996    20787228.387    20787229.404                   -22685934.822 9 -22685934.823 9                 -17677337.832 9       605.000         819.000        1501.000                  
G30  24051370.769    24051370.101    24051373.785                    -1338648.074 8  -1338648.104 6                  -1043102.657 8       128.000          48.000         134.000                  
> 2024 10 31 16 11 30.0000000  0  9
G05  20286284.518    20286284.048    20286284.778                   -20115727.256 9 -20115727.255 9                 -15674580.670 9       705.000        1199.000        2096.000                  
G11  21516779.201    21516779.000    21516780.374                   -18887372.950 8 -18887372.949 8                 -14717423.753 8       434.000         228.000         340.000                  
G13  19645448.302    19645447.902    19645448.349                   -27019782.975 9 -27019782.976 8                 -21054387.906 9       772.000         355.000         664.000                  
G15  20402458.234    20402458.227    20402459.488                   -18999298.859 9 -18999298.861 9                 -14804647.200 9       616.000         858.000        1784.000                  
G18  24106928.661    24106927.564    24106930.986                    -3712164.961 8  -3712164.966 6                  -2892593.802 7       121.000          30.000          64.000                  
G20  21300989.574    21300988.309    21300989.928                   -15648927.686 8 -15648927.682 7                 -12193961.609 8       334.000          88.000         157.000                  
G25  25263566.433    25263563.876    25263572.301                     3730797.181 7   3730797.156 6                   2907099.694 6        58.000          21.000          35.000                  
G29  20781388.645    20781388.086    20781388.930                   -22716626.040 9 -22716626.043 9                 -17701253.004 9       605.000         813.000        1451.000                  
G30  24013131.087    24013129.412    24013132.878                    -1539601.392 8  -1539601.411 6                  -1199689.474 8       129.000          48.000         136.000                  
> 2024 10 31 16 11 40.0000000  0  9
G05  20250341.527    20250341.196    20250341.817                   -20304608.324 9 -20304608.324 9                 -15821760.659 9       727.000        1280.000        2068.000                  
G11  21522230.497    21522230.042    21522231.571                   -18858726.906 8 -18858726.903 8                 -14695102.102 8       425.000         220.000         335.000                  
G13  19656617.408    19656616.833    19656617.164                   -26961090.132 9 -26961090.132 8                 -21008653.178 9       777.000         354.000         650.000                  
G15  20438766.994    20438766.866    20438768.291                   -18808495.412 9 -18808495.414 9                 -14655969.163 9       617.000         860.000        1807.000                  
G18  24065478.078    24065477.896    24065479.865                    -3929986.758 8  -3929986.773 6                  -3062324.874 7       128.000          26.000          70.000                  
G20  21261956.056    21261954.327    21261955.759                   -15854053.334 8 -15854053.335 8                 -12353799.701 8       349.000         101.000         167.000                  
G25  25315111.911    25315109.640    25315117.761                     4001669.532 7   4001669.549 6                   3118168.780 6        54.000          24.000          33.000                  
G29  20776630.057    20776629.570    20776630.607                   -22741631.247 9 -22741631.248 9                 -17720737.522 9       592.000         790.000        1435.000                  
G30  23975014.628    23975013.492    23975018.316                    -1739901.291 8  -1739901.302 6                  -1355767.167 8       134.000          44.000         149.000                  
> 2024 10 31 16 11 50.0000000  0  9
G05  20215145.857    20215145.547    20215146.242                   -20489562.244 9 -20489562.244 9                 -15965880.535 9       746.000        1344.000        2042.000                  
G11  21528534.906    21528534.542    21528535.926                   -18825596.559 8 -18825596.556 8                 -14669286.197 8       418.000         218.000         332.000                  
G13  19668498.256    19668497.736    19668498.165                   -26898655.227 9 -26898655.226 8                 -20960002.559 9       780.000         359.000         660.000                  
G15  20475681.055    20475680.847    20475682.047                   -18614511.683 9 -18614511.684 9                 -14504812.980 9       624.000         880.000        1781.000                  
G18  24024353.111    24024353.569    24024354.894                    -4146096.543 8  -4146096.534 6                  -3230721.929 7       129.000          32.000          74.000                  
G20  21223555.592    21223554.017    21223555.395                   -16055847.789 8 -16055847.794 8                 -12511042.048 8       363.000         115.000         178.000                  
G25  25366919.728    25366914.481    25366923.391                     4273907.766 7   4273907.735 6                   3330302.228 6        52.000          26.000          31.000                  
G29  20772950.829    20772950.348    20772951.277                   -22760966.051 9 -22760966.053 9                 -17735803.547 9       610.000         824.000        1380.000                  
G30  23937020.454    23937021.010    23937024.737                    -1939553.320 8  -1939553.321 6                  -1511340.010 8       131.000          45.000         150.000                  
> 2024 10 31 16 12  0.0000000  0  8
G05  20180708.099    20180707.761    20180708.431                   -20670533.809 9 -20670533.809 9                 -16106897.281 9       761.000        1382.000        2017.000                  
G11  21535692.758    21535692.163    21535693.849                   -18787981.693 8 -18787981.690 8                 -14639975.859 8       414.000         215.000         333.000                  
G13  19681091.782    19681091.439    19681091.796                   -26832475.102 9 -26832475.103 8                 -20908433.587 9       784.000         358.000         652.000                  
G15  20513197.248    20513196.942    20513198.093                   -18417363.154 9 -18417363.155 9                 -14351190.717 9       628.000         899.000        1773.000                  
G18  23983565.769    23983566.029    23983568.225                    -4360434.888 8  -4360434.895 6                  -3397738.640 7       133.000          33.000          72.000                  
G20  21185798.416    21185797.289    21185798.524                   -16254261.952 8 -16254261.955 8                 -12665650.411 8       380.000         115.000         185.000                  
G29  20770355.519    20770354.880    20770355.640                   -22774605.242 9 -22774605.243 9                 -17746431.439 9       615.000         837.000        1323.000                  
G30  23899158.855    23899159.102    23899161.620                    -2138520.228 8  -2138520.248 7                  -1666378.986 8       132.000          55.000         149.000                  
> 2024 10 31 16 12 10.0000000  0  8
G05  20147034.142    20147033.818    20147034.498                   -20847491.333 9 -20847491.333 9                 -16244786.205 9       765.000        1417.000        1999.000                  
G11  21543699.307    21543699.280    21543700.411                   -18745905.694 8 -18745905.690 8                 -14607189.311 8       415.000         210.000         320.000                  
G13  19694394.259    19694393.937    19694394.330                   -26762569.826 9 -26762569.824 8                 -20853961.898 9       776.000         357.000         653.000                  
G15  20551308.216    20551307.986    20551309.129                   -18217088.181 9 -18217088.182 9                 -14195132.265 9       635.000         890.000        1749.000                  
G18  23943122.746    23943123.009    23943124.399                    -4572964.823 8  -4572964.834 6                  -3563346.198 7       138.000          30.000          71.000                  
G20  21148689.716    21148688.403    21148689.350                   -16449269.712 8 -16449269.714 8                 -12817604.435 8       403.000         141.000         180.000                  
G29  20768843.811    20768843.417    20768844.210                   -22782547.751 9 -22782547.752 9                 -17752620.360 9       627.000         877.000        1346.000                  
G30  23861429.214    23861430.098    23861432.747                    -2336787.242 8  -2336787.251 7                  -1820872.611 8       136.000          51.000         162.000                  
> 2024 10 31 16 12 20.0000000  0  8
G05  20114130.212    20114129.945    20114130.548                   -21020401.831 9 -21020401.831 9                 -16379521.604 9       776.000        1439.000        1941.000                  
G11  21552550.785    21552550.557    21552551.849                   -18699391.352 8 -18699391.346 8                 -14570944.312 8       413.000         209.000         322.000                  
G13  19708402.119    19708401.522    19708401.941                   -26688958.179 9 -26688958.181 8                 -20796602.131 9       775.000         358.000         660.000                  
G15  20590007.215    20590006.949    20590007.992                   -18013723.787 9 -18013723.788 9                 -14036666.473 9       637.000         905.000        1694.000                  
G18  23903030.768    23903030.624    23903032.875                    -4783647.803 8  -4783647.799 6                  -3727514.601 7       141.000          30.000          65.000                  
G20  21112234.485    21112233.179    21112234.161                   -16640843.836 8 -16640843.837 8                 -12966882.901 8       419.000         143.000         180.000                  
G29  20768416.591    20768416.343    20768417.068                   -22784792.408 9 -22784792.410 9                 -17754369.395 9       638.000         909.000        1434.000                  
G30  23823837.809    23823836.960    23823840.069                    -2534337.722 8  -2534337.721 7                  -1974807.889 8       139.000          54.000         158.000                  
> 2024 10 31 16 12 30.0000000  0  8
G05  20082008.180    20082007.735    20082008.284                   -21189205.326 9 -21189205.326 9                 -16511056.743 9       798.000        1518.000        1899.000                  
G11  21562247.648    21562247.067    21562248.467                   -18648434.746 8 -18648434.742 8                 -14531237.809 8       415.000         211.000         314.000                  
G13  19723116.651    19723116.182    19723116.498                   -26611632.684 9 -26611632.684 8                 -20736348.456 9       780.000         364.000         666.000                  
G15  20629292.249    20629292.031    20629293.007                   -17807279.594 9 -17807279.596 9                 -13875800.845 9       644.000         933.000        1627.000                  
G18  23863304.346    23863303.454    23863304.478                    -4992417.552 8  -4992417.551 6                  -3890192.164 7       143.000          37.000          70.000                  
G20  21076442.862    21076441.374    21076442.394                   -16828929.968 8 -16828929.967 8                 -13113443.455 8       429.000         155.000         191.000                  
G29  20769079.041    20769078.490    20769079.457                   -22781311.897 9 -22781311.898 9                 -17751657.261 9       631.000         886.000        1484.000                  
G30  23786389.468    23786388.831    23786393.025                    -2731127.258 8  -2731127.267 6                  -2128150.221 8       138.000          48.000         163.000                  
> 2024 10 31 16 12 40.0000000  0  8
G05  20050668.138    20050667.773    20050668.180                   -21353897.882 9 -21353897.883 9                 -16639388.555 9       809.000        1555.000        1900.000                  
G11  21572779.371    21572779.035    21572780.314                   -18593088.458 8 -18593088.451 8                 -14488110.776 8       422.000         210.000         302.000                  
G13  19738528.737    19738528.338    19738528.583                   -26530641.351 9 -26530641.351 8                 -20673238.283 9       790.000         364.000         667.000                  
G15  20669150.938    20669150.614    20669151.641                   -17597820.895 9 -17597820.897 9                 -13712586.247 9       654.000         966.000        1566.000                  
G18  23823941.557    23823941.951    23823943.049                    -5199263.255 8  -5199263.258 6                  -4051370.492 7       146.000          33.000          76.000                  
G20  21041314.559    21041313.354    21041314.208                   -17013529.466 8 -17013529.464 8                 -13257287.151 8       438.000         157.000         199.000                  
G29  20770824.930    20770824.560    20770825.330                   -22772136.160 9 -22772136.161 9                 -17744507.280 9       631.000         884.000        1455.000                  
G30  23749084.642    23749083.774    23749087.560                    -2927166.747 8  -2927166.761 7                  -2280908.131 8       142.000          53.000         158.000                  
> 2024 10 31 16 12 50.0000000  0  8
G05  20020123.445    20020123.102    20020123.452                   -21514410.976 9 -21514410.976 9                 -16764463.644 9       819.000        1605.000        1938.000                  
G11  21584149.348    21584148.771    21584149.916                   -18533340.854 8 -18533340.853 8                 -14441554.149 8       408.000         200.000         297.000                  
G13  19754641.821    19754641.205    19754641.436                   -26445967.543 9 -26445967.543 8                 -20607258.646 9       795.000         377.000         659.000                  
G15  20709583.116    20709582.853    20709583.820                   -17385348.029 9 -17385348.030 9                 -13547022.943 9       661.000         977.000        1467.000                  
G18  23784961.061    23784960.888    23784962.427                    -5404108.987 8  -5404108.987 6                  -4210990.377 7       146.000          33.000          76.000                  
G20  21006861.756    21006860.645    21006861.397                   -17194579.054 8 -17194579.058 8                 -13398364.679 8       446.000         166.000         199.000                  
G29  20773661.259    20773660.744    20773661.585                   -22757231.574 9 -22757231.575 9                 -17732893.267 9       621.000         862.000        1452.000                  
G30  23711932.044    23711931.490    23711934.849                    -3122401.684 8  -3122401.690 7                  -2433039.074 8       143.000          54.000         155.000                  
> 2024 10 31 16 13  0.0000000  0  8
G05  19990374.487    19990374.215    19990374.539                   -21670742.528 9 -21670742.528 9                 -16886280.388 9       834.000        1660.000        2010.000                  
G11  21596345.491    21596345.216    21596346.636                   -18469246.896 8 -18469246.893 8                 -14391610.756 8       399.000         196.000         288.000                  
G13  19771445.876    19771445.350    19771445.619                   -26357660.852 9 -26357660.850 8                 -20538448.195 9       805.000         388.000         662.000                  
G15  20750576.318    20750576.123    20750577.081                   -17169927.173 9 -17169927.174 9                 -13379162.502 9       667.000        1007.000        1344.000                  
G18  23746362.732    23746361.950    23746364.027                    -5606944.441 8  -5606944.438 6                  -4369043.834 7       152.000          38.000          90.000                  
G20  20973084.401    20973082.970    20973083.907                   -17372081.529 8 -17372081.529 8                 -13536678.233 8       457.000         170.000         200.000                  
G29  20777581.241    20777580.749    20777581.522                   -22736631.546 9 -22736631.547 9                 -17716841.224 9       613.000         827.000        1420.000                  
G30  23674931.413    23674930.448    23674934.244                    -3316843.141 8  -3316843.136 7                  -2584551.755 8       145.000          52.000         163.000                  
> 2024 10 31 16 13 10.0000000  0  8
G05  19961432.168    19961431.845    19961432.220                   -21822835.190 9 -21822835.189 9                 -17004794.102 9       834.000        1665.000        2100.000                  
G11  21609369.834    21609368.957    21609370.242                   -18400806.660 8 -18400806.656 8                 -14338280.652 8       395.000         195.000         284.000                  
G13  19788942.578    19788941.969    19788942.079                   -26265715.684 9 -26265715.684 8                 -20466802.562 9       812.000         388.000         667.000                  
G15  20792128.439    20792128.228    20792129.227                   -16951568.954 9 -16951568.955 9                 -13209013.203 9       666.000        1004.000        1231.000                  
G18  23708158.910    23708159.352    23708160.341                    -5807703.542 8  -5807703.536 6                  -4525479.365 7       155.000          35.000          82.000                  
G20  20939991.451    20939990.288    20939990.972                   -17545984.727 8 -17545984.727 8                 -13672187.152 8       458.000         173.000         201.000                  
G29  20782588.955    20782588.453    20782589.151                   -22710315.524 9 -22710315.524 9                 -17696335.160 9       605.000         820.000        1384.000                  
G30  23638090.649    23638088.876    23638092.282                    -3510446.110 8  -3510446.114 7                  -2735411.077 8       146.000          57.000         163.000                  
> 2024 10 31 16 13 20.0000000  0  8
G05  19933301.027    19933300.787    19933301.081                   -21970664.904 9 -21970664.905 9                 -17119986.042 9       834.000        1668.000        2182.000                  
G11  21623214.223    21623213.755    21623214.635                   -18328053.550 8 -18328053.544 8                 -14281589.860 8       388.000         193.000         281.000                  
G13  19807126.295    19807125.727    19807125.852                   -26170159.315 9 -26170159.315 8                 -20392343.014 9       814.000         400.000         645.000                  
G15  20834231.296    20834231.120    20834232.015                   -16730316.635 9 -16730316.636 9                 -13036608.766 9       667.000        1004.000        1124.000                  
G18  23670357.155    23670357.298    23670359.044                    -6006352.688 8  -6006352.682 6                  -4680270.774 7       160.000          40.000          86.000                  
G20  20907587.407    20907586.048    20907586.990                   -17716269.211 8 -17716269.213 8                 -13804876.305 8       469.000         183.000         211.000                  
G29  20788681.651    20788681.329    20788682.115                   -22678296.840 9 -22678296.841 9                 -17671385.471 9       587.000         778.000        1411.000                  
G30  23601410.708    23601409.528    23601412.575                    -3703197.891 8  -3703197.894 7                  -2885607.140 8       152.000          58.000         176.000                  
> 2024 10 31 16 13 30.0000000  0  8
G05  19905986.544    19905986.200    19905986.552                   -22114203.755 9 -22114203.755 9                 -17231834.448 9       830.000        1649.000        2238.000                  
G11  21637873.087    21637872.806    21637873.947                   -18251017.474 8 -18251017.472 8                 -14221561.699 8       380.000         179.000         280.000                  
G13  19825992.617    19825992.184    19825992.316                   -26071015.150 9 -26071015.149 8                 -20315087.783 9       816.000         394.000         635.000                  
G15  20876877.460    20876877.395    20876878.203                   -16506209.038 9 -16506209.039 9                 -12861979.446 9       660.000         990.000        1034.000                  
G18  23632964.190    23632964.278    23632965.483                    -6202853.788 8  -6202853.797 6                  -4833388.380 7       159.000          38.000          84.000                  
G20  20875876.380    20875875.145    20875876.158                   -17882911.514 8 -17882911.515 8                 -13934727.395 8       484.000         198.000         218.000                  
G29  20795857.802    20795857.445    20795858.138                   -22640585.984 9 -22640585.986 9                 -17642000.330 9       590.000         781.000        1351.000                  
G30  23564895.943    23564895.400    23564898.932                    -3895081.117 8  -3895081.121 7                  -3035126.393 8       158.000          63.000         169.000                  
> 2024 10 31 16 13 40.0000000  0  8
G05  19879497.755    19879497.278    19879497.607                   -22253403.602 9 -22253403.602 9                 -17340301.812 9       816.000        1604.000        2329.000                  
G11  21653345.855    21653345.465    21653346.774                   -18169708.183 8 -18169708.178 8                 -14158203.766 8       376.000         178.000         269.000                  
G13  19845541.281    19845540.785    19845540.940                   -25968286.086 9 -25968286.086 8                 -20235039.132 9       803.000         384.000         638.000                  
G15  20920063.810    20920063.557    20920064.335                   -16279264.156 9 -16279264.158 9                 -12685139.256 9       653.000         960.000         951.000                  
G18  23595991.941    23595990.757    23595992.589                    -6397147.889 8  -6397147.925 6                  -4984786.247 7       164.000          34.000          91.000                  
G20  20844866.853    20844865.387    20844866.406                   -18045867.783 8 -18045867.787 8                 -14061706.250 8       497.000         207.000         226.000                  
G29  20804119.031    20804118.424    20804119.076                   -22597174.053 9 -22597174.053 9                 -17608172.787 9       602.000         799.000        1243.000                  
G30  23528554.510    23528553.698    23528556.699                    -4086057.364 8  -4086057.364 7                  -3183938.957 8       158.000          60.000         172.000                  
> 2024 10 31 16 13 50.0000000  0  8
G05  19853838.480    19853838.146    19853838.541                   -22388242.893 9 -22388242.892 9                 -17445371.344 9       813.000        1584.000        2369.000                  
G11  21669624.528    21669624.156    21669625.741                   -18084162.299 8 -18084162.293 8                 -14091544.599 8       376.000         174.000         277.000                  
G13  19865766.483    19865766.026    19865766.271                   -25862001.481 9 -25862001.483 8                 -20152219.934 9       789.000         375.000         635.000                  
G15  20963781.319    20963781.299    20963782.010                   -16049526.200 9 -16049526.201 9                 -12506122.646 9       637.000         925.000         874.000                  
G18  23559444.711    23559444.346    23559446.131                    -6589202.090 8  -6589202.085 6                  -5134438.755 7       171.000          42.000          88.000                  
G20  20814561.837    20814560.878    20814561.487                   -18205120.663 9 -18205120.663 8                 -14185799.342 8       511.000         212.000         232.000                  
G29  20813461.032    20813460.622    20813461.237                   -22548079.736 9 -22548079.738 9                 -17569917.431 9       591.000         783.000        1170.000                  
G30  23492387.591    23492387.178    23492389.530                    -4276113.923 8  -4276113.926 7                  -3332034.885 8       163.000          63.000         174.000                  
> 2024 10 31 16 14  0.0000000  0  9
G05  19829013.682    19829013.437    19829013.807                   -22518697.295 9 -22518697.295 9                 -17547024.085 9       807.000        1565.000        2379.000                  
G07  24268527.489    24268526.881    24268533.967                     -306220.043 8   -306220.059 6                   -238616.818 6       102.000          23.000          41.000                  
G11  21686703.090    21686702.568    21686703.891                   -17994413.890 8 -17994413.884 8                 -14021610.732 8       369.000         163.000         269.000                  
G13  19886663.201    19886662.786    19886663.147                   -25752187.766 9 -25752187.765 8                 -20066650.770 9       782.000         358.000         633.000                  
G15  21008022.837    21008022.531    21008023.443                   -15817035.980 9 -15817035.981 9                 -12324961.424 9       613.000         852.000         821.000                  
G18  23523331.564    23523330.614    23523332.143                    -6778980.170 8  -6778980.178 6                  -5282317.662 7       174.000          42.000          90.000                  
G20  20784965.782    20784964.426    20784965.131                   -18360650.070 9 -18360650.070 8                 -14306991.037 8       530.000         228.000         240.000                  
G29  20823881.730    20823881.106    20823881.725                   -22493319.826 9 -22493319.828 9                 -17527247.319 9       608.000         818.000        1212.000                  
G30  23456399.851    23456398.515    23456400.853                    -4465234.544 8  -4465234.537 7                  -3479401.476 8       164.000          64.000         180.000                  
> 2024 10 31 16 14 10.0000000  0  9
G05  19805032.043    19805031.707    19805032.134                   -22644721.570 9 -22644721.570 9                 -17645224.779 9       801.000        1548.000        2389.000                  
G07  24207870.935    24207870.078    24207865.939                     -624973.982 8   -624973.995 6                   -486994.256 6       103.000          31.000          28.000                  
G11  21704578.573    21704578.510    21704579.725                   -17900475.880 8 -17900475.876 8                 -13948412.252 8       364.000         164.000         262.000                  
G13  19908230.689    19908230.286    19908230.567                   -25638849.916 9 -25638849.915 8                 -19978335.519 9       774.000         362.000         642.000                  
G15  21052784.228    21052783.991    21052784.901                   -15581812.543 9 -15581812.544 9                 -12141670.424 9       585.000         771.000         777.000                  
G18  23487661.657    23487661.573    23487662.802                    -6966423.986 8  -6966423.989 6                  -5428377.678 7       176.000          41.000          92.000                  
G20  20756085.938    20756084.657    20756085.390                   -18512414.418 9 -18512414.419 8                 -14425248.921 8       549.000         242.000         242.000                  
G29  20835380.791    20835380.426    20835381.018                   -22432890.691 9 -22432890.693 9                 -17480159.643 9       602.000         818.000        1257.000                  
G30  23420596.132    23420595.126    23420597.056                    -4653380.968 8  -4653380.965 7                  -3626009.013 8       169.000          71.000         177.000                  
> 2024 10 31 16 14 20.0000000  0  9
G05  19781896.935    19781896.692    19781897.093                   -22766297.085 9 -22766297.085 9                 -17739958.908 9       813.000        1577.000        2443.000                  
G07  24147248.967    24147248.809    24147249.803                     -943544.083 8   -943544.099 6                   -735230.215 7       108.000          32.000          65.000                  
G11  21723244.408    21723243.975    21723245.152                   -17802387.928 8 -17802387.927 8                 -13871980.052 8       379.000         174.000         264.000                  
G13  19930462.890    19930462.357    19930462.746                   -25522019.194 9 -25522019.194 8                 -19887298.541 9       766.000         353.000         636.000                  
G15  21098057.258    21098057.088    21098057.981                   -15343900.885 9 -15343900.886 9                 -11956284.715 9       555.000         697.000         726.000                  
G18  23452442.533    23452441.932    23452443.406                    -7151501.459 8  -7151501.463 7                  -5572593.782 7       181.000          51.000          95.000                  
G20  20727925.693    20727924.099    20727924.737                   -18660398.792 9 -18660398.791 8                 -14540561.383 8       563.000         260.000         257.000                  
G29  20847954.491    20847953.961    20847954.533                   -22366816.155 9 -22366816.157 9                 -17428672.949 9       594.000         779.000        1269.000                  
G30  23384980.337    23384979.806    23384981.954                    -4840540.437 8  -4840540.434 7                  -3771847.508 8       169.000          70.000         191.000                  
> 2024 10 31 16 14 30.0000000  0  9
G05  19759612.656    19759612.410    19759612.737                   -22883401.951 9 -22883401.951 9                 -17831209.412 9       833.000        1651.000        2502.000                  
G07  24086667.025    24086666.280    24086667.048                    -1261904.947 8  -1261904.955 6                   -983303.444 7       106.000          35.000          61.000                  
G11  21742692.656    21742692.210    21742693.712                   -17700186.421 8 -17700186.417 8                 -13792342.477 8       378.000         174.000         271.000                  
G13  19953354.321    19953353.721    19953354.188                   -25401723.426 9 -25401723.427 8                 -19793561.535 9       755.000         342.000         629.000                  
G15  21143834.141    21143833.810    21143834.910                   -15103342.073 9 -15103342.075 9                 -11768836.293 9       514.000         596.000         697.000                  
G18  23417681.416    23417680.015    23417681.684                    -7334176.547 8  -7334176.548 6                  -5714937.898 7       185.000          46.000          95.000                  
G20  20700487.669    20700486.486    20700487.225                   -18804584.656 9 -18804584.656 8                 -14652913.959 8       577.000         270.000         252.000                  
G29  20861598.237    20861597.606    20861598.291                   -22295117.507 9 -22295117.507 9                 -17372803.815 9       585.000         757.000        1273.000                  
G30  23349556.883    23349555.858    23349558.716                    -5026696.094 8  -5026696.098 7                  -3916903.757 8       175.000          67.000         196.000                  
> 2024 10 31 16 14 40.0000000  0  9
G05  19738187.136    19738186.894    19738187.266                   -22995993.691 9 -22995993.691 9                 -17918943.195 9       851.000        1749.000        2588.000                  
G07  24026133.004    24026133.483    24026134.049                    -1580008.981 8  -1580008.993 6                  -1231176.552 7       108.000          36.000          68.000                  
G11  21762920.616    21762920.357    21762921.698                   -17593886.670 8 -17593886.667 8                 -13709511.454 8       375.000         173.000         266.000                  
G13  19976903.953    19976903.456    19976903.835                   -25277968.972 9 -25277968.971 8                 -19697129.453 9       748.000         338.000         619.000                  
G15  21190110.769    21190110.729    21190111.731                   -14860155.332 8 -14860155.333 9                 -11579340.136 9       481.000         530.000         675.000                  
G18  23383386.843    23383386.436    23383387.579                    -7514391.578 8  -7514391.577 6                  -5855365.090 8       185.000          47.000         108.000                  
G20  20673780.314    20673779.041    20673779.920                   -18944932.302 9 -18944932.302 8                 -14762275.719 8       594.000         289.000         255.000                  
G29  20876311.928    20876311.360    20876312.089                   -22217795.909 9 -22217795.910 9                 -17312553.180 9       567.000         716.000        1272.000                  
G30  23314330.828    23314329.773    23314332.155                    -5211809.238 8  -5211809.240 7                  -4061147.675 8       175.000          77.000         207.000                  
> 2024 10 31 16 14 50.0000000  0  9
G05  19717623.378    19717623.225    19717623.568                   -23104056.733 9 -23104056.734 9                 -18003148.125 9       870.000        1811.000        2711.000                  
G07  23965653.887    23965652.586    23965653.682                    -1897834.252 8  -1897834.254 6                  -1478832.443 7       111.000          32.000          62.000                  
G11  21783920.671    21783920.184    21783921.654                   -17483531.232 8 -17483531.228 8                 -13623520.156 8       373.000         169.000         259.000                  
G13  20001105.588    20001105.055    20001105.571                   -25150788.881 9 -25150788.879 8                 -19598028.036 9       743.000         334.000         606.000                  
G15  21236879.487    21236878.966    21236879.931                   -14614386.454 8 -14614386.455 8                 -11387831.925 9       460.000         480.000         672.000                  
G18  23349566.875    23349566.516    23349568.024                    -7692115.368 8  -7692115.376 7                  -5993851.054 8       190.000          53.000         112.000                  
G20  20647805.732    20647804.724    20647805.273                   -19081429.059 9 -19081429.061 8                 -14868636.777 8       598.000         291.000         256.000                  
G29  20892090.074    20892089.663    20892090.338                   -22134880.271 9 -22134880.271 9                 -17247943.583 9       566.000         719.000        1252.000                  
G30  23279305.418    23279304.703    23279308.075                    -5395867.239 8  -5395867.244 7                  -4204569.407 8       180.000          84.000         223.000                  
> 2024 10 31 16 15  0.0000000  0  9
G05  19697925.257    19697924.802    19697925.240                   -23207571.865 9 -23207571.865 9                 -18083809.226 9       867.000        1804.000        2787.000                  
G07  23905231.015    23905230.785    23905231.789                    -2215354.037 8  -2215354.038 6                  -1726250.272 7       105.000          35.000          66.000                  
G11  21805684.934    21805684.749    21805685.706                   -17369158.675 8 -17369158.671 8                 -13534398.629 8       375.000         171.000         256.000                  
G13  20025953.419    20025952.838    20025953.208                   -25020212.117 9 -25020212.118 8                 -19496279.863 9       737.000         315.000         579.000                  
G15  21284130.997    21284130.739    21284131.880                   -14366076.481 8 -14366076.483 8                 -11194343.632 9       440.000         440.000         669.000                  
G18  23316228.561    23316227.832    23316229.008                    -7867312.271 8  -7867312.268 7                  -6130368.030 8       194.000          63.000         109.000                  
G20  20622567.416    20622565.996    20622566.818                   -19214058.317 9 -19214058.319 8                 -14971984.207 8       598.000         298.000         268.000                  
G29  20908928.050    20908927.670    20908928.353                   -22046396.155 9 -22046396.156 9                 -17178994.864 9       576.000         732.000        1287.000                  
G30  23244484.428    23244483.592    23244486.888                    -5578852.877 8  -5578852.888 7                  -4347155.547 8       182.000          81.000         233.000                  
> 2024 10 31 16 15 10.0000000  0  9
G05  19679099.913    19679099.497    19679099.832                   -23306499.306 9 -23306499.307 9                 -18160895.511 9       867.000        1809.000        2784.000                  
G07  23844875.809    23844876.012    23844876.197                    -2532520.262 8  -2532520.256 6                  -1973392.623 7       107.000          32.000          70.000                  
G11  21828210.171    21828209.727    21828211.361                   -17250787.194 8 -17250787.192 8                 -13442161.070 8       373.000         172.000         252.000                  
G13  20051446.153    20051445.623    20051445.990                   -24886246.603 9 -24886246.603 8                 -19391891.101 9       737.000         325.000         561.000                  
G15  21331862.569    21331862.119    21331863.456                   -14115245.454 8 -14115245.454 8                 -10998890.884 9       414.000         400.000         670.000                  
G18  23283380.844    23283379.909    23283381.285                    -8039925.654 8  -8039925.655 6                  -6264871.869 8       196.000          48.000         108.000                  
G20  20598071.718    20598070.404    20598071.196                   -19342782.964 9 -19342782.964 8                 -15072289.088 8       606.000         295.000         271.000                  
G29  20926824.493    20926823.971    20926824.786                   -21952349.754 9 -21952349.756 9                 -17105711.919 9       562.000         703.000        1306.000                  
G30  23209875.011    23209873.975    23209876.822                    -5760727.371 8  -5760727.375 7                  -4488875.855 8       185.000          86.000         246.000                  
> 2024 10 31 16 15 20.0000000  0  9
G05  19661150.030    19661149.757    19661150.039                   -23400825.970 9 -23400825.970 9                 -18234396.771 9       867.000        1800.000        2927.000                  
G07  23784592.660    23784592.423    23784593.322                    -2849310.141 8  -2849310.134 6                  -2220241.718 7       111.000          36.000          75.000                  
G11  21851487.834    21851487.710    21851489.084                   -17128461.230 8 -17128461.228 8                 -13346842.077 8       370.000         168.000         248.000                  
G13  20077577.237    20077576.706    20077577.021                   -24748926.880 9 -24748926.880 8                 -19284888.666 9       733.000         320.000         536.000                  
G15  21380065.251    21380064.853    21380066.126                   -13861939.012 8 -13861939.014 8                 -10801509.240 9       399.000         367.000         704.000                  
G18  23251030.581    23251029.937    23251031.490                    -8209924.754 8  -8209924.750 7                  -6397338.608 8       198.000          53.000         113.000                  
G20  20574321.410    20574320.124    20574320.780                   -19467592.056 9 -19467592.056 8                 -15169542.880 8       617.000         313.000         285.000                  
G29  20945773.153    20945772.735    20945773.326                   -21852774.137 9 -21852774.139 9                 -17028120.474 9       571.000         734.000        1257.000                  
G30  23175479.154    23175478.164    23175481.124                    -5941477.568 8  -5941477.560 7                  -4629720.075 8       193.000          95.000         250.000                  
> 2024 10 31 16 15 30.0000000  0  9
G05  19644078.773    19644078.500    19644078.843                   -23490535.886 9 -23490535.886 9                 -18304300.566 9       869.000        1796.000        3116.000                  
G07  23724386.342    23724386.072    23724386.106                    -3165696.629 8  -3165696.640 6                  -2466776.490 7       113.000          35.000          78.000                  
G11  21875510.551    21875510.246    21875511.350                   -17002222.229 8 -17002222.226 8                 -13248473.980 8       373.000         176.000         236.000                  
G13  20104340.637    20104340.170    20104340.491                   -24608283.732 9 -24608283.731 8                 -19175296.556 9       727.000         310.000         507.000                  
G15  21428730.722    21428730.471    21428731.762                   -13606198.996 8 -13606198.997 8                 -10602231.294 9       390.000         349.000         742.000                  
G18  23219185.181    23219184.251    23219185.575                    -8377275.168 8  -8377275.163 7                  -6527741.437 8       197.000          52.000         114.000                  
G20  20551318.630    20551317.360    20551318.182                   -19588471.670 9 -19588471.671 8                 -15263734.741 8       629.000         314.000         287.000                  
G29  20965767.934    20965767.565    20965768.115                   -21747700.155 9 -21747700.156 9                 -16946244.601 9       573.000         735.000        1147.000                  
G30  23141299.955    23141299.529    23141302.229                    -6121086.422 8  -6121086.430 7                  -4769674.935 8       195.000          92.000         247.000                  
> 2024 10 31 16 15 40.0000000  0  9
G05  19627893.175    19627892.831    19627893.162                   -23575591.944 9 -23575591.943 9                 -18370577.979 9       875.000        1829.000        3267.000                  
G07  23664265.390    23664265.701    23664265.953                    -3481630.552 8  -3481630.558 6                  -2712958.613 7       116.000          33.000          74.000                  
G11  21900273.819    21900273.612    21900274.551                   -16872090.084 8 -16872090.083 8                 -13147072.250 8       368.000         166.000         232.000                  
G13  20131734.689    20131734.334    20131734.709                   -24464326.059 9 -24464326.060 8                 -19063121.690 8       718.000         303.000         480.000                  
G15  21477855.892    21477855.486    21477856.915                   -13348045.291 8 -13348045.293 8                 -10401072.546 9       383.000         340.000         784.000                  
G18  23187854.234    23187853.537    23187854.608                    -8541920.653 8  -8541920.643 7                  -6656036.533 8       198.000          58.000         113.000                  
G20  20529070.518    20529069.273    20529070.054                   -19705386.475 9 -19705386.476 8                 -15354837.153 8       646.000         341.000         299.000                  
G29  20986807.311    20986806.811    20986807.240                   -21637137.952 9 -21637137.953 9                 -16860092.196 9       571.000         734.000        1076.000                  
G30  23107346.928    23107346.170    23107348.769                    -6299514.612 8  -6299514.617 8                  -4908709.809 8       202.000         108.000         261.000                  
> 2024 10 31 16 15 50.0000000  0  9
G05  19612594.794    19612594.595    19612594.925                   -23655984.574 9 -23655984.575 9                 -18433221.553 9       889.000        1900.000        3357.000                  
G07  23604236.762    23604235.636    23604236.680                    -3797088.584 8  -3797088.573 6                  -2958769.916 7       115.000          44.000          78.000                  
G11  21925768.642    21925768.554    21925769.763                   -16738112.144 8 -16738112.142 8                 -13042673.799 8       358.000         149.000         221.000                  
G13  20159752.728    20159752.380    20159752.639                   -24317090.042 9 -24317090.042 8                 -18948392.278 8       714.000         307.000         455.000                  
G15  21527431.453    21527431.055    21527432.300                   -13087524.422 8 -13087524.422 8                 -10198069.252 9       375.000         323.000         796.000                  
G18  23157043.707    23157042.700    23157044.007                    -8703831.923 8  -8703831.912 7                  -6782201.076 8       206.000          60.000         114.000                  
G20  20507578.266    20507577.032    20507577.893                   -19818328.512 9 -19818328.513 8                 -15442843.877 8       652.000         350.000         308.000                  
G29  21008883.809    21008883.230    21008883.718                   -21521125.658 9 -21521125.660 9                 -16769692.975 9       575.000         736.000        1064.000                  
G30  23073620.454    23073619.247    23073622.275                    -6476749.407 8  -6476749.405 7                  -5046814.740 8       203.000          94.000         262.000                  
> 2024 10 31 16 16  0.0000000  0  9
G05  19598186.583    19598186.246    19598186.591                   -23731700.700 9 -23731700.700 9                 -18492221.095 9       916.000        2022.000        3452.000                  
G07  23544301.628    23544301.431    23544302.619                    -4112042.604 8  -4112042.594 6                  -3204188.510 7       118.000          37.000          81.000                  
G11  21951987.666    21951987.400    21951988.449                   -16600331.502 8 -16600331.503 8                 -12935312.220 8       355.000         155.000         216.000                  
G13  20188388.833    20188388.186    20188388.339                   -24166607.206 9 -24166607.204 8                 -18831132.871 8       707.000         303.000         437.000                  
G15  21577449.183    21577449.025    21577450.203                   -12824677.991 8 -12824677.992 8                  -9993253.814 9       365.000         295.000         810.000                  
G18  23126758.832    23126758.943    23126759.882                    -8862975.095 8  -8862975.092 7                  -6906208.658 8       207.000          56.000         112.000                  
G20  20486844.356    20486843.156    20486844.125                   -19927285.748 9 -19927285.750 8                 -15527745.579 8       655.000         345.000         330.000                  
G29  21031990.432    21031990.040    21031990.583                   -21399698.135 9 -21399698.137 9                 -16675074.102 9       569.000         725.000        1042.000                  
G30  23040123.285    23040123.045    23040126.165                    -6652773.137 8  -6652773.140 8                  -5183976.019 8       207.000         103.000         280.000                  
> 2024 10 31 16 16 10.0000000  0  9
G05  19584674.461    19584674.232    19584674.520                   -23802706.672 9 -23802706.672 9                 -18547550.399 9       955.000        2193.000        3497.000                  
G07  23484474.334    23484473.197    23484474.371                    -4426442.687 8  -4426442.700 6                  -3449175.466 7       125.000          39.000          86.000                  
G11  21978925.892    21978925.765    21978926.632                   -16458770.456 8 -16458770.449 8                 -12825004.869 8       358.000         156.000         206.000                  
G13  20217640.339    20217640.013    20217640.003                   -24012888.329 9 -24012888.329 8                 -18711351.876 8       700.000         295.000         421.000                  
G15  21627905.981    21627905.460    21627906.921                   -12559526.265 8 -12559526.266 8                  -9786642.036 9       358.000         292.000         794.000                  
G18  23097012.591    23097012.002    23097013.275                    -9019295.217 8  -9019295.214 7                  -7028016.480 8       209.000          66.000         109.000                  
G20  20466875.048    20466873.825    20466874.544                   -20032225.469 9 -20032225.468 8                 -15609516.737 8       656.000         344.000         346.000                  
G29  21056125.243    21056124.610    21056125.118                   -21272870.043 9 -21272870.043 9                 -16576246.986 9       556.000         693.000        1020.000                  
G30  23006866.111    23006864.508    23006867.400                    -6827546.635 8  -6827546.635 8                  -5320163.088 8       208.000         109.000         274.000                  
> 2024 10 31 16 16 20.0000000  0  9
G05  19572060.069    19572059.808    19572060.098                   -23868995.849 9 -23868995.849 9                 -18599204.276 9       988.000        2336.000        3544.000                  
G07  23424756.757    23424755.222    23424755.630                    -4740264.623 8  -4740264.634 6                  -3693711.926 7       132.000          36.000          97.000                  
G11  22006574.537    22006573.908    22006574.621                   -16313478.062 8 -16313478.064 8                 -12711789.975 8       363.000         158.000         198.000                  
G13  20247501.077    20247500.208    20247500.408                   -23855970.419 9 -23855970.420 8                 -18589078.144 8       696.000         288.000         409.000                  
G15  21678792.011    21678792.280    21678793.389                   -12292115.630 8 -12292115.629 8                  -9578270.111 9       352.000         293.000         796.000                  
G18  23067808.627    23067807.527    23067808.736                    -9172763.756 8  -9172763.747 7                  -7147602.284 8       211.000          56.000         119.000                  
G20  20447671.218    20447670.036    20447670.805                   -20133141.950 9 -20133141.949 8                 -15688152.934 8       648.000         338.000         355.000                  
G29  21081279.257    21081279.012    21081279.308                   -21140683.574 9 -21140683.575 9                 -16473244.513 9       573.000         726.000        1004.000                  
G30  22973847.430    22973846.822    22973849.815                    -7001056.703 8  -7001056.704 8                  -5455365.666 8       212.000         108.000         291.000                  
> 2024 10 31 16 16 30.0000000  0  9
G05  19560345.229    19560344.917    19560345.191                   -23930557.999 9 -23930557.999 9                 -18647174.753 9      1022.000        2480.000        3655.000                  
G07  23365151.952    23365152.300    23365152.784                    -5053479.499 8  -5053479.505 6                  -3937775.344 7       137.000          48.000          96.000                  
G11  22034923.834    22034923.510    22034924.418                   -16164499.462 8 -16164499.463 8                 -12595702.713 8       359.000         152.000         198.000                  
G13  20277964.025    20277963.448    20277963.532                   -23695886.381 9 -23695886.381 8                 -18464337.313 8       704.000         288.000         403.000                  
G15  21730100.927    21730100.725    21730101.913                   -12022487.837 8 -12022487.842 8                  -9368170.514 9       364.000         290.000         800.000                  
G18  23039152.412    23039152.398    23039153.424                    -9323348.000 8  -9323347.998 7                  -7264940.581 8       231.000          68.000         120.000                  
G20  20429234.810    20429233.531    20429234.411                   -20230025.585 9 -20230025.587 8                 -15763646.644 8       644.000         338.000         358.000                  
G29  21107445.735    21107445.283    21107445.809                   -21003177.668 9 -21003177.668 9                 -16366097.012 9       556.000         694.000         976.000                  
G30  22941073.643    22941072.557    22941075.167                    -7173285.686 8  -7173285.687 8                  -5589570.010 8       209.000         110.000         298.000                  
> 2024 10 31 16 16 40.0000000  0  9
G05  19549535.674    19549535.372    19549535.646                   -23987362.643 9 -23987362.643 9                 -18691438.070 9      1037.000        2568.000        3750.000                  
G07  23305675.106    23305674.284    23305674.975                    -5366036.322 8  -5366036.323 6                  -4181325.993 8       144.000          50.000         102.000                  
G11  22063970.127    22063969.973    22063970.885                   -16011858.576 8 -16011858.568 8                 -12476761.727 8       350.000         151.000         191.000                  
G13  20309027.320    20309026.650    20309026.828                   -23532647.524 9 -23532647.525 8                 -18337138.160 8       709.000         305.000         389.000                  
G15  21781827.634    21781827.275    21781828.409                   -11750662.985 8 -11750662.987 8                  -9156358.915 9       355.000         288.000         805.000                  
G18  23011056.858    23011056.490    23011057.285                    -9470993.771 8  -9470993.772 7                  -7379989.159 8       233.000          74.000         119.000                  
G20  20411571.833    20411570.345    20411571.298                   -20322845.809 9 -20322845.812 8                 -15835974.065 8       630.000         319.000         356.000                  
G29  21134621.147    21134620.629    21134621.040                   -20860370.831 9 -20860370.831 9                 -16254818.929 9       558.000         700.000         963.000                  
G30  22908550.733    22908549.731    22908552.850                    -7344193.917 8  -7344193.918 8                  -5722745.195 8       211.000         106.000         308.000                  
> 2024 10 31 16 16 50.0000000  0  9
G05  19539631.798    19539631.614    19539631.843                   -24039407.282 9 -24039407.282 9                 -18731992.300 9      1038.000        2582.000        3737.000                  
G07  23246326.818    23246326.736    23246326.896                    -5677911.035 8  -5677911.024 7                  -4424345.158 8       147.000          54.000         109.000                  
G11  22093704.268    22093703.789    22093704.730                   -15855606.985 8 -15855606.983 8                 -12355007.221 8       343.000         147.000         197.000                  
G13  20340683.341    20340683.000    20340683.109                   -23366292.691 9 -23366292.691 8                 -18207510.943 8       711.000         297.000         387.000                  
G15  21833963.594    21833962.883    21833964.027                   -11476688.127 8 -11476688.128 8                  -8942871.961 9       359.000         295.000         807.000                  
G18  22983524.968    22983524.681    22983525.444                    -9615674.423 8  -9615674.414 7                  -7492727.263 8       246.000          80.000         116.000                  
G20  20394682.324    20394681.130    20394681.773                   -20411599.907 9 -20411599.908 8                 -15905133.058 8       632.000         322.000         362.000                  
G29  21162796.228    21162795.619    21162796.091                   -20712309.938 9 -20712309.940 9                 -16139446.774 9       562.000         704.000         966.000                  
G30  22876281.478    22876280.749    22876283.464                    -7513768.815 8  -7513768.814 8                  -5854881.413 8       209.000         110.000         304.000                  
> 2024 10 31 16 17  0.0000000  0  9
G05  19530635.269    19530634.920    19530635.109                   -24086684.929 9 -24086684.929 9                 -18768831.997 9      1030.000        2547.000        3704.000                  
G07  23187114.853    23187114.581    23187114.389                    -5989073.666 8  -5989073.664 7                  -4666809.442 8       158.000          60.000         119.000                  
G11  22124115.946    22124115.606    22124116.416                   -15695791.403 8 -15695791.398 8                 -12230475.578 8       334.000         126.000         207.000                  
G13  20372926.318    20372925.689    20372925.909                   -23196855.772 9 -23196855.773 8                 -18075482.122 8       707.000         297.000         387.000                  
G15  21886499.603    21886499.682    21886500.762                   -11200604.928 8 -11200604.930 8                  -8727742.144 9       370.000         304.000         770.000                  
G18  22956563.901    22956562.802    22956563.971                    -9757358.291 8  -9757358.276 7                  -7603130.205 8       254.000          86.000         110.000                  
G20  20378567.966    20378566.978    20378567.525                   -20496280.712 9 -20496280.714 8                 -15971118.066 8       631.000         318.000         366.000                  
G29  21191962.938    21191962.380    21191962.872                   -20559037.765 9 -20559037.767 9                 -16020013.890 9       558.000         693.000        1005.000                  
G30  22844269.273    22844268.902    22844271.367                    -7681992.380 8  -7681992.385 8                  -5985964.640 8       212.000         104.000         304.000                  
> 2024 10 31 16 17 10.0000000  0  9
G05  19522550.814    19522550.510    19522550.754                   -24129168.515 9 -24129168.516 9                 -18801936.063 9      1015.000        2446.000        3736.000                  
G07  23128049.197    23128047.727    23128047.912                    -6299472.771 8  -6299472.775 7                  -4908678.762 8       168.000          70.000         130.000                  
G11  22155201.041    22155200.578    22155201.736                   -15532437.835 8 -15532437.832 8                 -12103187.058 8       323.000         128.000         217.000                  
G13  20405752.918    20405752.495    20405752.682                   -23024349.585 9 -23024349.584 8                 -17941061.668 8       706.000         297.000         380.000                  
G15  21939434.301    21939434.057    21939434.860                   -10922433.909 8 -10922433.911 8                  -8510985.451 9       372.000         320.000         741.000                  
G18  22930182.575    22930181.912    22930182.612                    -9895992.900 8  -9895992.893 7                  -7711157.113 8       263.000          94.000         111.000                  
G20  20363234.208    20363232.880    20363233.767                   -20576860.519 9 -20576860.521 8                 -16033907.485 8       629.000         329.000         371.000                  
G29  21222116.968    21222116.470    21222116.856                   -20400577.018 9 -20400577.021 9                 -15896537.962 9       547.000         664.000         981.000                  
G30  22812521.364    22812521.373    22812524.150                    -7848825.331 8  -7848825.327 8                  -6115964.269 8       214.000         112.000         303.000                  
> 2024 10 31 16 17 20.0000000  0  9
G05  19515378.645    19515378.366    19515378.667                   -24166858.058 9 -24166858.059 9                 -18831304.509 9       996.000        2388.000        3726.000                  
G07  23069130.445    23069130.746    23069130.592                    -6609082.658 8  -6609082.658 7                  -5149933.116 8       169.000          68.000         142.000                  
G11  22186949.387    22186949.112    22186950.108                   -15365598.734 8 -15365598.730 8                 -11973182.539 8       316.000         127.000         226.000                  
G13  20439156.396    20439155.868    20439156.086                   -22848813.235 9 -22848813.235 8                 -17804280.071 8       696.000         288.000         370.000                  
G15  21992757.033    21992756.749    21992757.355                   -10642221.387 8 -10642221.387 8                  -8292637.977 9       370.000         313.000         720.000                  
G18  22904386.069    22904385.764    22904386.481                   -10031552.111 8 -10031552.106 7                  -7816787.604 8       269.000          92.000         110.000                  
G20  20348681.011    20348679.683    20348680.322                   -20653338.581 9 -20653338.582 8                 -16093500.752 8       640.000         327.000         384.000                  
G29  21253249.015    21253248.338    21253248.696                   -20236977.641 9 -20236977.642 9                 -15769057.904 9       536.000         628.000         913.000                  
G30  22781042.108    22781041.349    22781043.846                    -8014254.270 8  -8014254.270 8                  -6244869.874 8       214.000         116.000         305.000                  
> 2024 10 31 16 17 30.0000000  0  9
G05  19509119.430    19509119.185    19509119.425                   -24199750.068 9 -24199750.068 9                 -18856934.621 9       987.000        2329.000        3637.000                  
G07  23010369.128    23010369.356    23010369.822                    -6917872.924 8  -6917872.930 7                  -5390548.812 8       177.000          72.000         148.000                  
G11  22219351.767    22219351.571    22219352.506                   -15195322.611 8 -15195322.608 8                 -11840499.816 8       315.000         123.000         224.000                  
G13  20473129.856    20473129.386    20473129.372                   -22670281.643 9 -22670281.642 8                 -17665164.508 8       695.000         291.000         357.000                  
G15  22046459.974    22046459.777    22046460.567                   -10360009.240 8 -10360009.242 8                  -8072732.397 9       360.000         298.000         718.000                  
G18  22879180.665    22879180.556    22879181.507                   -10164005.821 8 -10164005.814 7                  -7919998.239 8       274.000          98.000         104.000                  
G20  20334908.898    20334907.736    20334908.499                   -20725710.374 9 -20725710.374 8                 -16149894.317 8       644.000         344.000         403.000                  
G29  21285349.534    21285349.018    21285349.531                   -20068286.258 9 -20068286.260 9                 -15637610.053 9       503.000         556.000         865.000                  
G30  22749832.341    22749831.513    22749834.523                    -8178261.296 8  -8178261.296 8                  -6372667.484 8       217.000         113.000         299.000                  
> 2024 10 31 16 17 40.0000000  0  9
G05  19503777.863    19503777.487    19503777.727                   -24227820.861 9 -24227820.861 9                 -18878807.949 9       974.000        2286.000        3556.000                  
G07  22951774.955    22951774.424    22951774.478                    -7225791.449 8  -7225791.442 7                  -5630485.254 8       182.000          92.000         167.000                  
G11  22252402.934    22252402.756    22252403.860                   -15021637.001 8 -15021636.994 8                 -11705160.342 8       311.000         118.000         236.000                  
G13  20507670.667    20507670.292    20507670.087                   -22488768.542 9 -22488768.541 8                 -17523725.684 8       700.000         291.000         344.000                  
G15  22100540.102    22100539.521    22100540.559                   -10075817.767 8 -10075817.770 8                  -7851284.478 9       361.000         298.000         718.000                  
G18  22854576.819    22854576.233    22854576.931                   -10293302.943 8 -10293302.944 7                  -8020749.194 8       274.000          96.000         112.000                  
G20  20321923.046    20321921.898    20321922.905                   -20793950.905 9 -20793950.905 8                 -16203068.725 8       653.000         353.000         403.000                  
G29  21318414.653    21318413.992    21318414.440                   -19894529.202 8 -19894529.203 9                 -15502214.938 9       491.000         534.000         853.000                  
G30  22718901.236    22718900.169    22718902.717                    -8340807.128 8  -8340807.126 8                  -6499326.505 8       220.000         116.000         307.000                  
> 2024 10 31 16 17 50.0000000  0  9
G05  19499352.763    19499352.550    19499352.804                   -24251073.837 9 -24251073.837 9                 -18896927.134 9       977.000        2283.000        3425.000                  
G07  22893351.264    22893350.964    22893350.716                    -7532811.618 8  -7532811.624 7                  -5869721.674 8       189.000          80.000         184.000                  
G11  22286092.952    22286092.661    22286093.703                   -14844595.782 8 -14844595.776 8                 -11567206.126 8       299.000         111.000         241.000                  
G13  20542771.169    20542770.600    20542770.690                   -22304313.855 9 -22304313.857 8                 -17379994.724 8       698.000         291.000         325.000                  
G15  22154987.808    22154987.358    22154988.340                    -9789693.057 8  -9789693.057 8                  -7628330.127 9       364.000         299.000         725.000                  
G18  22830577.279    22830577.229    22830577.567                   -10419418.741 8 -10419418.735 8                  -8119021.199 8       274.000         102.000         111.000                  
G20  20309723.372    20309721.921    20309722.797                   -20858061.928 9 -20858061.931 8                 -16253025.343 8       661.000         350.000         423.000                  
G29  21352433.337    21352432.764    21352433.025                   -19715759.838 8 -19715759.839 9                 -15362914.122 9       485.000         527.000         847.000                  
G30  22688249.875    22688249.473    22688251.727                    -8501878.242 8  -8501878.245 8                  -6624836.427 8       229.000         125.000         304.000                  
> 2024 10 31 16 18  0.0000000  0  9
G05  19495844.561    19495844.329    19495844.560                   -24269509.552 9 -24269509.552 9                 -18911292.610 9       976.000        2290.000        3291.000                  
G07  22835103.290    22835103.051    22835103.329                    -7838902.567 8  -7838902.565 7                  -6108234.031 8       197.000          88.000         191.000                  
G11  22320411.741    22320411.262    22320412.448                   -14664249.129 8 -14664249.125 8                 -11426676.231 8       292.000         107.000         246.000                  
G13  20578424.440    20578423.967    20578424.060                   -22116953.625 9 -22116953.627 8                 -17233999.707 8       687.000         286.000         308.000                  
G15  22209795.251    22209794.853    22209795.907                    -9501677.184 8  -9501677.185 8                  -7403902.171 9       353.000         282.000         721.000                  
G18  22807189.517    22807188.776    22807189.330                   -10542324.919 8 -10542324.913 7                  -8214792.204 8       275.000          95.000         109.000                  
G20  20298309.360    20298308.215    20298308.989                   -20918041.912 9 -20918041.913 8                 -16299762.962 8       662.000         345.000         427.000                  
G29  21387395.783    21387395.476    21387396.088                   -19532028.491 8 -19532028.492 9                 -15219746.833 9       470.000         501.000         844.000                  
G30  22657883.318    22657882.259    22657884.616                    -8661457.049 8  -8661457.050 8                  -6749183.465 8       225.000         128.000         308.000                  
