     3.03           OBSERVATION DATA    M (MIXED)           RINEX VERSION / TYPE
BJPP                CNES                20241102 091353 UTC PGM / RUN BY / DATE 
MARKER                                                      MARKER NAME         
SPACECRAFT                                                  MARKER TYPE         
OBSERVER            CNES                                    OBSERVER / AGENCY   
RECNUM              BLACKJACK           RECVERS             REC # / TYPE / VERS 
ANTNUM              BLACKJACK                               ANT # / TYPE        
        0.0000        0.0000        0.0000                  ANTENNA: DELTA H/E/N
G   12 C1C C1W C2W C2X L1C L1W L2X L2W S1C S1W S2W S2X      SYS / # / OBS TYPES 
DBHZ                                                        SIGNAL STRENGTH UNIT
This rinex produced from the following file(s):             COMMENT             
/tmp/mesos_work/slaves/d197f515-9ebc-49f2-8adc-fe7a9d3e6458-COMMENT             
S19/frameworks/8c1b9f46-52ed-4aff-9edf-38d17bf6761e-4559/exeCOMMENT             
cutors/toil-126171/runs/ef0a88bc-db22-4880-9f81-9acd6b36f191COMMENT             
/4c7d837d52f95e5a9cd4a3e2df6d607f/8635/3549/tmp3cc9uu07r_nhuCOMMENT             
476/stg9a0ea41b-6fd4-4b29-a869-11b490f2263d/SWOT_IVK_2024103COMMENT             
1T203754_20241031T190652_20241031T205229_O_APID1280.PTM_0   COMMENT             
  2024    10    31    19     6   30.0000000                 TIME OF FIRST OBS   
G L1C                                                       SYS / PHASE SHIFT   
G L1W -0.25000                                              SYS / PHASE SHIFT   
G L2W                                                       SYS / PHASE SHIFT   
G L2X  0.25000                                              SYS / PHASE SHIFT   
                                                            END OF HEADER       
> 2024 10 31 19 06 30.0000000  0  2
G03  21462787.566    21462787.583    21462790.400                   -11603441.022 8 -11603441.021 8                  -9041645.314 9       340.000         291.000         701.000                  
G26  21659893.212    21659893.099    21659897.075                   -14625094.881 8 -14625094.880 8                 -11396180.065 9       267.000         167.000         889.000                  
> 2024 10 31 19 06 40.0000000  0 11
G03  21491957.295    21491956.899    21491959.692                   -11450155.180 8 -11450155.182 8                  -8922201.758 9       334.000         290.000         704.000                  
G04  22029260.068    22029259.620    22029261.450                    -4738200.026 8  -4738200.016 7                  -3692105.586 8       239.000          86.000         123.000                  
G06  23100630.537    23100630.779    23100634.396                    -8623913.010 8  -8623913.013 8                  -6719930.543 8       202.000         124.000         280.000                  
G11  23942770.749    23942769.296    23942770.853                    -5225406.517 8  -5225406.505 6                  -4071743.142 7       178.000          45.000          83.000                  
G12  25321599.678    25321597.868    25321600.534                     2316193.242 7   2316193.242 6                   1804820.922 6        56.000          20.000          19.000                  
G25  21610086.785    21610085.725    21610089.399                   -14931367.865 8 -14931367.866 8                 -11634832.624 8       300.000         223.000         395.000                  
G26  21612198.346    21612197.435    21612201.334                   -14875738.050 8 -14875738.049 8                 -11591486.435 9       275.000         179.000         875.000                  
G28  20325871.162    20325871.035    20325871.239                   -24110287.466 9 -24110287.469 9                 -18787240.255 9       658.000         542.000         530.000                  
G29  22811426.544    22811425.736    22811426.359                   -11118372.520 8 -11118372.521 8                  -8663666.616 9       289.000         188.000         576.000                  
G31  19600072.565    19600072.255    19600071.774                   -26454396.070 9 -26454396.071 9                 -20613814.034 9       889.000        1735.000        1908.000                  
G32  24715884.496    24715882.925    24715887.479                     -791262.395 7   -791262.404 6                   -616570.290 7        71.000          24.000          82.000                  
> 2024 10 31 19 06 50.0000000  0 11
G03  21521583.198    21521583.215    21521586.043                   -11294468.163 8 -11294468.164 8                  -8800887.331 9       328.000         278.000         710.000                  
G04  22077713.588    22077713.102    22077714.794                    -4483575.023 8  -4483575.014 7                  -3493696.428 8       239.000          82.000         123.000                  
G06  23167140.243    23167140.064    23167143.619                    -8274405.150 8  -8274405.155 8                  -6447586.790 8       194.000         116.000         252.000                  
G11  23972297.138    23972296.497    23972297.376                    -5070243.429 8  -5070243.435 6                  -3950837.171 7       177.000          37.000          87.000                  
G12  25344291.254    25344288.634    25344291.025                     2435432.542 7   2435432.554 6                   1897734.655 6        55.000          21.000          18.000                  
G25  21602745.801    21602744.973    21602748.667                   -14969943.807 8 -14969943.807 8                 -11664891.815 8       299.000         223.000         420.000                  
G26  21565050.235    21565050.127    21565054.183                   -15123497.746 8 -15123497.745 8                 -11784545.909 9       280.000         182.000         890.000                  
G28  20291862.746    20291862.580    20291862.988                   -24289002.425 9 -24289002.427 9                 -18926498.581 9       666.000         553.000         542.000                  
G29  22758643.232    22758642.897    22758643.294                   -11395748.437 8 -11395748.440 8                  -8879803.440 9       301.000         207.000         605.000                  
G31  19585000.224    19584999.797    19584999.359                   -26533602.037 9 -26533602.037 9                 -20675532.920 9       895.000        1755.000        1939.000                  
G32  24652312.545    24652311.494    24652315.095                    -1125334.458 7  -1125334.478 6                   -876886.123 7        69.000          25.000          88.000                  
> 2024 10 31 19 07  0.0000000  0 11
G03  21551662.555    21551662.380    21551665.086                   -11136401.888 8 -11136401.888 8                  -8677718.842 9       326.000         272.000         693.000                  
G04  22126500.984    22126500.072    22126501.757                    -4227199.042 8  -4227199.038 7                  -3293922.902 8       236.000          89.000         129.000                  
G06  23234074.083    23234073.516    23234077.260                    -7922666.526 8  -7922666.530 8                  -6173504.859 8       183.000         102.000         229.000                  
G11  24002409.990    24002409.795    24002410.568                    -4911997.974 8  -4911997.961 6                  -3827529.067 7       174.000          34.000          77.000                  
G12  25367321.829    25367319.053    25367320.524                     2556457.581 7   2556457.614 6                   1992039.396 6        52.000          19.000          18.000                  
G25  21596187.636    21596186.938    21596190.719                   -15004406.757 8 -15004406.758 8                 -11691746.189 8       294.000         211.000         425.000                  
G26  21518463.522    21518463.093    21518467.288                   -15368312.702 8 -15368312.699 8                 -11975310.704 9       279.000         184.000         863.000                  
G28  20258582.265    20258582.214    20258582.404                   -24463891.831 9 -24463891.834 9                 -19062775.857 9       670.000         555.000         554.000                  
G29  22706529.767    22706529.216    22706529.514                   -11669607.527 8 -11669607.527 8                  -9093199.919 9       309.000         210.000         617.000                  
G31  19570734.855    19570734.498    19570734.074                   -26608566.537 9 -26608566.536 9                 -20733946.677 9       901.000        1781.000        1971.000                  
G32  24588816.129    24588814.858    24588818.314                    -1459013.812 7  -1459013.816 6                  -1136895.896 7        68.000          23.000          82.000                  
> 2024 10 31 19 07 10.0000000  0 11
G03  21582186.762    21582186.677    21582189.289                   -10975994.569 8 -10975994.573 8                  -8552725.885 9       324.000         277.000         699.000                  
G04  22175612.537    22175612.529    22175614.309                    -3969112.156 8  -3969112.144 7                  -3092816.287 8       238.000          81.000         138.000                  
G06  23301419.650    23301418.780    23301422.606                    -7568764.718 8  -7568764.726 7                  -5897737.289 8       169.000          91.000         205.000                  
G11  24033103.455    24033102.345    24033103.823                    -4750705.115 8  -4750705.120 6                  -3701846.314 7       171.000          46.000          76.000                  
G12  25390686.049    25390682.819    25390681.860                     2679233.654 7   2679233.663 6                   2087709.722 6        52.000          23.000          18.000                  
G25  21590410.561    21590409.832    21590413.409                   -15034764.506 8 -15034764.506 8                 -11715401.318 8       295.000         206.000         445.000                  
G26  21472445.652    21472445.320    21472449.371                   -15610138.028 8 -15610138.026 8                 -12163745.946 9       279.000         193.000         818.000                  
G28  20226034.764    20226034.203    20226034.519                   -24634931.303 9 -24634931.309 9                 -19196053.235 9       676.000         560.000         564.000                  
G29  22655094.931    22655094.009    22655094.232                   -11939900.271 8 -11939900.273 8                  -9303817.486 9       308.000         222.000         634.000                  
G31  19557278.718    19557278.390    19557277.878                   -26679278.243 9 -26679278.243 9                 -20789046.563 9       902.000        1796.000        1970.000                  
G32  24525396.781    24525396.496    24525400.255                    -1792280.114 7  -1792280.131 6                  -1396583.880 7        65.000          21.000          80.000                  
> 2024 10 31 19 07 20.0000000  0 11
G03  21613152.118    21613151.941    21613154.423                   -10813270.952 8 -10813270.952 8                  -8425928.201 9       323.000         264.000         699.000                  
G04  22225045.203    22225045.680    22225047.120                    -3709338.655 8  -3709338.647 7                  -2890395.149 8       231.000          78.000         145.000                  
G06  23369165.926    23369165.624    23369169.347                    -7212752.424 8  -7212752.426 7                  -5620325.148 8       162.000          80.000         180.000                  
G11  24064372.238    24064371.992    24064373.189                    -4586384.950 8  -4586384.938 6                  -3573804.614 7       172.000          36.000          76.000                  
G12  25414374.395    25414375.392    25414376.620                     2803736.639 7   2803736.645 6                   2184734.849 6        53.000          22.000          16.000                  
G25  21585415.417    21585414.960    21585418.469                   -15061012.504 8 -15061012.504 8                 -11735853.924 8       299.000         213.000         485.000                  
G26  21427008.421    21427008.063    21427011.778                   -15848913.892 8 -15848913.895 8                 -12349805.037 9       293.000         199.000         782.000                  
G28  20194226.879    20194226.537    20194226.685                   -24802081.817 9 -24802081.822 9                 -19326300.319 9       683.000         575.000         567.000                  
G29  22604350.045    22604349.865    22604349.946                   -12206562.526 8 -12206562.527 8                  -9511606.184 9       316.000         225.000         647.000                  
G31  19544636.762    19544636.452    19544635.885                   -26745711.758 9 -26745711.758 9                 -20840812.887 9       893.000        1771.000        1967.000                  
G32  24462064.440    24462063.555    24462066.127                    -2125097.526 7  -2125097.505 6                  -1655922.117 7        63.000          18.000          86.000                  
> 2024 10 31 19 07 30.0000000  0 11
G03  21644553.601    21644553.743    21644556.185                   -10648253.334 8 -10648253.336 8                  -8297342.955 9       317.000         265.000         709.000                  
G04  22274795.124    22274794.583    22274796.662                    -3447902.876 8  -3447902.874 7                  -2686678.774 8       224.000          77.000         145.000                  
G06  23437304.609    23437304.287    23437307.920                    -6854681.021 8  -6854681.025 7                  -5341308.475 8       150.000          66.000         148.000                  
G11  24096213.656    24096213.364    24096214.530                    -4419056.908 8  -4419056.923 6                  -3443419.112 7       169.000          35.000          72.000                  
G12  25438393.207    25438391.861    25438392.498                     2929944.991 7   2929944.991 6                   2283078.177 6        54.000          18.000          16.000                  
G25  21581203.454    21581202.852    21581206.151                   -15083145.234 8 -15083145.239 8                 -11753099.670 8       298.000         210.000         492.000                  
G26  21382162.724    21382162.257    21382166.183                   -16084579.457 8 -16084579.455 8                 -12533440.605 9       304.000         220.000         774.000                  
G28  20163166.815    20163166.504    20163166.534                   -24965303.723 9 -24965303.729 9                 -19453486.201 9       688.000         587.000         567.000                  
G29  22554309.365    22554308.847    22554309.164                   -12469529.248 8 -12469529.247 8                  -9716515.285 9       310.000         216.000         655.000                  
G31  19532813.938    19532813.668    19532812.878                   -26807841.219 9 -26807841.218 9                 -20889225.392 9       910.000        1833.000        2012.000                  
G32  24398821.766    24398821.909    24398826.585                    -2457428.870 7  -2457428.861 6                  -1914881.621 7        62.000          24.000          82.000                  
> 2024 10 31 19 07 40.0000000  0 11
G03  21676382.235    21676382.518    21676385.069                   -10480991.495 8 -10480991.498 8                  -8167009.079 9       315.000         247.000         718.000                  
G04  22324851.142    22324850.924    22324852.863                    -3184855.400 8  -3184855.398 7                  -2481706.725 8       226.000          69.000         142.000                  
G06  23505820.600    23505820.242    23505823.978                    -6494628.201 8  -6494628.204 7                  -5060747.801 8       136.000          59.000         132.000                  
G11  24128618.586    24128617.837    24128619.460                    -4248767.211 8  -4248767.219 6                  -3310725.720 7       166.000          37.000          68.000                  
G12  25462726.354    25462723.282    25462725.092                     3057810.048 7   3057810.025 6                   2382711.883 6        51.000          19.000          16.000                  
G25  21577770.938    21577769.609    21577772.850                   -15101185.898 8 -15101185.900 8                 -11767157.149 8       296.000         212.000         498.000                  
G26  21337915.643    21337914.922    21337918.935                   -16317100.383 8 -16317100.380 8                 -12714625.771 9       315.000         234.000         749.000                  
G28  20132856.655    20132856.352    20132856.526                   -25124584.681 9 -25124584.686 9                 -19577601.299 9       685.000         582.000         568.000                  
G29  22504978.749    22504978.276    22504978.790                   -12728762.706 8 -12728762.711 8                  -9918515.508 9       305.000         211.000         664.000                  
G31  19521809.902    19521809.467    19521808.772                   -26865668.430 9 -26865668.430 9                 -20934285.567 9       919.000        1848.000        2080.000                  
G32  24335676.989    24335675.888    24335680.035                    -2789263.255 7  -2789263.262 6                  -2173453.893 7        61.000          23.000          80.000                  
> 2024 10 31 19 07 50.0000000  0 11
G03  21708638.262    21708638.030    21708640.675                   -10311487.905 8 -10311487.907 8                  -8034928.423 9       306.000         231.000         725.000                  
G04  22375213.632    22375213.332    22375215.386                    -2920199.031 8  -2920199.022 7                  -2275480.997 8       228.000          79.000         139.000                  
G06  23574707.364    23574707.626    23574710.882                    -6132624.616 8  -6132624.609 7                  -4778667.062 8       123.000          54.000         118.000                  
G11  24161587.402    24161586.162    24161587.803                    -4075516.387 8  -4075516.362 6                  -3175725.083 7       165.000          39.000          59.000                  
G12  25487372.634    25487371.289    25487374.108                     3187332.856 7   3187332.859 6                   2483613.671 6        53.000          20.000          20.000                  
G25  21575120.907    21575119.781    21575123.125                   -15115110.094 8 -15115110.095 8                 -11778007.081 8       292.000         218.000         500.000                  
G26  21294282.224    21294281.596    21294285.325                   -16546395.757 8 -16546395.756 8                 -12893297.493 9       327.000         255.000         697.000                  
G28  20103307.673    20103307.352    20103307.704                   -25279865.692 9 -25279865.697 9                 -19698599.528 9       684.000         581.000         571.000                  
G29  22456375.162    22456374.496    22456374.844                   -12984177.640 8 -12984177.642 8                 -10117540.063 9       306.000         210.000         689.000                  
G31  19511632.732    19511632.436    19511631.857                   -26919148.678 9 -26919148.678 9                 -20975958.468 9       906.000        1800.000        2103.000                  
G32  24272638.738    24272636.315    24272640.169                    -3120542.712 7  -3120542.705 6                  -2431593.742 7        62.000          25.000          82.000                  
> 2024 10 31 19 08  0.0000000  0 11
G03  21741307.663    21741307.632    21741310.415                   -10139807.342 8 -10139807.342 8                  -7901151.306 9       294.000         226.000         734.000                  
G04  22425870.035    22425869.499    22425871.411                    -2653998.857 8  -2653998.845 7                  -2068052.094 8       231.000          81.000         141.000                  
G06  23643948.734    23643947.688    23643951.220                    -5768762.923 8  -5768762.915 6                  -4495138.440 8       116.000          46.000         103.000                  
G11  24195107.426    24195107.042    24195107.410                    -3899366.923 8  -3899366.918 6                  -3038465.690 7       164.000          36.000          55.000                  
G12  25512324.490    25512322.583    25512323.864                     3318450.858 7   3318450.854 6                   2585776.685 6        55.000          19.000          17.000                  
G25  21573246.519    21573245.894    21573249.322                   -15124957.229 8 -15124957.232 8                 -11785680.160 9       291.000         212.000         512.000                  
G26  21251266.377    21251265.557    21251269.205                   -16772447.736 8 -16772447.735 8                 -13069442.067 9       336.000         268.000         678.000                  
G28  20074519.303    20074518.858    20074519.118                   -25431151.339 9 -25431151.345 9                 -19816484.616 9       685.000         580.000         594.000                  
G29  22408501.627    22408501.135    22408501.774                   -13235753.268 8 -13235753.270 8                 -10313573.206 9       308.000         209.000         733.000                  
G31  19502279.363    19502279.055    19502278.372                   -26968300.733 9 -26968300.733 9                 -21014258.693 9       890.000        1764.000        2064.000                  
G32  24209698.744    24209700.873    24209703.879                    -3451271.455 7  -3451271.458 6                  -2689304.538 7        62.000          26.000          85.000                  
> 2024 10 31 19 08 10.0000000  0 11
G03  21774391.130    21774390.993    21774393.917                    -9965953.707 8  -9965953.707 8                  -7765681.174 9       292.000         214.000         745.000                  
G04  22476819.425    22476818.823    22476820.652                    -2386258.757 8  -2386258.750 7                  -1859423.343 8       238.000          84.000         149.000                  
G06  23713535.983    23713535.631    23713539.408                    -5403073.618 8  -5403073.628 6                  -4210185.776 7       109.000          39.000          93.000                  
G11  24229178.029    24229178.548    24229179.222                    -3720320.231 8  -3720320.223 6                  -2898948.722 7       162.000          41.000          53.000                  
G12  25537576.367    25537575.601    25537573.254                     3451157.921 7   3451157.922 6                   2689185.144 6        55.000          22.000          16.000                  
G25  21572152.808    21572152.161    21572155.385                   -15130705.392 8 -15130705.395 8                 -11790159.209 9       290.000         206.000         510.000                  
G26  21208882.469    21208881.965    21208885.626                   -16995175.772 8 -16995175.770 8                 -13242996.540 9       344.000         277.000         710.000                  
G28  20046501.516    20046501.454    20046501.741                   -25578384.237 9 -25578384.242 9                 -19931211.732 9       687.000         582.000         599.000                  
G29  22361375.061    22361374.830    22361375.360                   -13483406.014 8 -13483406.018 8                 -10506549.663 9       317.000         225.000         731.000                  
G31  19493757.881    19493757.579    19493756.901                   -27013083.393 9 -27013083.392 9                 -21049154.706 9       884.000        1732.000        1987.000                  
G32  24146881.912    24146881.062    24146884.906                    -3781391.161 7  -3781391.163 6                  -2946540.717 7        67.000          25.000          86.000                  
> 2024 10 31 19 08 20.0000000  0 11
G03  21807879.811    21807880.023    21807883.103                    -9789969.056 8  -9789969.055 8                  -7628550.621 9       289.000         212.000         737.000                  
G04  22528053.766    22528053.313    22528054.735                    -2117021.402 8  -2117021.391 7                  -1649628.104 8       249.000          95.000         141.000                  
G06  23783459.901    23783458.547    23783461.980                    -5035626.045 8  -5035626.060 6                  -3923863.071 7       105.000          35.000          87.000                  
G11  24263793.766    24263792.912    24263793.996                    -3538417.542 8  -3538417.540 6                  -2757206.457 6       158.000          30.000          40.000                  
G12  25563124.336    25563122.791    25563121.387                     3585413.132 7   3585413.146 6                   2793799.597 6        54.000          25.000          16.000                  
G25  21571835.634    21571834.800    21571838.074                   -15132373.236 8 -15132373.237 8                 -11791458.851 9       297.000         209.000         507.000                  
G26  21167138.750    21167138.445    21167142.328                   -17214539.104 8 -17214539.104 8                 -13413929.072 9       349.000         295.000         767.000                  
G28  20019258.712    20019258.656    20019259.026                   -25721547.152 9 -25721547.158 9                 -20042767.465 9       693.000         598.000         605.000                  
G29  22315003.650    22315003.304    22315003.735                   -13727092.102 8 -13727092.104 8                 -10696435.174 9       332.000         249.000         721.000                  
G31  19486068.306    19486068.002    19486067.471                   -27053492.927 9 -27053492.927 9                 -21080642.857 9       879.000        1698.000        1983.000                  
G32  24084180.684    24084180.166    24084184.536                    -4110882.584 7  -4110882.567 6                  -3203287.290 7        73.000          20.000          94.000                  
> 2024 10 31 19 08 30.0000000  0 11
G03  21841767.773    21841767.470    21841770.441                    -9611890.500 8  -9611890.502 8                  -7489788.304 9       288.000         219.000         729.000                  
G04  22579566.035    22579565.581    22579566.885                    -1846323.749 8  -1846323.744 7                  -1438694.899 8       257.000          98.000         143.000                  
G06  23853704.374    23853704.395    23853707.973                    -4666484.250 7  -4666484.239 6                  -3636220.157 7        98.000          36.000          75.000                  
G11  24298945.863    24298944.290    24298945.494                    -3353695.156 8  -3353695.143 6                  -2613267.023 6       151.000          35.000          40.000                  
G12  25588958.806    25588958.529    25588959.037                     3721181.527 7   3721181.540 6                   2899595.302 6        52.000          25.000          16.000                  
G25  21572291.820    21572291.235    21572294.492                   -15129975.152 8 -15129975.154 8                 -11789590.240 9       293.000         209.000         513.000                  
G26  21126044.830    21126043.934    21126047.833                   -17430492.726 8 -17430492.724 8                 -13582204.703 9       359.000         312.000         819.000                  
G28  19992794.469    19992794.252    19992794.835                   -25860618.315 9 -25860618.322 9                 -20151134.651 9       699.000         610.000         608.000                  
G29  22269395.938    22269395.369    22269395.808                   -13966763.476 8 -13966763.478 8                 -10883192.217 9       338.000         259.000         729.000                  
G31  19479212.027    19479211.735    19479211.197                   -27089523.373 9 -27089523.373 9                 -21108718.617 9       876.000        1701.000        1980.000                  
G32  24021605.989    24021604.668    24021608.960                    -4439721.522 7  -4439721.546 6                  -3459525.405 7        81.000          29.000          89.000                  
> 2024 10 31 19 08 40.0000000  0 11
G03  21876049.551    21876049.462    21876052.537                    -9431738.148 8  -9431738.154 8                  -7349410.113 9       285.000         209.000         695.000                  
G04  22631351.609    22631351.901    22631353.231                    -1574185.048 8  -1574185.041 7                  -1226638.685 8       265.000          98.000         141.000                  
G06  23924264.293    23924263.534    23924266.187                    -4295694.315 7  -4295694.328 6                  -3347293.039 7        93.000          30.000          68.000                  
G11  24334628.989    24334629.212    24334629.728                    -3166171.980 8  -3166171.967 6                  -2467145.172 6       147.000          22.000          40.000                  
G12  25615079.050    25615078.615    25615079.032                     3858444.745 6   3858444.751 6                   3006554.032 6        49.000          20.000          19.000                  
G25  21573522.447    21573521.884    21573525.125                   -15123508.858 8 -15123508.859 8                 -11784551.719 8       290.000         202.000         495.000                  
G26  21085611.104    21085610.401    21085614.125                   -17642973.623 8 -17642973.622 8                 -13747774.285 9       384.000         351.000         854.000                  
G28  19967116.072    19967115.910    19967116.324                   -25995559.289 9 -25995559.297 9                 -20256283.494 9       712.000         626.000         610.000                  
G29  22224564.261    22224563.726    22224564.346                   -14202354.885 8 -14202354.887 8                 -11066770.044 9       349.000         276.000         737.000                  
G31  19473193.489    19473193.135    19473192.622                   -27121151.885 9 -27121151.885 9                 -21133364.369 9       861.000        1644.000        1951.000                  
G32  23959161.888    23959160.434    23959165.123                    -4767865.415 7  -4767865.401 6                  -3715221.917 7        86.000          22.000          90.000                  
> 2024 10 31 19 08 50.0000000  0 10
G03  21910719.037    21910718.679    21910721.898                    -9249550.807 8  -9249550.810 8                  -7207446.153 9       290.000         214.000         680.000                  
G04  22683405.350    22683404.771    22683406.328                    -1300644.465 8  -1300644.461 8                  -1013490.260 8       266.000         102.000         136.000                  
G06  23995125.669    23995123.674    23995126.798                    -3923321.192 7  -3923321.188 6                  -3057132.289 7        90.000          28.000          57.000                  
G11  24370840.196    24370839.022    24370840.048                    -2975886.621 8  -2975886.618 6                  -2318870.881 6       143.000          30.000          36.000                  
G25  21575524.582    21575523.293    21575526.569                   -15112991.775 8 -15112991.773 8                 -11776356.755 8       291.000         196.000         482.000                  
G26  21045846.491    21045845.801    21045849.458                   -17851938.537 8 -17851938.536 8                 -13910604.089 9       401.000         374.000         923.000                  
G28  19942227.332    19942227.081    19942227.525                   -26126351.567 9 -26126351.575 9                 -20358199.636 9       721.000         641.000         627.000                  
G29  22180517.948    22180517.361    22180518.024                   -14433821.174 8 -14433821.174 8                 -11247133.522 9       353.000         286.000         712.000                  
G31  19468012.977    19468012.673    19468012.397                   -27148375.215 9 -27148375.215 9                 -21154577.436 9       840.000        1566.000        1947.000                  
G32  23896854.959    23896853.805    23896857.805                    -5095290.918 7  -5095290.934 6                  -3970358.670 8        96.000          30.000         101.000                  
> 2024 10 31 19 09  0.0000000  0 10
G03  21945772.651    21945772.231    21945775.158                    -9065344.763 8  -9065344.767 8                  -7063909.072 9       289.000         224.000         668.000                  
G04  22735721.868    22735721.863    22735723.451                    -1025717.425 8  -1025717.424 8                   -799261.488 8       264.000         103.000         125.000                  
G06  24066281.047    24066277.907    24066280.907                    -3549406.885 7  -3549406.878 6                  -2765770.617 6        86.000          28.000          49.000                  
G11  24407572.718    24407571.422    24407572.778                    -2782855.568 8  -2782855.573 6                  -2168457.056 6       141.000          34.000          34.000                  
G25  21578297.246    21578296.234    21578299.700                   -15098419.801 8 -15098419.805 8                 -11765002.123 8       286.000         199.000         465.000                  
G26  21006763.068    21006762.612    21006766.348                   -18057321.965 8 -18057321.964 8                 -14070643.132 9       415.000         397.000         970.000                  
G28  19918135.744    19918135.469    19918135.937                   -26252954.536 9 -26252954.545 9                 -20456851.422 9       729.000         654.000         641.000                  
G29  22137269.206    22137268.822    22137269.309                   -14661094.626 8 -14661094.628 8                 -11424229.822 9       353.000         280.000         695.000                  
G31  19463675.543    19463675.359    19463674.988                   -27171168.871 9 -27171168.871 9                 -21172338.802 9       845.000        1570.000        1960.000                  
G32  23834692.389    23834692.877    23834696.628                    -5421951.640 8  -5421951.652 6                  -4224899.467 8       101.000          29.000         105.000                  
> 2024 10 31 19 09 10.0000000  0 10
G03  21981199.041    21981198.924    21981202.150                    -8879175.923 8  -8879175.925 8                  -6918842.547 9       297.000         229.000         681.000                  
G04  22788292.655    22788291.955    22788293.769                     -749458.856 8   -749458.849 8                   -583995.206 8       264.000         104.000         132.000                  
G06  24137709.881    24137708.744    24137712.579                    -3174032.313 7  -3174032.314 6                  -2473271.134 6        81.000          28.000          47.000                  
G11  24444817.528    24444815.957    24444817.118                    -2587134.894 8  -2587134.897 6                  -2015947.412 6       140.000          22.000          35.000                  
G25  21581835.097    21581834.172    21581837.564                   -15079828.986 8 -15079828.986 8                 -11750515.948 8       287.000         203.000         479.000                  
G26  20968366.240    20968365.849    20968369.613                   -18259097.947 8 -18259097.946 8                 -14227871.195 9       430.000         426.000         994.000                  
G28  19894841.415    19894841.074    19894841.722                   -26375367.464 9 -26375367.473 9                 -20552238.238 9       723.000         643.000         660.000                  
G29  22094823.940    22094823.183    22094823.887                   -14884147.500 8 -14884147.500 8                 -11598037.291 9       354.000         279.000         677.000                  
G31  19460178.152    19460177.891    19460177.503                   -27189548.116 9 -27189548.116 9                 -21186660.295 9       840.000        1557.000        1953.000                  
G32  23772678.017    23772678.082    23772681.775                    -5747840.176 8  -5747840.173 6                  -4478838.550 8       108.000          28.000         116.000                  
> 2024 10 31 19 09 20.0000000  0 10
G03  22016999.897    22017000.098    22017003.097                    -8691041.000 8  -8691040.998 8                  -6772243.976 9       297.000         225.000         678.000                  
G04  22841117.006    22841116.463    22841118.597                     -471864.606 8   -471864.602 7                   -367688.170 8       249.000          97.000         120.000                  
G06  24209413.780    24209414.064    24209417.870                    -2797219.112 7  -2797219.127 6                  -2179650.603 6        75.000          31.000          47.000                  
G11  24482573.996    24482572.619    24482573.807                    -2388722.309 8  -2388722.302 6                  -1861340.218 6       142.000          26.000          30.000                  
G25  21586141.865    21586140.888    21586144.423                   -15057197.316 8 -15057197.318 8                 -11732881.026 8       289.000         199.000         486.000                  
G26  20930672.010    20930671.608    20930675.494                   -18457181.917 8 -18457181.916 8                 -14382222.319 9       425.000         427.000        1034.000                  
G28  19872355.589    19872355.306    19872355.822                   -26493531.452 9 -26493531.461 9                 -20644314.087 9       723.000         646.000         663.000                  
G29  22053197.735    22053197.346    22053197.795                   -15102894.149 8 -15102894.150 8                 -11768489.269 9       355.000         281.000         652.000                  
G31  19457528.712    19457528.591    19457528.160                   -27203470.724 9 -27203470.723 9                 -21197509.132 9       837.000        1552.000        1976.000                  
G32  23710823.173    23710822.992    23710826.666                    -6072890.090 8  -6072890.105 6                  -4732124.156 8       112.000          37.000         127.000                  
> 2024 10 31 19 09 30.0000000  0 10
G03  22053163.592    22053163.111    22053166.223                    -8501002.803 8  -8501002.805 8                  -6624162.324 9       300.000         226.000         675.000                  
G04  22894183.822    22894183.480    22894185.619                     -192996.289 8   -192996.282 7                   -150388.364 8       249.000          85.000         115.000                  
G06  24281376.466    24281377.320    24281380.184                    -2419054.720 7  -2419054.709 6                  -1884977.200 6        70.000          26.000          39.000                  
G11  24520830.267    24520829.595    24520830.875                    -2187681.541 8  -2187681.540 6                  -1704685.139 6       138.000          32.000          29.000                  
G25  21591208.776    21591208.047    21591211.486                   -15030569.697 8 -15030569.698 8                 -11712132.354 8       295.000         209.000         480.000                  
G26  20893684.072    20893683.440    20893687.330                   -18651555.925 8 -18651555.924 8                 -14533682.573 9       436.000         448.000        1051.000                  
G28  19850676.514    19850676.363    19850676.887                   -26607454.584 9 -26607454.593 9                 -20733085.302 9       717.000         639.000         655.000                  
G29  22012394.621    22012394.148    22012394.643                   -15317315.485 8 -15317315.487 8                 -11935570.871 9       355.000         273.000         618.000                  
G31  19455722.895    19455722.662    19455722.321                   -27212960.906 9 -27212960.905 9                 -21204904.067 9       834.000        1541.000        2018.000                  
G32  23649128.397    23649127.778    23649131.202                    -6397100.706 8  -6397100.688 6                  -4984755.760 8       117.000          41.000         138.000                  
> 2024 10 31 19 09 40.0000000  0 11
G03  22089686.837    22089686.720    22089689.576                    -8309071.218 8  -8309071.219 8                  -6474605.318 9       302.000         230.000         665.000                  
G04  22947491.628    22947491.201    22947493.288                       87137.563 8     87137.570 7                     67897.591 8       241.000          89.000         113.000                  
G06  24353590.886    24353589.637    24353593.485                    -2039573.261 7  -2039573.253 6                  -1589277.545 6        62.000          22.000          31.000                  
G11  24559585.144    24559584.926    24559586.013                    -1984023.845 8  -1984023.854 6                  -1545990.856 6       137.000          34.000          27.000                  
G16  24247623.657    24247636.347    24247652.985                     -204948.836 7   -204948.831 6                   -159702.995 6        77.000          17.000          17.000                  
G25  21597037.246    21597037.034    21597040.541                   -14999938.915 8 -14999938.915 8                 -11688264.299 8       283.000         203.000         491.000                  
G26  20857415.303    20857414.817    20857418.512                   -18842149.361 8 -18842149.360 8                 -14682196.927 9       462.000         499.000        1054.000                  
G28  19829813.030    19829812.954    19829813.458                   -26717093.143 9 -26717093.152 9                 -20818518.036 9       711.000         636.000         664.000                  
G29  21972428.567    21972427.828    21972428.307                   -15527340.004 8 -15527340.006 8                 -12099226.392 9       349.000         267.000         605.000                  
G31  19454765.790    19454765.418    19454765.234                   -27217991.420 9 -27217991.419 9                 -21208824.015 9       841.000        1546.000        2102.000                  
G32  23587602.547    23587602.577    23587606.278                    -6720418.023 8  -6720418.042 6                  -5236691.281 8       118.000          40.000         146.000                  
> 2024 10 31 19 09 50.0000000  0 11
G03  22126562.369    22126562.269    22126565.120                    -8115289.498 8  -8115289.501 8                  -6323606.691 9       300.000         238.000         662.000                  
G04  23001032.409    23001032.374    23001033.961                      368495.268 8    368495.284 7                    287137.297 8       234.000          78.000         104.000                  
G06  24426043.202    24426040.329    24426044.300                    -1658841.762 7  -1658841.758 6                  -1292603.815 6        56.000          24.000          29.000                  
G11  24598829.894    24598828.270    24598829.423                    -1777794.434 8  -1777794.421 6                  -1385292.700 6       134.000          21.000          31.000                  
G16  24204934.106    24204941.594    24204948.627                     -429291.280 7   -429291.261 6                   -334513.935 6        78.000          22.000          18.000                  
G25  21603623.280    21603622.405    21603626.086                   -14965332.106 8 -14965332.109 8                 -11661298.028 9       284.000         194.000         518.000                  
G26  20821873.198    20821872.506    20821876.290                   -19028925.534 8 -19028925.533 9                 -14827736.803 9       477.000         544.000        1058.000                  
G28  19809766.844    19809766.686    19809767.238                   -26822436.863 9 -26822436.872 9                 -20900604.093 9       711.000         633.000         686.000                  
G29  21933305.527    21933305.255    21933305.861                   -15732930.389 8 -15732930.389 8                 -12259426.718 9       353.000         279.000         610.000                  
G31  19454655.688    19454655.539    19454655.307                   -27218568.925 9 -27218568.925 9                 -21209274.058 9       841.000        1559.000        2115.000                  
G32  23526251.371    23526251.068    23526254.803                    -7042821.337 8  -7042821.342 6                  -5487914.593 8       127.000          42.000         150.000                  
> 2024 10 31 19 10  0.0000000  0 10
G03  22163781.794    22163782.025    22163784.765                    -7919698.449 8  -7919698.449 8                  -6171198.044 9       297.000         226.000         633.000                  
G04  23054798.390    23054797.877    23054800.048                      651036.768 8    651036.779 7                    507299.328 7       227.000          76.000          93.000                  
G11  24638554.992    24638553.662    24638555.405                    -1569036.500 8  -1569036.507 6                  -1222624.268 6       131.000          28.000          22.000                  
G16  24162495.633    24162501.278    24162526.853                     -652298.891 7   -652298.873 6                   -508287.408 6        82.000          22.000          18.000                  
G25  21610960.470    21610959.822    21610963.237                   -14926775.195 8 -14926775.195 8                 -11631253.743 9       284.000         195.000         507.000                  
G26  20787064.395    20787063.859    20787067.634                   -19211846.248 8 -19211846.248 9                 -14970272.429 9       487.000         561.000        1043.000                  
G28  19790540.221    19790539.842    19790540.299                   -26923474.544 9 -26923474.553 9                 -20979334.723 9       707.000         626.000         690.000                  
G29  21895033.969    21895033.705    21895034.475                   -15934048.066 8 -15934048.069 8                 -12416141.765 9       343.000         274.000         618.000                  
G31  19455392.352    19455392.029    19455391.599                   -27214699.140 9 -27214699.140 9                 -21206258.644 9       860.000        1623.000        2037.000                  
G32  23465078.280    23465078.323    23465081.550                    -7364287.581 8  -7364287.592 6                  -5738407.717 8       135.000          41.000         161.000                  
> 2024 10 31 19 10 10.0000000  0 10
G03  22201344.847    22201344.664    22201347.551                    -7722305.065 8  -7722305.064 8                  -6017385.083 9       296.000         225.000         636.000                  
G04  23108788.806    23108788.441    23108790.300                      934757.486 8    934757.490 7                    728380.268 7       219.000          74.000          95.000                  
G11  24678759.469    24678758.692    24678759.608                    -1357759.093 8  -1357759.112 6                  -1057992.680 6       128.000          27.000          26.000                  
G16  24120326.240    24120329.166    24120341.016                     -873904.401 7   -873904.383 6                   -680966.344 6        82.000          20.000          16.000                  
G25  21619051.073    21619050.056    21619053.587                   -14884260.289 8 -14884260.289 8                 -11598125.315 9       287.000         203.000         522.000                  
G26  20753003.252    20753002.617    20753006.384                   -19390839.097 8 -19390839.096 9                 -15109747.369 9       499.000         588.000        1029.000                  
G28  19772141.254    19772140.929    19772141.453                   -27020161.504 9 -27020161.513 9                 -21054675.225 9       709.000         618.000         734.000                  
G29  21857627.701    21857627.086    21857627.862                   -16130620.986 8 -16130620.990 8                 -12569315.514 9       355.000         277.000         623.000                  
G31  19456980.167    19456979.990    19456979.619                   -27206354.246 9 -27206354.246 9                 -21199756.160 9       857.000        1629.000        2050.000                  
G32  23404094.929    23404094.408    23404097.998                    -7684758.877 8  -7684758.883 7                  -5988125.573 8       145.000          59.000         171.000                  
> 2024 10 31 19 10 20.0000000  0 10
G03  22239242.967    22239243.080    22239245.814                    -7523148.872 8  -7523148.875 8                  -5862198.522 9       290.000         215.000         628.000                  
G04  23162997.191    23162996.077    23162997.996                     1219619.507 8   1219619.514 7                    950350.565 7       215.000          72.000          79.000                  
G11  24719434.997    24719435.493    24719435.866                    -1144004.474 8  -1144004.485 6                   -891430.729 6       123.000          28.000          28.000                  
G16  24078427.717    24078430.220    24078454.624                    -1094073.616 7  -1094073.625 6                   -852527.334 6        80.000          20.000          20.000                  
G25  21627889.451    21627888.591    21627892.251                   -14837813.587 8 -14837813.587 8                 -11561933.121 9       284.000         196.000         520.000                  
G26  20719696.779    20719696.245    20719699.901                   -19565865.519 9 -19565865.518 9                 -15246131.578 9       514.000         618.000         971.000                  
G28  19754572.255    19754571.977    19754572.540                   -27112486.800 9 -27112486.812 9                 -21126617.002 9       707.000         623.000         758.000                  
G29  21821093.266    21821092.718    21821093.461                   -16322610.726 8 -16322610.728 8                 -12718917.910 9       368.000         293.000         612.000                  
G31  19459418.620    19459418.336    19459418.038                   -27193540.494 9 -27193540.494 9                 -21189771.452 9       850.000        1589.000        2022.000                  
G32  23343305.462    23343304.534    23343308.492                    -8004210.337 8  -8004210.347 7                  -6237048.747 8       160.000          64.000         179.000                  
> 2024 10 31 19 10 30.0000000  0 10
G03  22277469.056    22277468.861    22277471.847                    -7322270.005 8  -7322270.005 8                  -5705669.624 9       282.000         212.000         607.000                  
G04  23217413.806    23217413.562    23217415.162                     1505584.520 8   1505584.548 7                   1173180.349 7       210.000          61.000          82.000                  
G11  24760575.974    24760574.879    24760576.037                     -927816.081 8   -927816.060 6                   -722972.293 6       122.000          26.000          22.000                  
G16  24036810.986    24036811.699    24036819.503                    -1312772.644 7  -1312772.628 6                  -1022940.406 6        79.000          19.000          21.000                  
G25  21637471.320    21637470.153    21637473.820                   -14787462.621 8 -14787462.618 8                 -11522698.666 9       284.000         194.000         524.000                  
G26  20687152.307    20687151.872    20687155.353                   -19736888.029 9 -19736888.028 9                 -15379395.861 9       529.000         661.000         958.000                  
G28  19737835.202    19737834.694    19737835.429                   -27200441.001 9 -27200441.010 9                 -21195152.754 9       700.000         617.000         774.000                  
G29  21785437.946    21785437.545    21785438.210                   -16509980.354 8 -16509980.355 8                 -12864920.197 9       371.000         306.000         584.000                  
G31  19462705.988    19462705.651    19462705.308                   -27176265.592 9 -27176265.592 9                 -21176310.484 9       847.000        1577.000        1987.000                  
G32  23282715.093    23282714.076    23282717.671                    -8322617.289 8  -8322617.297 7                  -6485158.020 8       175.000          73.000         180.000                  
> 2024 10 31 19 10 40.0000000  0 10
G03  22316016.295    22316016.324    22316019.333                    -7119702.280 8  -7119702.280 8                  -5547824.700 9       279.000         197.000         595.000                  
G04  23272035.300    23272034.526    23272036.236                     1792620.454 8   1792620.465 7                   1396844.534 7       205.000          60.000          71.000                  
G11  24802170.844    24802170.499    24802171.235                     -709231.498 8   -709231.516 6                   -552646.822 6       117.000          30.000          26.000                  
G16  23995483.792    23995481.360    23995482.768                    -1529961.544 7  -1529961.561 6                  -1192178.344 6        82.000          22.000          25.000                  
G25  21647791.335    21647790.387    21647794.192                   -14733229.498 8 -14733229.496 8                 -11480439.157 9       284.000         199.000         521.000                  
G26  20655377.977    20655377.475    20655381.029                   -19903863.501 9 -19903863.500 9                 -15509506.606 9       535.000         670.000         996.000                  
G28  19721932.673    19721932.285    19721932.970                   -27284009.247 9 -27284009.257 9                 -21260270.867 9       698.000         609.000         790.000                  
G29  21750670.013    21750669.340    21750670.111                   -16692687.749 8 -16692687.749 8                 -13007289.596 9       386.000         332.000         556.000                  
G31  19466841.571    19466841.382    19466841.088                   -27154532.123 9 -27154532.122 9                 -21159375.321 9       845.000        1575.000        1947.000                  
G32  23222329.136    23222328.057    23222331.286                    -8639948.752 8  -8639948.757 7                  -6732429.265 8       192.000          85.000         191.000                  
> 2024 10 31 19 10 50.0000000  0 10
G03  22354881.675    22354881.989    22354884.963                    -6915461.344 8  -6915461.344 8                  -5388675.904 9       270.000         191.000         587.000                  
G04  23326857.714    23326857.053    23326858.333                     2080713.793 8   2080713.800 7                   1621332.629 7       198.000          53.000          69.000                  
G11  24844217.335    24844217.524    24844218.749                     -488269.651 8   -488269.667 6                   -380468.727 6       111.000          23.000          22.000                  
G16  23954450.312    23954450.177    23954451.130                    -1745581.982 7  -1745582.002 6                  -1360194.181 6        87.000          22.000          23.000                  
G25  21658849.336    21658848.485    21658852.184                   -14675119.020 8 -14675119.022 8                 -11435158.326 9       279.000         195.000         523.000                  
G26  20624385.304    20624384.800    20624388.330                   -20066731.313 9 -20066731.311 9                 -15636416.577 9       543.000         693.000        1080.000                  
G28  19706870.798    19706870.471    19706871.270                   -27363159.515 9 -27363159.525 9                 -21321946.406 9       696.000         606.000         829.000                  
G29  21716800.327    21716799.868    21716800.402                   -16870673.540 8 -16870673.542 8                 -13145979.834 9       391.000         340.000         541.000                  
G31  19471828.621    19471828.390    19471828.098                   -27128325.374 9 -27128325.374 9                 -21138954.482 9       843.000        1571.000        1974.000                  
G32  23162156.349    23162156.321    23162159.195                    -8956155.260 8  -8956155.259 7                  -6978823.930 8       203.000         100.000         196.000                  
> 2024 10 31 19 11  0.0000000  0 10
G03  22394058.163    22394058.354    22394061.161                    -6709589.640 8  -6709589.641 8                  -5228256.464 9       266.000         180.000         577.000                  
G04  23381873.728    23381873.343    23381875.386                     2369824.730 8   2369824.731 7                   1846613.679 7       195.000          60.000          63.000                  
G11  24886708.758    24886708.269    24886710.991                     -264977.339 8   -264977.368 6                   -206474.807 6       106.000          18.000          19.000                  
G16  23913724.235    23913722.264    23913724.183                    -1959602.067 7  -1959602.060 6                  -1526963.001 6        89.000          22.000          28.000                  
G25  21670639.418    21670638.626    21670641.948                   -14613163.218 8 -14613163.219 8                 -11386881.126 9       283.000         197.000         503.000                  
G26  20594180.420    20594180.045    20594183.713                   -20225458.024 9 -20225458.025 9                 -15760099.718 9       540.000         685.000        1160.000                  
G28  19692650.466    19692650.319    19692651.032                   -27437887.151 9 -27437887.161 9                 -21380175.730 9       693.000         599.000         827.000                  
G29  21683835.732    21683834.924    21683835.279                   -17043905.719 8 -17043905.718 8                 -13280965.953 9       393.000         344.000         534.000                  
G31  19477664.477    19477664.212    19477663.764                   -27097658.210 9 -27097658.209 9                 -21115057.987 9       843.000        1561.000        1893.000                  
G32  23102202.869    23102202.545    23102205.627                    -9271213.666 8  -9271213.668 8                  -7224323.937 8       215.000         118.000         219.000                  
> 2024 10 31 19 11 10.0000000  0 10
G03  22433538.017    22433537.806    22433540.767                    -6502123.262 8  -6502123.266 8                  -5066594.418 9       263.000         179.000         560.000                  
G04  23437077.194    23437076.430    23437078.613                     2659919.480 8   2659919.477 7                   2072661.422 7       193.000          54.000          51.000                  
G11  24929635.332    24929635.292    24929637.949                      -39395.213 8    -39395.205 6                    -30696.573 6       101.000          25.000          24.000                  
G16  23873309.635    23873307.340    23873309.359                    -2171984.146 7  -2171984.150 6                  -1692455.454 6        89.000          22.000          32.000                  
G25  21683156.081    21683154.948    21683158.431                   -14547389.208 8 -14547389.209 8                 -11335628.699 8       288.000         200.000         487.000                  
G26  20564771.082    20564770.545    20564774.422                   -20380005.050 9 -20380005.049 9                 -15880525.958 9       523.000         642.000        1230.000                  
G28  19679273.700    19679273.489    19679274.235                   -27508182.600 9 -27508182.611 9                 -21434951.405 9       696.000         606.000         822.000                  
G29  21651781.708    21651781.387    21651782.021                   -17212347.511 8 -17212347.513 8                 -13412219.288 9       398.000         356.000         540.000                  
G31  19484347.489    19484347.233    19484346.760                   -27062538.482 9 -27062538.482 9                 -21087691.950 9       837.000        1535.000        1804.000                  
G32  23042473.103    23042472.840    23042475.844                    -9585094.895 8  -9585094.895 8                  -7468906.683 8       222.000         122.000         241.000                  
> 2024 10 31 19 11 20.0000000  0 10
G03  22473317.704    22473317.633    22473320.638                    -6293078.529 8  -6293078.531 8                  -4903702.454 9       260.000         173.000         545.000                  
G04  23492464.871    23492464.372    23492466.380                     2950983.979 8   2950983.993 6                   2299464.825 6       182.000          48.000          50.000                  
G11  24972995.233    24972993.944    24972995.300                      188455.702 7    188455.679 6                    146849.492 6       100.000          24.000          23.000                  
G16  23833215.769    23833214.347    23833216.755                    -2382670.636 7  -2382670.655 6                  -1856626.643 6        93.000          19.000          30.000                  
G25  21696397.359    21696396.207    21696399.922                   -14477804.963 8 -14477804.963 8                 -11281407.254 8       282.000         189.000         487.000                  
G26  20536168.094    20536167.608    20536171.430                   -20530314.644 9 -20530314.641 9                 -15997650.303 9       526.000         654.000        1308.000                  
G28  19666745.870    19666745.606    19666746.274                   -27574017.410 9 -27574017.419 9                 -21486251.258 9       702.000         620.000         831.000                  
G29  21620650.833    21620650.278    21620650.763                   -17375943.397 8 -17375943.398 8                 -13539696.600 9       400.000         358.000         546.000                  
G31  19491879.894    19491879.648    19491879.098                   -27022955.616 9 -27022955.615 9                 -21056848.164 9       830.000        1524.000        1830.000                  
G32  22982976.763    22982976.310    22982979.753                    -9897749.733 8  -9897749.734 8                  -7712533.795 8       227.000         128.000         266.000                  
> 2024 10 31 19 11 30.0000000  0 10
G03  22513390.077    22513389.945    22513393.128                    -6082496.693 8  -6082496.697 8                  -4739612.779 9       256.000         162.000         524.000                  
G04  23548029.830    23548029.719    23548031.095                     3242979.643 8   3242979.653 6                   2526993.846 6       177.000          42.000          40.000                  
G11  25016777.909    25016775.457    25016777.362                      418529.166 7    418529.166 6                    326127.386 6        93.000          21.000          20.000                  
G16  23793453.034    23793451.422    23793453.481                    -2591628.752 7  -2591628.752 6                  -2019451.123 6        96.000          20.000          28.000                  
G25  21710357.446    21710356.463    21710360.091                   -14404444.108 8 -14404444.104 8                 -11224242.992 8       269.000         180.000         463.000                  
G26  20508377.683    20508377.136    20508380.976                   -20676354.654 9 -20676354.654 9                 -16111447.709 9       537.000         678.000        1370.000                  
G28  19655067.329    19655067.028    19655067.717                   -27635388.893 9 -27635388.904 9                 -21534073.199 9       703.000         618.000         833.000                  
G29  21590447.340    21590446.849    21590447.303                   -17534663.650 8 -17534663.652 8                 -13663374.722 9       412.000         377.000         552.000                  
G31  19500258.823    19500258.517    19500258.038                   -26978924.460 9 -26978924.460 9                 -21022538.170 9       847.000        1569.000        1875.000                  
G32  22923718.635    22923718.097    22923721.646                   -10209153.644 8 -10209153.644 8                  -7955186.175 8       239.000         144.000         287.000                  
> 2024 10 31 19 11 40.0000000  0 10
G03  22553748.028    22553748.042    22553751.126                    -5870414.125 8  -5870414.128 8                  -4574353.679 9       250.000         158.000         512.000                  
G04  23603765.179    23603765.065    23603767.916                     3535872.485 8   3535872.493 6                   2755221.958 6       173.000          47.000          45.000                  
G11  25060973.750    25060971.861    25060973.737                      650783.436 7    650783.436 6                    507104.564 6        87.000          24.000          21.000                  
G16  23754025.548    23754024.196    23754025.903                    -2798821.107 7  -2798821.108 6                  -2180899.570 6        97.000          19.000          31.000                  
G25  21725030.201    21725029.486    21725033.156                   -14327336.454 8 -14327336.454 8                 -11164159.147 8       263.000         168.000         437.000                  
G26  20481406.402    20481405.963    20481409.770                   -20818089.175 9 -20818089.174 9                 -16221890.186 9       538.000         676.000        1394.000                  
G28  19644239.239    19644238.941    19644239.539                   -27692290.768 9 -27692290.779 9                 -21578412.328 9       704.000         616.000         815.000                  
G29  21561177.943    21561177.431    21561178.049                   -17688475.042 8 -17688475.043 8                 -13783227.751 9       424.000         404.000         592.000                  
G31  19509482.009    19509481.662    19509481.170                   -26930456.278 9 -26930456.278 9                 -20984770.745 9       840.000        1560.000        1873.000                  
G32  22864703.525    22864703.706    22864706.942                   -10519277.288 8 -10519277.288 8                  -8196840.942 8       250.000         160.000         308.000                  
> 2024 10 31 19 11 50.0000000  0 10
G03  22594388.838    22594388.745    22594391.658                    -5656846.446 8  -5656846.450 8                  -4407937.347 9       243.000         151.000         516.000                  
G04  23659669.404    23659669.121    23659671.692                     3829649.555 8   3829649.577 6                   2984139.012 6       164.000          42.000          41.000                  
G11  25105581.435    25105579.887    25105581.416                      885197.306 7    885197.299 6                    689764.558 6        88.000          25.000          24.000                  
G16  23714945.792    23714943.956    23714945.417                    -3004189.567 8  -3004189.548 6                  -2340926.860 6       102.000          24.000          30.000                  
G25  21740414.854    21740413.759    21740417.509                   -14246491.680 8 -14246491.680 8                 -11101163.261 8       257.000         158.000         440.000                  
G26  20455265.193    20455264.619    20455268.423                   -20955462.238 9 -20955462.236 9                 -16328934.126 9       539.000         687.000        1460.000                  
G28  19634266.620    19634266.410    19634266.963                   -27744696.899 9 -27744696.909 9                 -21619248.277 9       700.000         623.000         828.000                  
G29  21532852.884    21532852.271    21532852.948                   -17837324.687 8 -17837324.689 8                 -13899214.480 9       435.000         424.000         630.000                  
G31  19519551.123    19519550.789    19519550.299                   -26877542.660 9 -26877542.661 9                 -20943539.355 9       836.000        1544.000        1932.000                  
G32  22805942.372    22805942.196    22805945.343                   -10828070.323 8 -10828070.324 8                  -8437458.846 8       266.000         183.000         335.000                  
> 2024 10 31 19 12  0.0000000  0 10
G03  22635303.561    22635303.743    22635307.092                    -5441835.355 8  -5441835.357 8                  -4240396.238 9       241.000         152.000         515.000                  
G04  23715734.540    23715734.245    23715735.892                     4124272.020 8   4124272.028 6                   3213714.841 6       160.000          36.000          35.000                  
G11  25150590.661    25150589.154    25150590.389                     1121723.124 7   1121723.117 6                    874070.290 6        85.000          21.000          24.000                  
G16  23676217.976    23676215.998    23676218.182                    -3207702.200 8  -3207702.198 6                  -2499508.121 6       105.000          20.000          32.000                  
G25  21756502.700    21756502.334    21756505.842                   -14161946.533 8 -14161946.534 8                 -11035283.967 8       257.000         161.000         428.000                  
G26  20429959.486    20429958.958    20429962.701                   -21088444.936 9 -21088444.936 9                 -16432557.003 9       558.000         734.000        1467.000                  
G28  19625149.462    19625149.192    19625149.672                   -27792608.347 9 -27792608.356 9                 -21656581.885 9       712.000         632.000         818.000                  
G29  21505476.634    21505476.194    21505476.782                   -17981187.058 8 -17981187.059 8                 -14011315.027 9       434.000         428.000         638.000                  
G31  19530462.651    19530462.308    19530461.808                   -26820202.292 9 -26820202.291 9                 -20898858.553 9       836.000        1523.000        1912.000                  
G32  22747439.047    22747438.731    22747442.069                   -11135508.532 8 -11135508.533 8                  -8677021.050 8       280.000         201.000         352.000                  
> 2024 10 31 19 12 10.0000000  0 10
G03  22676487.011    22676486.969    22676490.210                    -5225416.632 8  -5225416.633 8                  -4071758.284 9       243.000         156.000         504.000                  
G04  23771953.731    23771953.608    23771955.467                     4419707.090 8   4419707.082 6                   3443923.879 6       155.000          35.000          34.000                  
G11  25195993.103    25195992.495    25195993.155                     1360318.974 7   1360318.987 6                   1059988.990 6        85.000          20.000          23.000                  
G16  23637851.882    23637848.962    23637850.926                    -3409321.172 8  -3409321.178 6                  -2656613.695 6       105.000          22.000          33.000                  
G25  21773289.567    21773288.784    21773292.591                   -14073732.430 8 -14073732.427 8                 -10966545.740 8       253.000         156.000         417.000                  
G26  20405495.545    20405495.129    20405498.891                   -21217003.278 9 -21217003.277 9                 -16532732.326 9       563.000         752.000        1473.000                  
G28  19616888.176    19616887.971    19616888.560                   -27836021.192 9 -27836021.202 9                 -21690410.083 9       718.000         652.000         827.000                  
G29  21479055.400    21479054.928    21479055.524                   -18120031.917 8 -18120031.916 8                 -14119505.827 9       443.000         443.000         677.000                  
G31  19542213.843    19542213.583    19542213.149                   -26758448.819 9 -26758448.819 9                 -20850738.970 9       825.000        1503.000        1886.000                  
G32  22689199.157    22689198.750    22689201.964                   -11441561.531 8 -11441561.532 8                  -8915503.862 8       300.000         220.000         374.000                  
> 2024 10 31 19 12 20.0000000  0 10
G03  22717934.712    22717934.889    22717938.283                    -5007606.281 8  -5007606.287 8                  -3902035.962 9       245.000         149.000         517.000                  
G04  23828325.916    23828325.584    23828327.077                     4715941.660 8   4715941.657 6                   3674755.923 6       149.000          35.000          23.000                  
G11  25241786.859    25241785.888    25241787.113                     1600962.419 7   1600962.445 6                   1247503.268 6        80.000          20.000          25.000                  
G16  23599856.002    23599853.661    23599855.403                    -3608989.105 8  -3608989.079 6                  -2812199.062 6       107.000          23.000          32.000                  
G25  21790772.245    21790771.261    21790775.013                   -13981861.971 8 -13981861.969 8                 -10894958.409 8       254.000         161.000         405.000                  
G26  20381883.833    20381883.147    20381886.958                   -21341084.509 9 -21341084.508 9                 -16629418.990 9       569.000         752.000        1429.000                  
G28  19609487.373    19609487.039    19609487.688                   -27874912.894 9 -27874912.904 9                 -21720715.307 9       726.000         670.000         839.000                  
G29  21453598.182    21453597.748    21453598.340                   -18253810.504 8 -18253810.505 8                 -14223748.875 9       448.000         454.000         714.000                  
G31  19554805.821    19554805.603    19554805.172                   -26692277.278 9 -26692277.278 9                 -20799176.740 9       813.000        1452.000        1929.000                  
G32  22631232.265    22631231.869    22631235.138                   -11746179.133 8 -11746179.135 8                  -9152868.186 8       312.000         245.000         410.000                  
> 2024 10 31 19 12 30.0000000  0 10
G03  22759640.386    22759639.968    22759643.124                    -4788445.611 8  -4788445.612 8                  -3731261.457 8       246.000         155.000         496.000                  
G04  23884842.302    23884841.885    23884843.765                     5012937.436 8   5012937.449 6                   3906181.107 6       143.000          28.000          32.000                  
G11  25287960.505    25287959.120    25287962.020                     1843605.316 7   1843605.329 6                   1436575.482 6        75.000          21.000          22.000                  
G16  23562237.802    23562235.570    23562237.597                    -3806674.169 8  -3806674.157 6                  -2966239.296 6       108.000          20.000          34.000                  
G25  21808942.308    21808942.116    21808945.734                   -13886373.815 8 -13886373.816 8                 -10820552.096 8       251.000         150.000         411.000                  
G26  20359128.894    20359128.427    20359131.992                   -21460662.198 9 -21460662.198 9                 -16722596.406 9       581.000         791.000        1326.000                  
G28  19602946.337    19602945.912    19602946.465                   -27909287.334 9 -27909287.345 9                 -21747500.594 9       727.000         675.000         851.000                  
G29  21429109.340    21429108.816    21429109.429                   -18382500.772 8 -18382500.773 8                 -14324027.005 9       451.000         458.000         725.000                  
G31  19568234.660    19568234.238    19568233.935                   -26621709.147 9 -26621709.147 9                 -20744188.592 9       802.000        1421.000        1908.000                  
G32  22573543.110    22573542.887    22573546.228                   -12049336.483 8 -12049336.482 8                  -9389094.665 8       312.000         244.000         418.000                  
> 2024 10 31 19 12 40.0000000  0 10
G03  22801595.345    22801594.984    22801598.263                    -4567970.511 8  -4567970.513 8                  -3559462.731 8       249.000         160.000         484.000                  
G04  23941496.301    23941497.254    23941499.155                     5310661.516 8   5310661.505 6                   4138173.767 6       136.000          37.000          24.000                  
G11  25334506.290    25334504.436    25334506.184                     2088204.757 7   2088204.764 6                   1627172.384 6        74.000          22.000          20.000                  
G16  23525002.685    23525001.710    23525004.755                    -4002339.126 8  -4002339.139 6                  -3118705.464 6       112.000          17.000          33.000                  
G25  21827795.571    21827794.530    21827798.588                   -13787302.012 8 -13787302.008 8                 -10743353.337 8       243.000         143.000         412.000                  
G26  20337236.853    20337236.431    20337239.927                   -21575705.553 9 -21575705.552 9                 -16812240.580 9       574.000         776.000        1257.000                  
G28  19597264.539    19597264.326    19597265.028                   -27939144.081 9 -27939144.091 9                 -21770765.603 9       731.000         694.000         869.000                  
G29  21405593.809    21405593.031    21405593.646                   -18506076.578 8 -18506076.579 8                 -14420319.833 9       448.000         449.000         735.000                  
G31  19582496.591    19582496.260    19582496.043                   -26546761.444 9 -26546761.443 9                 -20685787.794 9       780.000        1348.000        1918.000                  
G32  22516137.857    22516137.481    22516140.846                   -12351003.118 8 -12351003.117 8                  -9624159.524 8       309.000         240.000         445.000                  
> 2024 10 31 19 12 50.0000000  0 10
G03  22843797.509    22843797.608    22843800.532                    -4346195.966 8  -4346195.963 8                  -3386651.462 8       247.000         157.000         488.000                  
G04  23998287.692    23998288.801    23998290.231                     5609102.148 8   5609102.145 6                   4370724.820 6       127.000          29.000          29.000                  
G11  25381420.558    25381417.815    25381421.860                     2334738.476 7   2334738.510 6                   1819275.090 6        72.000          18.000          16.000                  
G16  23488164.986    23488163.880    23488165.961                    -4195926.064 8  -4195926.070 6                  -3269552.359 6       118.000          21.000          41.000                  
G25  21847327.206    21847326.680    21847330.640                   -13684660.403 8 -13684660.404 8                 -10663372.897 8       239.000         140.000         429.000                  
G26  20316217.409    20316216.893    20316220.382                   -21686163.868 9 -21686163.869 9                 -16898311.979 9       562.000         738.000        1271.000                  
G28  19592446.547    19592446.284    19592446.950                   -27964462.887 9 -27964462.896 9                 -21790494.558 9       736.000         693.000         897.000                  
G29  21383059.964    21383059.335    21383059.971                   -18624492.163 8 -18624492.163 8                 -14512591.708 9       450.000         458.000         743.000                  
G31  19597592.606    19597592.274    19597592.132                   -26467431.384 9 -26467431.384 9                 -20623972.172 9       777.000        1322.000        1911.000                  
G32  22459025.907    22459025.601    22459028.969                   -12651127.753 8 -12651127.753 8                  -9858022.845 8       310.000         242.000         479.000                  
> 2024 10 31 19 13  0.0000000  0 10
G03  22886239.060    22886239.178    22886242.271                    -4123163.380 8  -4123163.380 8                  -3212859.895 8       245.000         157.000         473.000                  
G04  24055208.170    24055209.402    24055210.360                     5908221.052 8   5908221.051 6                   4603804.368 6       123.000          25.000          30.000                  
G11  25428692.626    25428691.093    25428693.519                     2583157.538 7   2583157.543 6                   2012847.434 6        70.000          20.000          21.000                  
G16  23451727.430    23451726.398    23451729.373                    -4387403.761 8  -4387403.756 6                  -3418755.728 6       116.000          21.000          35.000                  
G25  21867531.175    21867530.514    21867534.354                   -13578490.107 8 -13578490.109 8                 -10580642.829 8       239.000         138.000         422.000                  
G26  20296074.726    20296074.202    20296077.877                   -21792014.060 9 -21792014.060 9                 -16980792.642 9       557.000         731.000        1308.000                  
G28  19588490.727    19588490.454    19588491.132                   -27985251.052 9 -27985251.061 9                 -21806693.128 9       740.000         697.000         904.000                  
G29  21361511.430    21361510.958    21361511.592                   -18737729.649 8 -18737729.651 8                 -14600828.699 9       456.000         459.000         749.000                  
G31  19613517.834    19613517.574    19613517.351                   -26383743.655 9 -26383743.655 9                 -20558760.966 9       772.000        1325.000        1793.000                  
G32  22402212.451    22402211.831    22402215.196                   -12949685.535 8 -12949685.537 8                 -10090665.283 8       315.000         259.000         499.000                  
> 2024 10 31 19 13 10.0000000  0 10
G03  22928913.767    22928913.471    22928916.695                    -3898908.336 8  -3898908.335 8                  -3038115.764 8       241.000         148.000         456.000                  
G04  24112252.349    24112252.612    24112254.785                     6207985.967 8   6207985.958 6                   4837387.370 6       115.000          25.000          29.000                  
G11  25476316.445    25476314.306    25476317.734                     2833418.515 7   2833418.492 6                   2207855.855 6        69.000          18.000          21.000                  
G16  23415699.431    23415698.093    23415699.346                    -4576735.267 8  -4576735.290 6                  -3566286.740 6       118.000          23.000          37.000                  
G25  21888399.631    21888398.466    21888402.400                   -13468827.172 8 -13468827.174 8                 -10495191.220 8       238.000         134.000         439.000                  
G26  20276814.300    20276813.747    20276817.387                   -21893228.212 9 -21893228.211 9                 -17059660.800 9       552.000         709.000        1362.000                  
G28  19585396.613    19585396.211    19585396.916                   -28001511.236 9 -28001511.245 9                 -21819363.416 9       743.000         713.000         930.000                  
G29  21340952.784    21340952.189    21340952.681                   -18845766.856 8 -18845766.858 8                 -14685013.534 9       463.000         475.000         740.000                  
G31  19630268.635    19630268.245    19630268.094                   -26295718.105 9 -26295718.106 9                 -20490169.638 9       767.000        1304.000        1753.000                  
G32  22345702.439    22345702.269    22345705.689                   -13246645.505 8 -13246645.507 8                 -10322062.650 9       321.000         255.000         545.000                  
> 2024 10 31 19 13 20.0000000  0 10
G03  22971817.639    22971817.798    22971820.903                    -3673445.784 8  -3673445.782 8                  -2862430.720 8       240.000         146.000         455.000                  
G04  24169416.981    24169416.422    24169419.022                     6508385.166 8   6508385.177 6                   5071464.496 6       111.000          24.000          25.000                  
G11  25524285.080    25524284.202    25524285.891                     3085498.525 7   3085498.508 6                   2404281.660 6        66.000          19.000          21.000                  
G16  23380090.152    23380088.772    23380090.077                    -4763863.468 8  -4763863.495 6                  -3712100.881 6       120.000          20.000          42.000                  
G25  21909928.764    21909928.196    21909931.960                   -13355687.704 8 -13355687.710 8                 -10407030.620 8       230.000         134.000         437.000                  
G26  20258444.887    20258444.434    20258448.205                   -21989758.994 9 -21989758.994 9                 -17134879.589 9       540.000         693.000        1409.000                  
G28  19583167.029    19583166.860    19583167.607                   -28013226.486 9 -28013226.495 9                 -21828492.186 9       756.000         733.000         934.000                  
G29  21321391.419    21321390.775    21321391.293                   -18948562.217 8 -18948562.217 8                 -14765113.803 9       469.000         487.000         724.000                  
G31  19647844.767    19647844.444    19647844.279                   -26203354.923 9 -26203354.923 9                 -20418198.334 9       767.000        1315.000        1722.000                  
G32  22289506.555    22289506.451    22289509.894                   -13541956.201 8 -13541956.202 8                 -10552174.848 9       327.000         271.000         573.000                  
> 2024 10 31 19 13 30.0000000  0 10
G03  23014944.031    23014943.855    23014947.149                    -3446816.522 8  -3446816.526 8                  -2685836.549 8       234.000         143.000         422.000                  
G04  24226694.620    24226694.380    24226695.769                     6809381.238 8   6809381.244 6                   5306006.844 6       102.000          25.000          25.000                  
G11  25572590.045    25572590.774    25572592.525                     3339348.367 7   3339348.377 6                   2602086.595 6        66.000          21.000          22.000                  
G16  23344905.114    23344903.945    23344907.555                    -4948757.265 8  -4948757.248 6                  -3856173.949 6       122.000          19.000          41.000                  
G25  21932112.284    21932111.583    21932115.348                   -13239114.419 8 -13239114.418 8                 -10316194.326 8       229.000         128.000         416.000                  
G26  20240970.881    20240970.384    20240974.195                   -22081586.068 9 -22081586.067 9                 -17206433.153 9       553.000         713.000        1449.000                  
G28  19581801.027    19581800.598    19581801.238                   -28020406.956 9 -28020406.965 9                 -21834087.366 9       769.000         750.000         911.000                  
G29  21302830.231    21302829.614    21302830.314                   -19046101.500 8 -19046101.503 8                 -14841118.438 9       474.000         488.000         733.000                  
G31  19666241.160    19666240.865    19666240.616                   -26106681.358 9 -26106681.358 9                 -20342868.297 9       767.000        1301.000        1651.000                  
G32  22233629.790    22233629.360    22233632.833                   -13835592.117 8 -13835592.117 8                 -10780982.048 9       330.000         280.000         591.000                  
> 2024 10 31 19 13 40.0000000  0 10
G03  23058285.298    23058285.421    23058288.435                    -3219055.918 8  -3219055.917 8                  -2508360.811 8       225.000         135.000         428.000                  
G04  24284079.648    24284079.154    24284082.377                     7110942.173 7   7110942.172 6                   5540989.222 6        97.000          26.000          22.000                  
G11  25621224.439    25621224.658    25621227.007                     3594924.223 7   3594924.218 6                   2801236.366 6        59.000          26.000          22.000                  
G16  23310154.362    23310152.172    23310154.288                    -5131380.273 8  -5131380.292 6                  -3998477.544 6       121.000          18.000          39.000                  
G25  21954941.783    21954940.934    21954944.798                   -13119145.282 8 -13119145.282 8                 -10222711.911 8       222.000         123.000         423.000                  
G26  20224396.794    20224396.080    20224399.832                   -22168684.822 9 -22168684.821 9                 -17274302.311 9       569.000         756.000        1489.000                  
G28  19581296.301    19581296.015    19581296.666                   -28023058.453 9 -28023058.461 9                 -21836153.484 9       772.000         767.000         919.000                  
G29  21285272.683    21285272.132    21285272.805                   -19138366.832 8 -19138366.834 9                 -14913013.501 9       479.000         506.000         744.000                  
G31  19685453.360    19685453.091    19685452.863                   -26005720.108 9 -26005720.109 9                 -20264197.204 9       758.000        1249.000        1636.000                  
G32  22178076.705    22178076.967    22178080.337                   -14127522.186 8 -14127522.187 8                 -11008460.037 9       333.000         278.000         614.000                  
> 2024 10 31 19 13 50.0000000  0 10
G03  23101839.609    23101839.451    23101842.727                    -2990178.286 8  -2990178.286 8                  -2330014.672 8       215.000         121.000         409.000                  
G04  24341570.104    24341569.636    24341571.852                     7413057.076 7   7413057.047 6                   5776403.267 6        93.000          25.000          21.000                  
G11  25670187.961    25670183.142    25670185.532                     3852203.005 7   3852203.022 6                   3001713.000 6        59.000          19.000          13.000                  
G16  23275844.654    23275842.984    23275844.876                    -5311675.505 8  -5311675.511 6                  -4138967.314 6       125.000          24.000          42.000                  
G25  21978413.659    21978413.003    21978417.060                   -12995797.922 8 -12995797.925 8                 -10126597.112 8       217.000         114.000         423.000                  
G26  20208730.622    20208729.941    20208733.672                   -22251010.854 9 -22251010.854 9                 -17338452.472 9       577.000         786.000        1570.000                  
G28  19581656.328    19581656.105    19581656.578                   -28021166.842 9 -28021166.849 9                 -21834679.505 9       777.000         780.000         918.000                  
G29  21268725.932    21268725.516    21268726.012                   -19225320.584 8 -19225320.584 9                 -14980769.669 9       482.000         515.000         754.000                  
G31  19705481.203    19705480.852    19705480.606                   -25900473.877 9 -25900473.878 9                 -20182187.169 9       753.000        1247.000        1645.000                  
G32  22122859.081    22122859.024    22122862.387                   -14417694.259 8 -14417694.262 8                 -11234568.148 9       330.000         280.000         637.000                  
> 2024 10 31 19 14  0.0000000  0 10
G03  23145598.086    23145598.001    23145601.475                    -2760224.370 8  -2760224.370 8                  -2150829.864 8       204.000         116.000         390.000                  
G04  24399159.366    24399158.369    24399161.756                     7715688.746 7   7715688.742 6                   6012220.016 6        86.000          23.000          20.000                  
G11  25719458.582    25719456.252    25719460.167                     4111134.994 7   4111134.971 6                   3203482.132 6        60.000          20.000          18.000                  
G16  23241985.084    23241982.424    23241985.048                    -5489612.621 8  -5489612.615 6                  -4277619.619 6       132.000          20.000          44.000                  
G25  22002520.544    22002519.471    22002523.560                   -12869117.122 8 -12869117.118 8                 -10027884.815 8       213.000         110.000         402.000                  
G26  20193976.056    20193975.318    20193979.089                   -22328547.437 9 -22328547.437 9                 -17398870.594 9       600.000         835.000        1701.000                  
G28  19582878.205    19582878.025    19582878.488                   -28014745.706 9 -28014745.712 9                 -21829676.040 9       777.000         780.000         894.000                  
G29  21253191.684    21253191.241    21253191.991                   -19306953.170 8 -19306953.171 9                 -15044379.480 9       479.000         514.000         783.000                  
G31  19726318.398    19726318.201    19726318.017                   -25790972.691 9 -25790972.692 9                 -20096861.583 9       758.000        1275.000        1610.000                  
G32  22067980.758    22067980.342    22067983.920                   -14706082.729 8 -14706082.728 8                 -11459286.415 9       342.000         289.000         645.000                  
> 2024 10 31 19 14 10.0000000  0 10
G03  23189555.106    23189555.145    23189558.445                    -2529229.095 8  -2529229.100 8                  -1970833.609 8       200.000         112.000         380.000                  
G04  24456838.019    24456839.932    24456842.373                     8018805.811 7   8018805.828 6                   6248414.971 6        82.000          26.000          21.000                  
G11  25769036.709    25769036.957    25769040.968                     4371676.070 7   4371676.076 6                   3406506.993 6        60.000          24.000          21.000                  
G16  23208579.647    23208577.704    23208579.927                    -5665155.925 8  -5665155.893 6                  -4414406.570 6       138.000          21.000          45.000                  
G25  22027253.990    22027252.797    22027256.789                   -12739142.559 8 -12739142.558 8                  -9926605.961 8       216.000         110.000         386.000                  
G26  20180136.598    20180136.075    20180139.880                   -22401273.279 9 -22401273.278 9                 -17455540.081 9       600.000         850.000        1793.000                  
G28  19584960.399    19584960.115    19584960.586                   -28003803.800 9 -28003803.807 9                 -21821149.885 9       777.000         779.000         885.000                  
G29  21238672.895    21238672.392    21238673.009                   -19383250.783 8 -19383250.784 9                 -15103832.177 9       487.000         522.000         783.000                  
G31  19747960.839    19747960.493    19747960.199                   -25677241.929 9 -25677241.929 9                 -20008240.220 9       749.000        1241.000        1595.000                  
G32  22013447.662    22013447.285    22013450.757                   -14992656.185 8 -14992656.187 8                 -11682590.365 9       349.000         307.000         664.000                  
> 2024 10 31 19 14 20.0000000  0 10
G03  23233707.459    23233707.496    23233710.886                    -2297206.699 8  -2297206.699 7                  -1790037.005 8       196.000          99.000         365.000                  
G04  24514610.981    24514612.072    24514613.148                     8322397.540 7   8322397.538 6                   6484979.876 6        77.000          21.000          20.000                  
G11  25818919.147    25818916.468    25818920.476                     4633802.609 7   4633802.597 6                   3610764.249 6        56.000          19.000          18.000                  
G16  23175641.891    23175639.621    23175641.708                    -5838249.347 8  -5838249.360 6                  -4549284.549 6       141.000          22.000          43.000                  
G25  22052610.271    22052609.425    22052613.464                   -12605893.804 8 -12605893.809 8                  -9822775.788 8       214.000         118.000         375.000                  
G26  20167220.261    20167219.950    20167223.895                   -22469147.697 9 -22469147.696 9                 -17508429.241 9       594.000         835.000        1826.000                  
G28  19587904.884    19587904.586    19587905.019                   -27988330.479 9 -27988330.483 9                 -21809092.760 9       779.000         792.000         876.000                  
G29  21225175.237    21225174.926    21225175.594                   -19454180.336 8 -19454180.338 9                 -15159101.972 9       481.000         526.000         789.000                  
G31  19770406.893    19770406.599    19770406.245                   -25559287.127 9 -25559287.127 9                 -19916327.406 9       750.000        1242.000        1591.000                  
G32  21959269.413    21959269.371    21959272.845                   -15277362.569 8 -15277362.571 8                 -11904439.428 9       367.000         337.000         708.000                  
> 2024 10 31 19 14 30.0000000  0 10
G03  23278048.086    23278047.780    23278051.339                    -2064197.152 8  -2064197.142 7                  -1608471.189 8       190.000          90.000         347.000                  
G04  24572467.398    24572467.020    24572469.502                     8626427.497 7   8626427.488 6                   6721886.191 6        72.000          19.000          18.000                  
G11  25869092.482    25869090.470    25869093.787                     4897464.950 7   4897464.943 6                   3816213.173 6        57.000          18.000          22.000                  
G16  23143174.546    23143172.639    23143175.095                    -6008862.819 8  -6008862.840 6                  -4682230.075 6       142.000          21.000          49.000                  
G25  22078580.817    22078580.048    22078584.044                   -12469416.887 8 -12469416.890 8                  -9716430.155 8       213.000         123.000         370.000                  
G26  20155230.216    20155229.662    20155233.544                   -22532157.046 9 -22532157.045 9                 -17557527.435 9       598.000         834.000        1769.000                  
G28  19591708.574    19591708.304    19591708.839                   -27968341.931 9 -27968341.937 9                 -21793517.273 9       777.000         785.000         884.000                  
G29  21212700.538    21212700.044    21212700.707                   -19519736.279 8 -19519736.279 9                 -15210184.531 9       482.000         530.000         795.000                  
G31  19793650.506    19793650.240    19793650.060                   -25437140.615 9 -25437140.614 9                 -19821148.319 9       741.000        1214.000        1637.000                  
G32  21905451.940    21905451.854    21905455.255                   -15560175.711 8 -15560175.713 8                 -12124813.242 9       380.000         359.000         732.000                  
> 2024 10 31 19 14 40.0000000  0 10
G03  23322569.773    23322569.132    23322572.800                    -1830235.106 8  -1830235.110 7                  -1426163.177 8       191.000          91.000         336.000                  
G04  24630400.703    24630399.107    24630402.202                     8930864.641 7   8930864.657 6                   6959109.719 6        65.000          19.000          21.000                  
G11  25919551.366    25919547.717    25919550.586                     5162618.615 7   5162618.640 6                   4022826.128 6        53.000          19.000          15.000                  
G16  23111187.024    23111184.149    23111186.745                    -6176961.486 8  -6176961.502 6                  -4813216.046 7       144.000          27.000          51.000                  
G25  22105158.061    22105157.301    22105161.170                   -12329753.143 8 -12329753.148 8                  -9607601.293 8       219.000         121.000         359.000                  
G26  20144168.901    20144168.487    20144172.314                   -22590283.682 9 -22590283.680 9                 -17602820.917 9       597.000         830.000        1642.000                  
G28  19596369.129    19596368.991    19596369.433                   -27943850.191 9 -27943850.195 9                 -21774432.812 9       779.000         788.000         862.000                  
G29  21201249.832    21201249.438    21201250.074                   -19579909.328 8 -19579909.329 9                 -15257072.624 9       482.000         513.000         805.000                  
G31  19817686.581    19817686.267    19817686.189                   -25310830.414 9 -25310830.414 9                 -19722724.801 9       727.000        1173.000        1691.000                  
G32  21852001.097    21852000.656    21852003.907                   -15841064.116 8 -15841064.119 8                 -12343687.282 9       389.000         380.000         750.000                  
> 2024 10 31 19 14 50.0000000  0 10
G03  23367269.934    23367269.342    23367273.006                    -1595334.174 8  -1595334.159 7                  -1243123.563 8       182.000          84.000         311.000                  
G04  24688408.527    24688406.663    24688408.431                     9235698.959 7   9235698.965 6                   7196642.893 6        62.000          22.000          20.000                  
G11  25970285.611    25970283.681    25970288.440                     5429240.002 7   5429240.000 6                   4230582.851 6        51.000          19.000          16.000                  
G16  23079686.865    23079685.496    23079687.678                    -6342489.741 8  -6342489.757 6                  -4942199.056 7       151.000          27.000          51.000                  
G25  22132337.648    22132336.908    22132340.828                   -12186923.503 8 -12186923.504 8                  -9496305.491 8       226.000         130.000         345.000                  
G26  20134044.000    20134043.474    20134047.444                   -22643490.328 9 -22643490.328 9                 -17644280.643 9       584.000         810.000        1595.000                  
G28  19601888.384    19601887.985    19601888.520                   -27914847.440 9 -27914847.442 9                 -21751833.279 9       771.000         772.000         874.000                  
G29  21190829.366    21190828.697    21190829.438                   -19634670.737 8 -19634670.739 9                 -15299743.861 9       484.000         516.000         815.000                  
G31  19842513.522    19842513.182    19842513.137                   -25180364.372 9 -25180364.372 9                 -19621062.966 9       723.000        1149.000        1735.000                  
G32  21798926.180    21798925.633    21798928.827                   -16119975.320 8 -16119975.322 8                 -12561020.647 9       399.000         395.000         782.000                  
> 2024 10 31 19 15  0.0000000  0 10
G03  23412140.605    23412140.717    23412144.123                    -1359534.810 8  -1359534.808 7                  -1059383.874 8       177.000          84.000         298.000                  
G04  24746485.545    24746483.777    24746482.948                     9540893.678 7   9540893.679 6                   7434460.797 6        55.000          18.000          17.000                  
G11  26021293.251    26021289.420    26021293.686                     5697278.418 7   5697278.436 6                   4439443.766 6        51.000          18.000          21.000                  
G16  23048682.458    23048681.005    23048683.143                    -6505419.298 8  -6505419.309 6                  -5069157.125 7       152.000          26.000          53.000                  
G25  22160110.777    22160109.799    22160113.564                   -12040976.372 8 -12040976.372 8                  -9382580.486 8       226.000         131.000         340.000                  
G26  20124857.125    20124856.604    20124860.546                   -22691767.877 9 -22691767.877 9                 -17681899.514 9       578.000         800.000        1569.000                  
G28  19608261.882    19608261.662    19608262.276                   -27881353.793 9 -27881353.795 9                 -21725734.332 9       761.000         759.000         884.000                  
G29  21181438.268    21181437.759    21181438.496                   -19684020.278 8 -19684020.279 9                 -15338198.051 9       489.000         536.000         813.000                  
G31  19868124.270    19868124.162    19868123.979                   -25045778.113 9 -25045778.113 9                 -19516190.573 9       720.000        1137.000        1712.000                  
G32  21746232.168    21746231.672    21746234.936                   -16396883.856 8 -16396883.857 8                 -12776793.527 9       414.000         423.000         820.000                  
> 2024 10 31 19 15 10.0000000  0 10
G03  23457176.684    23457176.609    23457179.974                    -1122870.435 8  -1122870.435 7                   -874970.153 8       175.000          76.000         276.000                  
G04  24804624.200    24804623.201    24804626.651                     9846418.986 7   9846418.956 6                   7672532.519 6        51.000          20.000          19.000                  
G11  26072561.036    26072556.242    26072561.907                     5966689.979 6   5966689.990 6                   4649374.591 6        49.000          22.000          18.000                  
G16  23018180.458    23018177.261    23018179.748                    -6665715.327 8  -6665715.317 6                  -5194063.110 7       160.000          23.000          52.000                  
G25  22188468.876    22188467.977    22188471.585                   -11891953.692 8 -11891953.694 8                  -9266458.952 8       228.000         120.000         336.000                  
G26  20116610.849    20116610.381    20116614.330                   -22735101.598 9 -22735101.598 9                 -17715666.051 9       581.000         805.000        1549.000                  
G28  19615487.488    19615487.073    19615487.715                   -27843383.574 9 -27843383.574 9                 -21696147.155 9       757.000         752.000         869.000                  
G29  21173078.305    21173077.932    21173078.474                   -19727952.378 9 -19727952.379 9                 -15372430.862 9       501.000         564.000         823.000                  
G31  19894513.688    19894513.454    19894513.337                   -24907101.243 9 -24907101.244 9                 -19408130.693 9       705.000        1090.000        1696.000                  
G32  21693925.452    21693925.145    21693928.294                   -16671757.192 8 -16671757.193 8                 -12990980.539 9       428.000         463.000         869.000                  
> 2024 10 31 19 15 20.0000000  0 10
G03  23502374.063    23502374.713    23502377.890                     -885354.618 8   -885354.624 7                   -689892.976 8       174.000          78.000         255.000                  
G04  24862827.188    24862823.461    24862825.472                    10152265.018 7  10152265.000 6                   7910862.740 6        51.000          20.000          19.000                  
G11  26124082.636    26124080.624    26124087.200                     6237450.540 7   6237450.552 6                   4860356.512 6        53.000          17.000          20.000                  
G16  22988187.060    22988185.537    22988188.189                    -6823323.506 8  -6823323.506 6                  -5316874.641 7       158.000          27.000          57.000                  
G25  22217407.735    22217406.919    22217410.699                   -11739878.147 8 -11739878.147 8                  -9147958.554 8       223.000         126.000         338.000                  
G26  20109312.031    20109311.493    20109315.368                   -22773458.289 9 -22773458.288 9                 -17745554.381 9       592.000         827.000        1569.000                  
G28  19623565.483    19623565.260    19623565.944                   -27800932.310 9 -27800932.309 9                 -21663068.253 9       755.000         741.000         849.000                  
G29  21165753.799    21165753.238    21165753.946                   -19766443.258 9 -19766443.258 9                 -15402423.760 9       510.000         587.000         842.000                  
G31  19921679.384    19921679.080    19921679.084                   -24764344.387 9 -24764344.387 9                 -19296891.601 9       690.000        1052.000        1673.000                  
G32  21642015.958    21642015.599    21642018.831                   -16944543.195 8 -16944543.197 8                 -13203541.095 9       432.000         470.000         905.000                  
> 2024 10 31 19 15 30.0000000  0  9
G03  23547726.970    23547726.582    23547730.134                     -647026.720 8   -647026.724 7                   -504183.002 8       175.000          75.000         245.000                  
G11  26175856.673    26175852.475    26175857.681                     6509509.994 7   6509510.005 6                   5072349.780 6        54.000          23.000          20.000                  
G16  22958711.901    22958711.088    22958713.279                    -6978215.919 8  -6978215.936 6                  -5437570.028 7       163.000          27.000          54.000                  
G25  22246918.368    22246917.367    22246921.419                   -11584798.838 8 -11584798.841 8                  -9027117.568 8       225.000         126.000         337.000                  
G26  20102961.318    20102960.694    20102964.570                   -22806831.972 9 -22806831.971 9                 -17771559.848 9       604.000         870.000        1496.000                  
G28  19632492.231    19632491.946    19632492.562                   -27754022.513 9 -27754022.512 9                 -21626515.169 9       745.000         737.000         829.000                  
G29  21159464.046    21159463.474    21159464.056                   -19799496.569 9 -19799496.570 9                 -15428179.590 9       524.000         604.000         857.000                  
G31  19949614.532    19949614.188    19949614.116                   -24617544.793 9 -24617544.793 9                 -19182502.327 9       684.000        1042.000        1624.000                  
G32  21590508.575    21590508.139    21590511.678                   -17215215.510 8 -17215215.510 8                 -13414454.614 9       427.000         455.000         958.000                  
> 2024 10 31 19 15 40.0000000  0  9
G03  23593228.147    23593228.575    23593231.712                     -407914.559 8   -407914.556 7                   -317861.923 8       168.000          70.000         239.000                  
G11  26227864.302    26227862.375    26227869.540                     6782829.527 7   6782829.509 6                   5285326.692 6        54.000          18.000          19.000                  
G16  22929761.652    22929760.430    22929761.986                    -7130353.613 8  -7130353.603 6                  -5556118.865 6       165.000          30.000          50.000                  
G25  22276993.292    22276992.489    22276996.407                   -11426753.859 8 -11426753.860 8                  -8903965.666 8       221.000         121.000         354.000                  
G26  20097561.905    20097561.193    20097564.966                   -22835206.610 9 -22835206.609 9                 -17793669.964 9       614.000         882.000        1463.000                  
G28  19642264.967    19642264.701    19642265.343                   -27702666.310 9 -27702666.308 9                 -21586497.340 9       752.000         735.000         795.000                  
G29  21154209.985    21154209.515    21154210.195                   -19827106.216 9 -19827106.218 9                 -15449693.611 9       533.000         642.000         900.000                  
G31  19978313.734    19978313.454    19978313.350                   -24466729.197 9 -24466729.198 9                 -19064983.698 9       675.000        1005.000        1559.000                  
G32  21539410.826    21539410.517    21539413.910                   -17483736.417 8 -17483736.419 8                 -13623691.683 9       418.000         424.000         966.000                  
> 2024 10 31 19 15 50.0000000  0  9
G03  23638875.123    23638875.164    23638878.339                     -168040.199 8   -168040.203 7                   -130946.917 8       165.000          71.000         228.000                  
G11  26280108.843    26280106.831    26280113.931                     7057375.959 7   7057375.938 6                   5499258.776 6        53.000          24.000          16.000                  
G16  22901343.618    22901342.295    22901343.863                    -7279692.327 8  -7279692.323 6                  -5672486.676 7       166.000          29.000          61.000                  
G25  22307626.865    22307625.655    22307629.651                   -11265776.097 8 -11265776.093 8                  -8778528.476 8       215.000         111.000         358.000                  
G26  20093117.336    20093116.798    20093120.689                   -22858561.810 9 -22858561.809 9                 -17811868.830 9       621.000         905.000        1526.000                  
G28  19652882.385    19652882.254    19652882.690                   -27646871.182 9 -27646871.180 9                 -21543020.621 9       753.000         736.000         770.000                  
G29  21149993.989    21149993.486    21149994.155                   -19849262.076 9 -19849262.079 9                 -15466957.922 9       536.000         642.000         954.000                  
G31  20007773.035    20007772.715    20007772.653                   -24311919.385 9 -24311919.385 9                 -18944352.690 9       664.000         968.000        1525.000                  
G32  21488730.475    21488730.197    21488733.644                   -17750062.654 8 -17750062.656 8                 -13831218.608 9       412.000         418.000         980.000                  
> 2024 10 31 19 16  0.0000000  0  9
G03  23684661.081    23684661.053    23684664.155                       72565.632 8     72565.638 7                     56538.063 8       156.000          68.000         218.000                  
G11  26332582.103    26332577.431    26332583.442                     7333107.197 7   7333107.228 6                   5714113.955 6        53.000          19.000          20.000                  
G16  22873463.800    22873462.819    22873465.117                    -7426197.002 8  -7426197.004 6                  -5786646.141 7       175.000          31.000          55.000                  
G25  22338809.215    22338808.849    22338812.646                   -11101907.661 8 -11101907.662 8                  -8650838.817 8       211.000         111.000         366.000                  
G26  20089630.216    20089629.694    20089633.445                   -22876887.375 9 -22876887.373 9                 -17826148.504 9       634.000         950.000        1598.000                  
G28  19664341.368    19664341.052    19664341.605                   -27586654.453 9 -27586654.449 9                 -21496098.510 9       744.000         716.000         734.000                  
G29  21146815.856    21146815.229    21146815.739                   -19865964.308 9 -19865964.309 9                 -15479972.666 9       544.000         655.000         966.000                  
G31  20037986.304    20037986.182    20037986.191                   -24153146.753 9 -24153146.754 9                 -18820633.773 9       663.000         975.000        1471.000                  
G32  21438474.639    21438474.094    21438477.584                   -18014159.778 8 -18014159.779 8                 -14037008.551 9       406.000         402.000         963.000                  
> 2024 10 31 19 16 10.0000000  0  9
G03  23730578.032    23730578.382    23730581.381                      313861.617 8    313861.610 7                    244560.826 8       154.000          61.000         200.000                  
G11  26385270.060    26385262.942    26385268.312                     7609971.047 7   7609971.047 6                   5929852.542 6        51.000          20.000          18.000                  
G16  22846129.599    22846128.566    22846130.256                    -7569843.696 8  -7569843.702 6                  -5898578.646 7       177.000          28.000          54.000                  
G25  22370532.644    22370531.972    22370535.897                   -10935201.738 8 -10935201.740 8                  -8520938.122 8       212.000         112.000         375.000                  
G26  20087099.833    20087099.245    20087103.069                   -22890185.090 9 -22890185.089 9                 -17836510.370 9       644.000         981.000        1681.000                  
G28  19676636.050    19676635.860    19676636.274                   -27522045.073 9 -27522045.067 9                 -21445753.550 9       741.000         716.000         703.000                  
G29  21144672.801    21144672.371    21144672.903                   -19877225.358 9 -19877225.360 9                 -15488747.546 9       541.000         648.000         985.000                  
G31  20068945.749    20068945.523    20068945.500                   -23990454.077 9 -23990454.077 9                 -18693860.270 9       660.000         963.000        1394.000                  
G32  21388646.717    21388646.648    21388650.186                   -18276004.056 8 -18276004.058 8                 -14241043.021 9       403.000         403.000         922.000                  
> 2024 10 31 19 16 20.0000000  0  8
G03  23776627.123    23776626.239    23776629.640                      555846.447 8    555846.460 6                    433120.354 8       149.000          49.000         201.000                  
G16  22819350.679    22819349.197    22819350.817                    -7710569.047 8  -7710569.052 6                  -6008234.773 6       183.000          32.000          49.000                  
G25  22402793.163    22402792.160    22402796.419                   -10765672.084 8 -10765672.082 8                  -8388837.134 8       207.000         113.000         387.000                  
G26  20085533.026    20085532.492    20085536.375                   -22898418.287 9 -22898418.286 9                 -17842925.863 9       641.000         967.000        1724.000                  
G28  19689768.713    19689768.365    19689768.781                   -27453033.140 9 -27453033.134 9                 -21391978.030 9       737.000         699.000         692.000                  
G29  21143570.197    21143569.741    21143570.388                   -19883019.457 9 -19883019.457 9                 -15493262.460 9       536.000         644.000        1001.000                  
G31  20100650.538    20100650.152    20100650.137                   -23823844.959 9 -23823844.958 9                 -18564034.996 9       654.000         961.000        1345.000                  
G32  21339260.137    21339260.125    21339263.556                   -18535532.008 8 -18535532.011 8                 -14443272.570 9       413.000         430.000         898.000                  
> 2024 10 31 19 16 30.0000000  0  8
G03  23822792.949    23822793.586    23822796.495                      798455.153 8    798455.153 7                    622166.014 8       140.000          54.000         199.000                  
G16  22793127.546    22793125.980    22793127.526                    -7848373.965 8  -7848373.973 6                  -6115615.248 7       189.000          31.000          53.000                  
G25  22435575.884    22435575.111    22435579.414                   -10593396.517 8 -10593396.518 8                  -8254596.478 8       203.000         105.000         394.000                  
G26  20084924.639    20084924.115    20084927.853                   -22901615.451 9 -22901615.451 9                 -17845417.182 9       626.000         931.000        1656.000                  
G28  19703728.674    19703728.293    19703728.725                   -27379673.532 9 -27379673.526 9                 -21334814.718 9       733.000         692.000         684.000                  
G29  21143500.496    21143500.024    21143500.583                   -19883386.074 9 -19883386.076 9                 -15493548.157 9       539.000         637.000        1031.000                  
G31  20133087.704    20133087.256    20133087.103                   -23653387.539 9 -23653387.539 9                 -18431211.048 9       670.000         984.000        1298.000                  
G32  21290314.893    21290314.369    21290317.709                   -18792743.967 8 -18792743.969 8                 -14643697.449 9       431.000         467.000         872.000                  
> 2024 10 31 19 16 40.0000000  0  8
G03  23869080.760    23869079.666    23869083.703                     1041694.664 8   1041694.662 6                    811703.202 8       136.000          44.000         194.000                  
G16  22767472.990    22767471.889    22767473.031                    -7983188.128 8  -7983188.115 6                  -6220665.261 7       193.000          31.000          54.000                  
G25  22468881.005    22468879.809    22468883.602                   -10418381.522 8 -10418381.524 7                  -8118221.199 8       203.000          98.000         389.000                  
G26  20085282.412    20085281.940    20085285.809                   -22899734.676 9 -22899734.675 9                 -17843951.664 9       615.000         892.000        1639.000                  
G28  19718518.733    19718518.488    19718519.020                   -27301950.294 9 -27301950.287 9                 -21274251.172 9       729.000         687.000         678.000                  
G29  21144469.264    21144468.928    21144469.553                   -19878294.667 9 -19878294.666 9                 -15489580.863 9       526.000         610.000        1058.000                  
G31  20166257.598    20166257.160    20166257.004                   -23479078.741 9 -23479078.741 9                 -18295386.031 9       676.000        1017.000        1295.000                  
G32  21241823.246    21241822.962    21241826.223                   -19047568.549 8 -19047568.550 9                 -14842262.031 9       460.000         534.000         837.000                  
> 2024 10 31 19 16 50.0000000  0  8
G03  23915477.712    23915476.930    23915481.066                     1285512.682 8   1285512.680 6                   1001691.166 8       133.000          48.000         198.000                  
G16  22742389.632    22742388.895    22742389.934                    -8115001.018 8  -8115001.028 6                  -6323376.621 7       201.000          35.000          51.000                  
G25  22502693.813    22502692.746    22502696.656                   -10240693.196 8 -10240693.195 8                  -7979762.802 8       203.000         106.000         403.000                  
G26  20086603.131    20086602.555    20086606.393                   -22892794.763 9 -22892794.762 9                 -17838543.956 9       610.000         873.000        1582.000                  
G28  19734131.070    19734130.675    19734131.184                   -27219907.822 9 -27219907.814 9                 -21210321.993 9       722.000         674.000         677.000                  
G29  21146470.952    21146470.527    21146471.261                   -19867775.632 9 -19867775.634 9                 -15481384.240 9       517.000         592.000        1054.000                  
G31  20200149.302    20200149.137    20200148.977                   -23300975.650 9 -23300975.649 9                 -18156604.418 9       685.000        1035.000        1333.000                  
G32  21193788.538    21193788.123    21193791.139                   -19299993.858 8 -19299993.861 9                 -15038957.055 9       487.000         587.000         812.000                  
> 2024 10 31 19 17  0.0000000  0  8
G03  23961981.672    23961981.517    23961985.267                     1529894.305 8   1529894.317 6                   1192118.299 8       126.000          44.000         190.000                  
G16  22717886.144    22717885.525    22717886.930                    -8243765.313 8  -8243765.314 6                  -6423712.460 7       201.000          34.000          51.000                  
G25  22537009.623    22537008.751    22537012.823                   -10060360.804 8 -10060360.804 8                  -7839244.101 8       203.000         102.000         398.000                  
G26  20088889.675    20088889.142    20088892.989                   -22880778.688 9 -22880778.687 9                 -17829180.802 9       613.000         892.000        1570.000                  
G28  19750563.518    19750563.272    19750563.748                   -27133554.149 9 -27133554.139 9                 -21143033.439 9       720.000         665.000         686.000                  
G29  21149506.527    21149506.093    21149506.923                   -19851823.616 9 -19851823.616 9                 -15468954.127 9       511.000         581.000        1061.000                  
G31  20234759.282    20234759.059    20234759.069                   -23119098.672 9 -23119098.672 9                 -18014882.121 9       674.000        1006.000        1344.000                  
G32  21146219.355    21146219.153    21146222.138                   -19549970.815 9 -19549970.817 9                 -15233744.271 9       516.000         669.000         790.000                  
> 2024 10 31 19 17 10.0000000  0  8
G03  24008589.081    24008589.015    24008593.022                     1774818.582 8   1774818.575 6                   1382968.276 8       124.000          48.000         184.000                  
G16  22693971.581    22693969.753    22693972.088                    -8369440.466 8  -8369440.464 6                  -6521641.132 7       203.000          37.000          55.000                  
G25  22571822.631    22571821.360    22571825.352                    -9877419.985 8  -9877419.985 8                  -7696692.862 8       204.000         105.000         390.000                  
G26  20092144.086    20092143.543    20092147.455                   -22863676.983 9 -22863676.983 9                 -17815854.819 9       613.000         886.000        1568.000                  
G28  19767813.685    19767813.354    19767813.883                   -27042904.445 9 -27042904.437 9                 -21072397.335 9       732.000         679.000         690.000                  
G29  21153575.363    21153575.080    21153575.819                   -19830441.036 9 -19830441.037 9                 -15452292.406 9       508.000         571.000        1056.000                  
G31  20270082.296    20270082.166    20270082.045                   -22933475.099 9 -22933475.100 9                 -17870240.406 9       659.000         962.000        1364.000                  
G32  21099124.327    21099124.152    21099127.088                   -19797456.612 9 -19797456.612 9                 -15426590.322 9       548.000         746.000         790.000                  
> 2024 10 31 19 17 20.0000000  0  8
G03  24055292.359    24055292.436    24055295.747                     2020242.714 8   2020242.730 6                   1574207.751 8       121.000          44.000         174.000                  
G16  22670647.393    22670646.645    22670648.038                    -8492008.447 8  -8492008.452 6                  -6617148.657 7       204.000          35.000          53.000                  
G25  22607120.346    22607119.134    22607123.282                    -9691928.780 8  -9691928.779 8                  -7552154.315 8       205.000         102.000         376.000                  
G26  20096363.405    20096362.940    20096366.908                   -22841503.560 9 -22841503.559 9                 -17798576.844 9       613.000         885.000        1470.000                  
G28  19785874.034    19785873.773    19785874.258                   -26947996.758 9 -26947996.749 9                 -20998443.320 9       742.000         695.000         688.000                  
G29  21158672.703    21158672.488    21158673.212                   -19803654.023 9 -19803654.024 9                 -15431419.440 9       502.000         573.000        1049.000                  
G31  20306108.903    20306108.699    20306108.546                   -22744154.718 9 -22744154.718 9                 -17722718.058 9       655.000         952.000        1383.000                  
G32  21052507.308    21052507.178    21052510.093                   -20042430.593 9 -20042430.595 9                 -15617479.116 9       580.000         831.000         798.000                  
> 2024 10 31 19 17 30.0000000  0  8
G03  24102086.824    24102086.399    24102090.389                     2266149.633 8   2266149.628 6                   1765823.418 8       117.000          40.000         164.000                  
G16  22647923.318    22647921.562    22647924.020                    -8611426.254 8  -8611426.253 6                  -6710201.494 7       204.000          35.000          53.000                  
G25  22642896.952    22642896.207    22642900.082                    -9503919.821 8  -9503919.817 8                  -7405653.879 8       200.000         101.000         372.000                  
G26  20101550.065    20101549.566    20101553.445                   -22814248.152 9 -22814248.151 9                 -17777338.887 9       617.000         904.000        1399.000                  
G28  19804742.215    19804741.868    19804742.313                   -26848844.495 9 -26848844.486 9                 -20921181.844 9       754.000         713.000         676.000                  
G29  21164798.461    21164797.960    21164798.842                   -19771464.518 8 -19771464.519 9                 -15406336.734 9       497.000         562.000        1056.000                  
G31  20342834.387    20342833.943    20342833.788                   -22551162.355 9 -22551162.356 9                 -17572334.427 9       638.000         914.000        1443.000                  
G32  21006377.305    21006377.020    21006379.899                   -20284846.630 9 -20284846.631 9                 -15806374.705 9       608.000         912.000         830.000                  
> 2024 10 31 19 17 40.0000000  0  8
G03  24148969.086    24148970.572    24148973.977                     2512524.062 8   2512524.043 6                   1957803.374 8       115.000          35.000         166.000                  
G16  22625806.030    22625805.331    22625806.843                    -8727649.706 8  -8727649.687 6                  -6800765.225 6       206.000          35.000          49.000                  
G25  22679147.133    22679146.463    22679150.267                    -9313424.363 8  -9313424.359 7                  -7257215.920 8       196.000          94.000         358.000                  
G26  20107705.692    20107705.302    20107709.044                   -22781900.185 9 -22781900.184 9                 -17752132.700 9       632.000         938.000        1378.000                  
G28  19824415.505    19824415.259    19824415.678                   -26745460.215 9 -26745460.205 9                 -20840622.692 9       758.000         721.000         676.000                  
G29  21171951.682    21171951.182    21171951.927                   -19733874.404 9 -19733874.406 9                 -15377045.761 9       503.000         563.000        1050.000                  
G31  20380253.806    20380253.396    20380253.294                   -22354521.768 9 -22354521.769 9                 -17419108.027 9       630.000         875.000        1459.000                  
G32  20960742.970    20960742.560    20960745.505                   -20524657.078 9 -20524657.080 9                 -15993239.977 9       628.000         980.000         886.000                  
> 2024 10 31 19 17 50.0000000  0  8
G03  24195932.428    24195933.057    24195936.693                     2759314.052 8   2759314.052 6                   2150107.134 8       112.000          34.000         155.000                  
G16  22604298.441    22604298.032    22604298.632                    -8840672.066 8  -8840672.067 6                  -6888834.594 7       204.000          37.000          57.000                  
G25  22715858.086    22715856.321    22715860.512                    -9120510.745 8  -9120510.745 7                  -7106893.686 8       196.000          91.000         330.000                  
G26  20114825.220    20114824.794    20114828.469                   -22744487.351 9 -22744487.349 9                 -17722979.864 9       633.000         934.000        1339.000                  
G28  19844884.617    19844884.438    19844884.834                   -26637894.239 9 -26637894.229 9                 -20756805.079 9       757.000         724.000         655.000                  
G29  21180124.856    21180124.416    21180125.173                   -19690923.900 8 -19690923.900 9                 -15343577.865 9       496.000         539.000        1033.000                  
G31  20418355.872    20418355.561    20418355.402                   -22154294.031 9 -22154294.030 9                 -17263086.448 9       621.000         852.000        1442.000                  
G32  20915606.123    20915606.033    20915609.003                   -20761851.273 9 -20761851.276 9                 -16178066.616 9       658.000        1079.000         920.000                  
> 2024 10 31 19 18  0.0000000  0  8
G03  24242972.167    24242972.452    24242976.175                     3006507.976 8   3006507.979 6                   2342725.660 8       111.000          32.000         145.000                  
G16  22583409.323    22583408.075    22583409.400                    -8950447.070 8  -8950447.062 6                  -6974373.566 7       202.000          36.000          52.000                  
G25  22753022.269    22753021.303    22753025.529                    -8925207.318 8  -8925207.323 7                  -6954709.267 8       191.000          91.000         325.000                  
G26  20122910.600    20122910.009    20122914.001                   -22701998.519 9 -22701998.518 9                 -17689871.713 9       626.000         918.000        1460.000                  
G28  19866147.391    19866147.140    19866147.693                   -26526157.512 9 -26526157.502 9                 -20669737.532 9       750.000         710.000         651.000                  
G29  21189317.841    21189317.398    21189318.185                   -19642614.591 8 -19642614.593 9                 -15305934.294 9       488.000         535.000        1031.000                  
G31  20457136.486    20457136.107    20457136.070                   -21950500.616 9 -21950500.617 9                 -17104286.417 9       611.000         826.000        1428.000                  
G32  20870977.195    20870976.988    20870980.025                   -20996378.486 9 -20996378.487 9                 -16360815.091 9       685.000        1174.000         973.000                  
> 2024 10 31 19 18 10.0000000  0  8
G03  24290085.808    24290086.212    24290089.544                     3254090.349 8   3254090.344 6                   2535646.855 8       107.000          40.000         140.000                  
G16  22563145.302    22563144.606    22563146.220                    -9056933.035 8  -9056933.033 6                  -7057349.660 7       203.000          35.000          54.000                  
G25  22790635.805    22790635.321    22790639.194                    -8727546.747 8  -8727546.752 7                  -6800688.128 8       184.000          83.000         317.000                  
G26  20131962.935    20131962.465    20131966.423                   -22654428.040 9 -22654428.041 9                 -17652803.835 9       618.000         914.000        1523.000                  
G28  19888200.852    19888200.602    19888201.125                   -26410265.886 9 -26410265.877 9                 -20579432.405 9       742.000         698.000         634.000                  
G29  21199529.118    21199528.816    21199529.518                   -19588953.665 8 -19588953.666 9                 -15264120.630 9       481.000         510.000        1005.000                  
G31  20496590.713    20496590.242    20496590.238                   -21743167.675 9 -21743167.676 9                 -16942728.318 9       611.000         824.000        1412.000                  
G32  20826864.379    20826864.230    20826867.308                   -21228192.274 9 -21228192.277 9                 -16541449.215 9       707.000        1255.000        1002.000                  
> 2024 10 31 19 18 20.0000000  0  8
G03  24337263.936    24337263.707    24337267.247                     3502010.439 8   3502010.414 6                   2728831.209 8       107.000          34.000         131.000                  
G16  22543509.696    22543508.213    22543509.949                    -9160124.298 8  -9160124.296 6                  -7137758.440 6       205.000          34.000          46.000                  
G25  22828685.195    22828684.409    22828688.307                    -8527597.197 8  -8527597.194 7                  -6644883.369 8       180.000          80.000         311.000                  
G26  20141976.527    20141975.923    20141979.825                   -22601806.919 9 -22601806.918 9                 -17611800.391 9       616.000         888.000        1555.000                  
G28  19911035.044    19911034.825    19911035.345                   -26290271.356 9 -26290271.347 9                 -20485930.209 9       730.000         665.000         632.000                  
G29  21210750.519    21210750.033    21210750.969                   -19529985.114 8 -19529985.115 8                 -15218171.159 9       470.000         491.000         989.000                  
G31  20536706.400    20536706.314    20536706.165                   -21532357.024 9 -21532357.024 9                 -16778460.315 9       613.000         821.000        1356.000                  
G32  20783270.205    20783269.878    20783273.043                   -21457281.653 9 -21457281.655 9                 -16719960.418 9       729.000        1324.000        1021.000                  
> 2024 10 31 19 18 30.0000000  0  8
G03  24384503.020    24384503.163    24384507.063                     3750256.869 8   3750256.866 6                   2922269.842 8       101.000          30.000         131.000                  
G16  22524507.774    22524506.704    22524508.284                    -9259976.726 8  -9259976.734 6                  -7215565.534 6       210.000          41.000          47.000                  
G25  22867164.867    22867163.525    22867167.667                    -8325387.837 8  -8325387.837 7                  -6487317.716 8       173.000          76.000         300.000                  
G26  20152952.211    20152951.763    20152955.779                   -22544128.413 9 -22544128.413 9                 -17566856.126 9       611.000         873.000        1613.000                  
G28  19934647.538    19934647.262    19934647.745                   -26166187.577 9 -26166187.568 9                 -20389241.582 9       720.000         647.000         618.000                  
G29  21222980.726    21222980.147    21222981.162                   -19465715.276 8 -19465715.278 8                 -15168090.795 9       465.000         480.000         976.000                  
G31  20577479.891    20577479.617    20577479.472                   -21318091.864 9 -21318091.864 9                 -16611500.490 9       617.000         845.000        1289.000                  
G32  20740203.677    20740203.529    20740206.779                   -21683596.754 9 -21683596.756 9                 -16896309.849 9       752.000        1402.000        1057.000                  
> 2024 10 31 19 18 40.0000000  0  8
G03  24431802.928    24431801.995    24431806.430                     3998815.387 7   3998815.397 6                   3115951.669 8        95.000          27.000         116.000                  
G16  22506150.194    22506148.362    22506150.324                    -9356449.676 8  -9356449.708 6                  -7290739.271 7       214.000          33.000          58.000                  
G25  22906067.553    22906066.981    22906070.748                    -8120951.010 8  -8120951.017 7                  -6328016.370 8       173.000          71.000         305.000                  
G26  20164890.994    20164890.433    20164894.410                   -22481390.170 9 -22481390.168 9                 -17517969.215 9       589.000         830.000        1627.000                  
G28  19959034.598    19959034.421    19959035.047                   -26038031.995 9 -26038031.987 9                 -20289380.128 9       714.000         635.000         631.000                  
G29  21236217.859    21236217.196    21236217.994                   -19396155.086 8 -19396155.086 8                 -15113888.090 9       466.000         485.000         957.000                  
G31  20618905.569    20618905.303    20618905.058                   -21100398.861 9 -21100398.861 9                 -16441869.619 9       647.000         924.000        1219.000                  
G32  20697674.225    20697674.029    20697677.250                   -21907090.887 9 -21907090.889 9                 -17070461.121 9       778.000        1516.000        1095.000                  
> 2024 10 31 19 18 50.0000000  0  8
G03  24479152.495    24479152.341    24479155.923                     4247639.980 7   4247639.973 6                   3309840.813 8        96.000          33.000         122.000                  
G16  22488435.910    22488434.895    22488436.258                    -9449535.243 8  -9449535.236 6                  -7363273.491 7       213.000          37.000          59.000                  
G25  22945381.894    22945381.400    22945385.714                    -7914351.199 8  -7914351.208 7                  -6167029.581 8       168.000          64.000         302.000                  
G26  20177786.500    20177786.060    20177790.121                   -22413623.104 9 -22413623.102 9                 -17465163.739 9       580.000         798.000        1663.000                  
G28  19984187.240    19984186.978    19984187.511                   -25905854.722 9 -25905854.715 9                 -20186384.892 9       703.000         616.000         622.000                  
G29  21250452.923    21250452.353    21250453.228                   -19321348.709 8 -19321348.712 8                 -15055597.458 9       464.000         474.000         937.000                  
G31  20660972.281    20660972.116    20660971.728                   -20879337.072 9 -20879337.073 9                 -16269613.720 9       668.000         978.000        1143.000                  
G32  20655684.273    20655684.128    20655687.253                   -22127749.516 9 -22127749.518 9                 -17242402.907 9       820.000        1679.000        1099.000                  
> 2024 10 31 19 19  0.0000000  0  8
G03  24526549.201    24526549.525    24526553.022                     4496710.805 7   4496710.789 6                   3503921.829 8        94.000          28.000         115.000                  
G16  22471373.490    22471372.256    22471374.182                    -9539200.235 8  -9539200.243 6                  -7433142.334 7       219.000          40.000          56.000                  
G25  22985100.732    22985100.475    22985104.579                    -7705626.910 8  -7705626.916 7                  -6004387.339 8       166.000          66.000         300.000                  
G26  20191638.074    20191637.456    20191641.621                   -22340833.461 9 -22340833.459 9                 -17408444.564 9       583.000         813.000        1699.000                  
G28  20010100.401    20010100.027    20010100.655                   -25769680.624 9 -25769680.616 9                 -20080275.244 9       698.000         591.000         639.000                  
G29  21265682.609    21265682.120    21265682.912                   -19241315.811 8 -19241315.811 8                 -14993234.195 9       463.000         473.000         893.000                  
G31  20703673.495    20703673.367    20703673.088                   -20654939.920 9 -20654939.921 9                 -16094758.837 9       662.000         974.000        1035.000                  
G32  20614241.635    20614241.424    20614244.421                   -22345532.320 9 -22345532.322 9                 -17412103.794 9       851.000        1798.000        1087.000                  
> 2024 10 31 19 19 10.0000000  0  8
G03  24573991.908    24573991.561    24573994.746                     4746018.607 7   4746018.598 6                   3698187.492 7        92.000          28.000         100.000                  
G16  22454970.029    22454968.562    22454970.623                    -9625401.651 8  -9625401.634 6                  -7500312.266 7       225.000          35.000          61.000                  
G25  23025219.015    23025218.255    23025222.492                    -7494806.520 8  -7494806.520 7                  -5840111.790 8       168.000          67.000         292.000                  
G26  20206445.865    20206445.349    20206449.271                   -22263018.432 9 -22263018.432 9                 -17347809.499 9       602.000         852.000        1614.000                  
G28  20036771.152    20036770.927    20036771.493                   -25629524.881 9 -25629524.874 9                 -19971063.018 9       689.000         583.000         644.000                  
G29  21281904.952    21281904.534    21281905.266                   -19156067.101 8 -19156067.102 8                 -14926806.671 9       470.000         488.000         881.000                  
G31  20747005.246    20747005.012    20747004.668                   -20427230.875 9 -20427230.875 9                 -15917323.257 9       663.000         959.000         938.000                  
G32  20573355.862    20573355.596    20573358.520                   -22560388.819 9 -22560388.821 9                 -17579524.446 9       868.000        1879.000        1111.000                  
> 2024 10 31 19 19 20.0000000  0  8
G03  24621467.361    24621468.340    24621472.134                     4995513.210 7   4995513.211 6                   3892598.705 7        92.000          27.000          97.000                  
G16  22439226.129    22439224.010    22439226.099                    -9708138.270 8  -9708138.266 6                  -7564782.374 7       227.000          48.000          60.000                  
G25  23065722.586    23065721.857    23065725.874                    -7281959.388 8  -7281959.389 7                  -5674256.966 8       165.000          65.000         288.000                  
G26  20222202.243    20222201.897    20222205.780                   -22180217.562 9 -22180217.562 9                 -17283289.375 9       602.000         861.000        1530.000                  
G28  20064188.767    20064188.557    20064189.106                   -25485444.410 9 -25485444.404 9                 -19858792.563 9       688.000         575.000         640.000                  
G29  21299109.756    21299109.250    21299110.112                   -19065655.679 8 -19065655.680 8                 -14856356.254 9       471.000         499.000         907.000                  
G31  20790954.812    20790954.555    20790954.061                   -20196274.848 9 -20196274.848 9                 -15737357.564 9       655.000         945.000         874.000                  
G32  20533028.684    20533028.382    20533031.323                   -22772309.818 9 -22772309.820 9                 -17744657.696 9       888.000        1973.000        1198.000                  
> 2024 10 31 19 19 30.0000000  0  8
G03  24668980.913    24668979.337    24668983.407                     5245184.747 7   5245184.748 6                   4087147.789 8        90.000          27.000         103.000                  
G16  22424149.683    22424146.961    22424149.176                    -9787369.626 8  -9787369.630 6                  -7626521.103 7       229.000          48.000          60.000                  
G25  23106605.938    23106605.580    23106609.646                    -7067114.998 8  -7067114.999 7                  -5506845.846 8       164.000          65.000         287.000                  
G26  20238907.238    20238906.995    20238910.836                   -22092431.670 9 -22092431.670 9                 -17214884.820 9       607.000         865.000        1431.000                  
G28  20092349.944    20092349.615    20092350.279                   -25337456.753 9 -25337456.747 9                 -19743477.551 9       681.000         573.000         624.000                  
G29  21317294.284    21317293.754    21317294.517                   -18970095.945 8 -18970095.945 9                 -14781894.175 9       479.000         514.000         890.000                  
G31  20835517.359    20835517.030    20835516.756                   -19962096.909 9 -19962096.910 9                 -15554881.295 9       632.000         890.000         826.000                  
G32  20493269.317    20493269.131    20493272.113                   -22981246.337 9 -22981246.338 9                 -17907465.381 9       904.000        2054.000        1301.000                  
> 2024 10 31 19 19 40.0000000  0  8
G03  24716520.655    24716521.380    24716525.238                     5495019.431 7   5495019.429 6                   4281823.994 7        90.000          32.000          95.000                  
G16  22409745.009    22409744.015    22409745.306                    -9863059.903 8  -9863059.903 6                  -7685500.564 7       237.000          43.000          66.000                  
G25  23147863.170    23147862.747    23147866.846                    -6850306.837 8  -6850306.847 7                  -5337904.513 8       162.000          65.000         288.000                  
G26  20256559.862    20256559.595    20256563.368                   -21999666.857 9 -21999666.856 9                 -17142600.588 9       606.000         865.000        1319.000                  
G28  20121250.387    20121250.050    20121250.672                   -25185584.136 9 -25185584.131 9                 -19625135.300 9       675.000         556.000         619.000                  
G29  21336454.576    21336454.170    21336454.754                   -18869407.625 8 -18869407.627 9                 -14703435.798 9       488.000         529.000         871.000                  
G31  20880687.445    20880687.125    20880686.917                   -19724726.709 9 -19724726.709 9                 -15369917.551 9       620.000         846.000         777.000                  
G32  20454086.538    20454086.205    20454089.239                   -23187153.660 9 -23187153.663 9                 -18067912.658 9       904.000        2042.000        1409.000                  
> 2024 10 31 19 19 50.0000000  0  9
G03  24764085.256    24764085.973    24764090.181                     5744971.695 7   5744971.675 6                   4476591.803 7        92.000          23.000          93.000                  
G16  22396016.380    22396014.845    22396017.036                    -9935205.982 8  -9935205.994 6                  -7741718.323 7       244.000          44.000          63.000                  
G18  25084919.538    25084921.398    25084949.976                     -471847.284 7   -471847.285 6                   -367676.708 6        96.000          29.000          12.000                  
G25  23189481.119    23189481.283    23189485.378                    -6631600.622 8  -6631600.623 7                  -5167484.184 8       156.000          61.000         290.000                  
G26  20275152.584    20275152.095    20275155.993                   -21901962.566 9 -21901962.565 9                 -17066467.417 9       615.000         879.000        1272.000                  
G28  20150879.381    20150879.165    20150879.966                   -25029881.473 9 -25029881.468 9                 -19503808.598 9       667.000         540.000         598.000                  
G29  21356581.015    21356580.310    21356581.204                   -18763643.836 8 -18763643.839 9                 -14621022.513 9       486.000         531.000         869.000                  
G31  20926453.371    20926452.927    20926452.744                   -19484226.102 9 -19484226.103 9                 -15182514.529 9       611.000         815.000         738.000                  
G32  20415482.344    20415482.180    20415485.203                   -23390019.430 9 -23390019.431 9                 -18225989.898 9       887.000        1974.000        1476.000                  
> 2024 10 31 19 20  0.0000000  0  9
G03  24811673.554    24811673.103    24811676.562                     5995041.051 7   5995041.068 6                   4671450.837 7        89.000          23.000          81.000                  
G16  22382970.437    22382969.725    22382971.007                   -10003760.676 8 -10003760.677 6                  -7795137.610 7       250.000          50.000          61.000                  
G18  25027459.914    25027460.685    25027461.677                     -773797.407 8   -773797.426 6                   -602958.703 6       107.000          21.000          29.000                  
G25  23231457.338    23231456.902    23231461.108                    -6411017.015 8  -6411017.020 7                  -4995600.965 8       160.000          59.000         268.000                  
G26  20294685.913    20294685.483    20294689.306                   -21799314.532 9 -21799314.530 9                 -16986481.986 9       619.000         908.000        1253.000                  
G28  20181235.671    20181235.390    20181236.175                   -24870359.301 9 -24870359.296 9                 -19379505.656 9       665.000         541.000         586.000                  
G29  21377671.189    21377670.611    21377671.503                   -18652814.177 8 -18652814.179 9                 -14534661.794 9       485.000         528.000         852.000                  
G31  20972811.529    20972811.166    20972810.936                   -19240612.340 9 -19240612.341 9                 -14992685.676 9       592.000         768.000         702.000                  
G32  20377467.908    20377467.673    20377470.820                   -23589786.566 9 -23589786.568 9                 -18381652.624 9       866.000        1876.000        1588.000                  
> 2024 10 31 19 20 10.0000000  0  9
G03  24859272.888    24859272.691    24859276.856                     6245179.466 7   6245179.461 6                   4866363.670 7        93.000          26.000          79.000                  
G16  22370608.361    22370607.502    22370609.180                   -10068725.297 8 -10068725.307 6                  -7845759.450 7       244.000          46.000          72.000                  
G18  24970331.783    24970331.220    24970334.598                    -1074007.641 8  -1074007.654 6                   -836888.805 6       112.000          22.000          29.000                  
G25  23273777.616    23273776.324    23273781.287                    -6188624.552 8  -6188624.551 7                  -4822308.250 8       158.000          58.000         263.000                  
G26  20315151.550    20315150.991    20315154.852                   -21691767.523 9 -21691767.522 9                 -16902679.179 9       615.000         890.000        1237.000                  
G28  20212307.295    20212307.127    20212307.890                   -24707076.568 9 -24707076.567 9                 -19252272.412 9       666.000         549.000         571.000                  
G29  21399714.166    21399713.630    21399714.466                   -18536977.108 8 -18536977.110 9                 -14444399.206 9       479.000         506.000         817.000                  
G31  21019749.558    21019749.329    21019749.253                   -18993950.755 9 -18993950.755 9                 -14800481.902 9       574.000         721.000         691.000                  
G32  20340044.818    20340044.610    20340047.784                   -23786446.152 9 -23786446.153 9                 -18534893.890 9       851.000        1806.000        1715.000                  
> 2024 10 31 19 20 20.0000000  0  9
G03  24906885.599    24906884.002    24906888.078                     6495379.356 7   6495379.361 6                   5061324.390 7        90.000          31.000          71.000                  
G16  22358936.546    22358934.961    22358936.796                   -10130061.618 8 -10130061.617 6                  -7893554.048 7       239.000          48.000          70.000                  
G18  24913546.872    24913546.364    24913549.532                    -1372415.952 8  -1372415.953 6                  -1069414.832 6       117.000          23.000          28.000                  
G25  23316436.226    23316435.719    23316439.939                    -5964451.608 8  -5964451.601 7                  -4647628.179 8       154.000          58.000         241.000                  
G26  20336548.460    20336547.611    20336551.665                   -21579327.297 9 -21579327.297 9                 -16815063.479 9       606.000         862.000        1239.000                  
G28  20244091.076    20244090.786    20244091.416                   -24540052.591 9 -24540052.588 9                 -19122123.919 9       659.000         534.000         561.000                  
G29  21422706.487    21422705.964    21422706.758                   -18416152.121 8 -18416152.122 8                 -14350249.937 9       469.000         491.000         792.000                  
G31  21067262.972    21067262.551    21067262.682                   -18744266.630 9 -18744266.631 9                 -14605922.914 9       549.000         666.000         672.000                  
G32  20303222.323    20303222.107    20303225.478                   -23979949.294 9 -23979949.295 9                 -18685675.602 9       833.000        1728.000        1877.000                  
> 2024 10 31 19 20 30.0000000  0  9
G03  24954505.040    24954503.725    24954507.257                     6745615.351 7   6745615.363 6                   5256313.219 7        86.000          26.000          71.000                  
G16  22347958.323    22347957.631    22347959.179                   -10187750.041 8 -10187750.035 6                  -7938506.139 7       234.000          45.000          64.000                  
G18  24857113.651    24857112.218    24857115.823                    -1668978.103 8  -1668978.080 6                  -1300502.287 6       120.000          27.000          29.000                  
G25  23359425.729    23359424.303    23359428.962                    -5738544.223 8  -5738544.220 7                  -4471596.605 8       151.000          59.000         210.000                  
G26  20358871.433    20358870.884    20358874.732                   -21462018.608 9 -21462018.605 9                 -16723654.178 9       607.000         870.000        1219.000                  
G28  20276579.504    20276579.223    20276579.972                   -24369324.968 9 -24369324.965 9                 -18989089.475 9       661.000         536.000         555.000                  
G29  21446640.658    21446640.033    21446640.950                   -18290377.801 8 -18290377.802 8                 -14252244.055 9       462.000         476.000         773.000                  
G31  21115343.104    21115342.812    21115342.935                   -18491603.372 9 -18491603.372 9                 -14409042.525 9       508.000         573.000         644.000                  
G32  20267006.526    20267006.205    20267009.650                   -24170265.247 9 -24170265.248 9                 -18833973.800 9       832.000        1734.000        2042.000                  
> 2024 10 31 19 20 40.0000000  0  9
G03  25002121.091    25002121.734    25002125.859                     6995851.584 7   6995851.568 6                   5451302.230 7        85.000          25.000          65.000                  
G16  22337676.839    22337675.213    22337677.504                   -10241782.642 8 -10241782.655 6                  -7980609.559 7       234.000          42.000          59.000                  
G18  24801036.188    24801035.344    24801038.670                    -1963660.796 8  -1963660.806 6                  -1530125.237 6       120.000          20.000          34.000                  
G25  23402733.638    23402732.487    23402737.141                    -5510959.388 8  -5510959.394 7                  -4294257.953 8       144.000          53.000         196.000                  
G26  20382114.035    20382113.550    20382117.357                   -21339878.321 9 -21339878.319 9                 -16628480.007 9       616.000         894.000        1234.000                  
G28  20309763.334    20309763.069    20309763.853                   -24194942.781 9 -24194942.779 9                 -18853207.323 9       667.000         537.000         542.000                  
G29  21471506.855    21471506.421    21471507.302                   -18159704.766 8 -18159704.766 8                 -14150420.999 9       467.000         491.000         744.000                  
G31  21163979.995    21163979.622    21163979.918                   -18236015.516 8 -18236015.515 8                 -14209883.243 9       473.000         500.000         649.000                  
G32  20231401.012    20231400.575    20231404.052                   -24357374.500 9 -24357374.502 9                 -18979773.279 9       842.000        1786.000        2211.000                  
> 2024 10 31 19 20 50.0000000  0  9
G03  25049739.464    25049741.112    25049744.832                     7246091.574 7   7246091.556 6                   5646294.114 7        79.000          23.000          57.000                  
G16  22328099.152    22328097.948    22328099.631                   -10292113.058 8 -10292113.075 6                  -8019828.155 7       239.000          46.000          64.000                  
G18  24745332.074    24745330.398    24745334.202                    -2256391.497 8  -2256391.503 6                  -1758227.155 6       122.000          27.000          36.000                  
G25  23446357.770    23446356.543    23446360.821                    -5281714.848 8  -5281714.846 7                  -4115626.054 8       144.000          52.000         174.000                  
G26  20406276.251    20406275.691    20406279.819                   -21212905.184 9 -21212905.183 9                 -16529539.987 9       603.000         865.000        1314.000                  
G28  20343640.782    20343640.472    20343641.249                   -24016916.336 9 -24016916.337 9                 -18714485.501 9       671.000         555.000         530.000                  
G29  21497303.107    21497302.601    21497303.317                   -18024145.564 8 -18024145.565 8                 -14044790.558 9       466.000         493.000         702.000                  
G31  21213170.132    21213169.968    21213170.312                   -17977518.532 8 -17977518.533 8                 -14008457.119 9       454.000         460.000         639.000                  
G32  20196416.558    20196416.193    20196419.786                   -24541218.638 9 -24541218.639 9                 -19123028.520 9       851.000        1811.000        2298.000                  
> 2024 10 31 19 21  0.0000000  0  9
G03  25097349.789    25097350.330    25097354.867                     7496279.004 7   7496279.011 6                   5841245.011 7        81.000          26.000          56.000                  
G16  22319223.749    22319222.776    22319223.991                   -10338755.753 8 -10338755.758 7                  -8056173.232 7       240.000          51.000          63.000                  
G18  24689999.826    24690000.058    24690003.894                    -2547157.780 8  -2547157.768 6                  -1984798.359 6       120.000          29.000          34.000                  
G25  23490282.547    23490281.616    23490286.007                    -5050888.282 8  -5050888.260 6                  -3935761.429 8       141.000          49.000         153.000                  
G26  20431346.652    20431346.218    20431350.300                   -21081159.168 9 -21081159.167 9                 -16426880.849 9       599.000         847.000        1312.000                  
G28  20378198.087    20378197.948    20378198.639                   -23835316.514 9 -23835316.512 9                 -18572979.240 9       678.000         556.000         526.000                  
G29  21524015.200    21524014.601    21524015.231                   -17883773.881 8 -17883773.884 8                 -13935410.149 9       462.000         485.000         681.000                  
G31  21262900.111    21262899.664    21262899.986                   -17716188.087 8 -17716188.090 8                 -13804823.114 9       439.000         441.000         645.000                  
G32  20162053.130    20162052.832    20162056.451                   -24721799.633 9 -24721799.635 9                 -19263741.055 9       870.000        1896.000        2355.000                  
> 2024 10 31 19 21 10.0000000  0 10
G03  25144951.626    25144951.855    25144955.615                     7746424.527 7   7746424.518 6                   6036163.224 7        82.000          22.000          57.000                  
G16  22311059.670    22311058.149    22311060.219                   -10381659.192 8 -10381659.189 6                  -8089604.607 7       245.000          45.000          69.000                  
G18  24635058.598    24635057.777    24635062.106                    -2835880.534 8  -2835880.537 6                  -2209777.221 6       120.000          28.000          38.000                  
G25  23534506.126    23534505.584    23534509.677                    -4818490.549 8  -4818490.539 6                  -3754672.543 8       138.000          44.000         148.000                  
G26  20457326.395    20457325.978    20457330.226                   -20944634.556 9 -20944634.555 9                 -16320498.133 9       586.000         822.000        1327.000                  
G27  24792949.198    24792946.169    24792958.039                     -414503.288 7   -414503.284 6                   -322992.355 6       100.000          34.000          36.000                  
G28  20413434.657    20413434.474    20413435.254                   -23650147.840 9 -23650147.840 9                 -18428692.067 9       674.000         559.000         526.000                  
G29  21551641.414    21551640.945    21551641.502                   -17738597.689 8 -17738597.690 8                 -13822285.972 9       458.000         474.000         683.000                  
G31  21313167.016    21313166.643    21313167.010                   -17452033.231 8 -17452033.231 8                 -13598988.275 9       429.000         410.000         634.000                  
G32  20128322.967    20128322.784    20128326.249                   -24899053.087 9 -24899053.088 9                 -19401860.699 9       910.000        2068.000        2350.000                  
> 2024 10 31 19 21 20.0000000  0 10
G03  25192536.286    25192535.466    25192540.455                     7996479.788 7   7996479.793 6                   6231011.084 7        78.000          24.000          56.000                  
G16  22303605.220    22303603.741    22303605.952                   -10420831.952 8 -10420831.951 6                  -8120128.964 7       245.000          48.000          67.000                  
G18  24580509.826    24580508.426    24580512.059                    -3122539.908 8  -3122539.884 6                  -2433148.300 6       119.000          20.000          42.000                  
G25  23579016.767    23579015.131    23579019.673                    -4584591.705 8  -4584591.704 6                  -3572413.976 8       134.000          48.000         126.000                  
G26  20484205.283    20484204.836    20484209.020                   -20803385.996 9 -20803385.995 9                 -16210434.426 9       593.000         822.000        1338.000                  
G27  24725762.485    24725760.869    24725766.384                     -767573.836 8   -767573.886 6                   -598112.011 7       104.000          36.000          80.000                  
G28  20449338.136    20449337.911    20449338.669                   -23461474.548 9 -23461474.548 9                 -18281674.029 9       668.000         550.000         526.000                  
G29  21580168.613    21580168.233    21580169.040                   -17588685.387 8 -17588685.388 8                 -13705471.327 9       443.000         438.000         689.000                  
G31  21363958.342    21363958.238    21363958.635                   -17185122.551 8 -17185122.552 8                 -13391006.052 9       414.000         382.000         636.000                  
G32  20095227.087    20095226.713    20095230.211                   -25072974.210 9 -25072974.211 9                 -19537383.719 9       942.000        2218.000        2321.000                  
> 2024 10 31 19 21 30.0000000  0 10
G03  25240101.133    25240101.634    25240106.065                     8246438.129 7   8246438.137 6                   6425783.368 7        74.000          22.000          52.000                  
G16  22296867.216    22296866.119    22296867.751                   -10456241.893 8 -10456241.884 6                  -8147721.273 7       250.000          46.000          72.000                  
G18  24526364.412    24526363.410    24526366.964                    -3407074.638 8  -3407074.646 6                  -2654863.789 7       114.000          29.000          57.000                  
G25  23623806.137    23623805.200    23623809.580                    -4349220.195 8  -4349220.210 6                  -3389007.890 8       129.000          44.000         123.000                  
G26  20511980.438    20511979.905    20511983.985                   -20657427.737 9 -20657427.736 9                 -16096700.838 9       587.000         817.000        1265.000                  
G27  24658739.865    24658739.143    24658744.677                    -1119776.422 8  -1119776.422 6                   -872555.596 7       113.000          38.000          89.000                  
G28  20485904.033    20485903.673    20485904.668                   -23269319.812 9 -23269319.811 9                 -18131943.181 9       656.000         522.000         502.000                  
G29  21609592.172    21609591.607    21609592.470                   -17434064.876 8 -17434064.876 8                 -13584987.953 9       434.000         427.000         693.000                  
G31  21415269.209    21415268.884    21415269.425                   -16915483.168 8 -16915483.168 8                 -13180897.577 9       403.000         364.000         661.000                  
G32  20062773.739    20062773.590    20062777.014                   -25243517.119 9 -25243517.120 9                 -19670274.368 9       970.000        2367.000        2310.000                  
> 2024 10 31 19 21 40.0000000  0 10
G03  25287645.592    25287644.926    25287649.097                     8496276.423 7   8496276.405 6                   6620462.096 6        72.000          23.000          47.000                  
G16  22290848.132    22290846.506    22290848.230                   -10487874.361 8 -10487874.364 7                  -8172370.091 7       256.000          56.000          72.000                  
G18  24472632.107    24472630.429    24472634.620                    -3689440.197 8  -3689440.213 6                  -2874889.036 7       115.000          32.000          62.000                  
G25  23668867.937    23668866.520    23668871.191                    -4112421.072 8  -4112421.060 6                  -3204489.404 8       128.000          38.000         114.000                  
G26  20540645.500    20540645.071    20540649.197                   -20506791.690 9 -20506791.689 9                 -15979322.226 9       578.000         786.000        1201.000                  
G27  24591893.662    24591893.036    24591898.224                    -1471055.771 8  -1471055.772 6                  -1146279.784 7       117.000          39.000          99.000                  
G28  20523124.739    20523124.445    20523125.343                   -23073723.823 9 -23073723.822 9                 -17979530.845 8       648.000         514.000         489.000                  
G29  21639902.768    21639902.307    21639903.292                   -17274781.618 8 -17274781.619 8                 -13460871.275 9       418.000         392.000         732.000                  
G31  21467090.629    21467090.549    21467091.206                   -16643158.981 8 -16643158.983 8                 -12968697.054 9       392.000         352.000         706.000                  
G32  20030969.069    20030968.776    20030972.221                   -25410652.977 9 -25410652.979 9                 -19800510.177 9       994.000        2476.000        2290.000                  
> 2024 10 31 19 21 50.0000000  0 10
G03  25335157.823    25335157.775    25335162.419                     8745958.988 7   8745958.986 6                   6815019.391 6        70.000          21.000          44.000                  
G16  22285547.396    22285546.285    22285547.974                   -10515728.430 8 -10515728.439 7                  -8194074.716 7       265.000          56.000          69.000                  
G18  24419318.502    24419317.310    24419321.737                    -3969604.994 8  -3969605.018 6                  -3093199.422 7       119.000          29.000          63.000                  
G25  23714189.967    23714188.850    23714193.898                    -3874252.074 8  -3874252.081 6                  -3018903.498 8       124.000          49.000         104.000                  
G26  20570192.059    20570191.663    20570195.888                   -20351523.706 9 -20351523.706 9                 -15858334.320 9       555.000         729.000        1139.000                  
G27  24525232.130    24525230.775    24525236.212                    -1821369.078 8  -1821369.105 6                  -1419251.231 8       119.000          37.000         103.000                  
G28  20560990.277    20560989.858    20560990.768                   -22874740.039 9 -22874740.039 9                 -17824478.676 8       642.000         504.000         466.000                  
G29  21671089.565    21671088.877    21671090.085                   -17110894.983 8 -17110894.984 8                 -13333167.566 9       398.000         358.000         740.000                  
G31  21519412.449    21519412.245    21519412.960                   -16368206.872 8 -16368206.871 8                 -12754448.813 9       374.000         316.000         709.000                  
G32  19999815.499    19999815.161    19999818.728                   -25574366.261 9 -25574366.262 9                 -19928079.051 9      1014.000        2567.000        2249.000                  
> 2024 10 31 19 22  0.0000000  0 10
G03  25382643.675    25382642.884    25382647.322                     8995491.108 7   8995491.111 6                   7009459.331 6        69.000          29.000          44.000                  
G16  22280974.214    22280973.029    22280974.592                   -10539762.679 8 -10539762.686 7                  -8212802.877 7       274.000          54.000          78.000                  
G18  24366437.888    24366436.717    24366440.518                    -4247496.211 8  -4247496.176 6                  -3309738.214 7       124.000          31.000          65.000                  
G25  23759770.086    23759768.767    23759773.700                    -3634729.550 8  -3634729.555 6                  -2832262.936 7       118.000          37.000          92.000                  
G26  20600619.225    20600618.572    20600622.931                   -20191629.255 9 -20191629.255 9                 -15733741.387 9       532.000         669.000        1083.000                  
G27  24458769.710    24458767.839    24458773.637                    -2170631.842 8  -2170631.843 6                  -1691404.097 8       126.000          45.000         118.000                  
G28  20599498.144    20599497.738    20599498.654                   -22672380.929 9 -22672380.929 8                 -17666796.395 8       634.000         492.000         456.000                  
G29  21703148.473    21703147.975    21703149.306                   -16942423.938 8 -16942423.938 8                 -13201891.596 9       385.000         328.000         767.000                  
G31  21572231.654    21572231.299    21572231.817                   -16090642.415 8 -16090642.414 8                 -12538164.994 9       369.000         303.000         711.000                  
G32  19969323.911    19969323.623    19969327.208                   -25734600.497 9 -25734600.498 9                 -20052936.985 9      1029.000        2668.000        2265.000                  
> 2024 10 31 19 22 10.0000000  0 11
G03  25430090.956    25430089.637    25430094.221                     9244818.669 7   9244818.654 6                   7203739.926 6        70.000          23.000          44.000                  
G10  24512500.139    24512502.368    24512517.422                     -355175.402 7   -355175.403 6                   -276762.754 6        93.000          27.000          19.000                  
G16  22277123.843    22277122.745    22277124.247                   -10559997.641 8 -10559997.645 7                  -8228570.558 7       279.000          59.000          75.000                  
G18  24313991.355    24313990.540    24313995.237                    -4523102.305 8  -4523102.299 6                  -3524496.413 7       132.000          35.000          73.000                  
G25  23805592.910    23805591.751    23805596.294                    -3393930.869 8  -3393930.893 6                  -2644627.994 7       118.000          37.000          88.000                  
G26  20631913.751    20631913.172    20631917.480                   -20027176.011 9 -20027176.011 9                 -15605596.151 9       532.000         653.000        1008.000                  
G27  24392510.919    24392510.402    24392515.940                    -2518820.357 8  -2518820.377 6                  -1962719.895 8       130.000          44.000         124.000                  
G28  20638634.062    20638633.756    20638634.620                   -22466720.498 9 -22466720.498 8                 -17506541.669 8       628.000         487.000         434.000                  
G29  21736064.399    21736063.919    21736065.406                   -16769449.524 8 -16769449.521 8                 -13067106.524 9       365.000         304.000         773.000                  
G31  21625533.001    21625532.650    21625533.219                   -15810542.543 8 -15810542.544 8                 -12319905.538 9       364.000         291.000         687.000                  
G32  19939493.567    19939493.214    19939496.761                   -25891360.863 9 -25891360.864 9                 -20175088.012 9      1059.000        2818.000        2231.000                  
> 2024 10 31 19 22 20.0000000  0 11
G03  25477499.584    25477499.259    25477503.027                     9493953.118 7   9493953.135 6                   7397869.953 6        64.000          24.000          38.000                  
G10  24449068.605    24449068.538    24449075.126                     -688506.886 7   -688506.890 6                   -536499.050 7        97.000          28.000          66.000                  
G16  22274005.187    22274004.081    22274005.922                   -10576387.958 8 -10576387.953 7                  -8241342.420 7       279.000          68.000          67.000                  
G18  24261994.802    24261995.213    24261999.507                    -4796345.033 8  -4796345.054 6                  -3737413.036 7       137.000          34.000          79.000                  
G25  23851655.867    23851655.323    23851660.115                    -3151866.376 8  -3151866.369 6                  -2456006.750 7       119.000          33.000          84.000                  
G26  20664075.380    20664074.833    20664079.198                   -19858165.712 9 -19858165.711 9                 -15473899.973 9       515.000         622.000         949.000                  
G27  24326474.421    24326474.263    24326479.371                    -2865843.703 8  -2865843.721 6                  -2233127.788 8       137.000          47.000         132.000                  
G28  20678396.960    20678396.513    20678397.433                   -22257766.200 9 -22257766.200 8                 -17343720.301 8       622.000         484.000         409.000                  
G29  21769834.920    21769834.107    21769835.724                   -16591986.712 8 -16591986.713 8                 -12928824.016 9       351.000         285.000         784.000                  
G31  21679315.125    21679314.440    21679315.217                   -15527917.306 8 -15527917.308 8                 -12099678.278 9       352.000         274.000         692.000                  
G32  19910335.789    19910335.578    19910339.039                   -26044586.117 9 -26044586.118 9                 -20294484.412 9      1093.000        2989.000        2243.000                  
> 2024 10 31 19 22 30.0000000  0 11
G03  25524862.229    25524862.674    25524866.840                     9742848.010 7   9742847.998 6                   7591813.239 6        64.000          23.000          32.000                  
G10  24385676.463    24385677.112    24385683.569                    -1021631.112 8  -1021631.106 6                   -796076.445 7       101.000          29.000          85.000                  
G16  22271614.695    22271614.143    22271615.948                   -10588947.615 8 -10588947.607 7                  -8251129.372 7       275.000          58.000          77.000                  
G18  24210453.113    24210451.973    24210455.666                    -5067204.870 8  -5067204.852 6                  -3948472.901 7       143.000          31.000          80.000                  
G25  23897948.177    23897946.595    23897951.962                    -2908604.941 8  -2908604.935 6                  -2266452.863 7       117.000          35.000          84.000                  
G26  20697092.574    20697092.057    20697096.266                   -19684659.673 9 -19684659.673 9                 -15338700.640 9       505.000         601.000         887.000                  
G27  24260665.840    24260665.439    24260671.635                    -3211669.194 8  -3211669.188 7                  -2502602.302 8       140.000          64.000         143.000                  
G28  20718773.811    20718773.509    20718774.480                   -22045584.392 9 -22045584.392 8                 -17178384.003 8       616.000         458.000         403.000                  
G29  21804444.731    21804444.137    21804445.909                   -16410110.074 8 -16410110.073 8                 -12787102.175 9       338.000         252.000         769.000                  
G31  21733564.082    21733563.941    21733564.607                   -15242835.458 8 -15242835.458 8                 -11877536.789 9       344.000         270.000         704.000                  
G32  19881851.256    19881850.961    19881854.407                   -26194274.131 9 -26194274.132 9                 -20411124.531 9      1118.000        3112.000        2254.000                  
> 2024 10 31 19 22 40.0000000  0 11
G03  25572178.837    25572178.726    25572184.462                     9991496.773 7   9991496.770 6                   7785564.674 6        62.000          20.000          35.000                  
G10  24322334.854    24322334.470    24322340.914                    -1354499.704 7  -1354499.694 6                  -1055454.651 7        99.000          30.000          95.000                  
G16  22269958.749    22269957.812    22269959.250                   -10597651.925 8 -10597651.918 7                  -8257912.180 7       271.000          53.000          81.000                  
G18  24159374.790    24159373.954    24159378.035                    -5335622.788 8  -5335622.783 6                  -4157629.985 7       150.000          37.000          83.000                  
G25  23944461.788    23944460.197    23944465.954                    -2664175.565 8  -2664175.565 6                  -2075988.954 7       110.000          36.000          81.000                  
G26  20730960.965    20730960.526    20730964.863                   -19506680.455 8 -19506680.455 9                 -15200015.723 9       493.000         573.000         892.000                  
G27  24195099.788    24195099.271    24195104.876                    -3556224.178 8  -3556224.167 7                  -2771086.834 8       145.000          63.000         151.000                  
G28  20759759.872    20759759.644    20759760.573                   -21830202.082 9 -21830202.082 8                 -17010553.824 8       614.000         467.000         401.000                  
G29  21839888.110    21839887.455    21839889.239                   -16223855.345 8 -16223855.345 8                 -12641968.853 9       319.000         229.000         718.000                  
G31  21788275.515    21788275.334    21788276.149                   -14955326.100 8 -14955326.101 8                 -11653503.759 9       350.000         271.000         701.000                  
G32  19854047.656    19854047.404    19854050.820                   -26340383.575 9 -26340383.577 9                 -20524976.165 9      1145.000        3269.000        2255.000                  
> 2024 10 31 19 22 50.0000000  0 11
G03  25619445.502    25619444.585    25619450.313                    10239879.444 7  10239879.444 6                   7979108.638 6        56.000          19.000          36.000                  
G10  24259047.859    24259047.069    24259053.532                    -1687077.699 7  -1687077.703 6                  -1314606.429 7        98.000          30.000          92.000                  
G16  22269038.440    22269037.016    22269039.236                   -10602490.684 8 -10602490.681 7                  -8261682.888 7       264.000          54.000          85.000                  
G18  24108770.064    24108769.369    24108773.701                    -5601553.575 8  -5601553.598 6                  -4364849.038 7       157.000          33.000          87.000                  
G25  23991190.006    23991188.756    23991194.090                    -2418620.807 8  -2418620.812 6                  -1884648.167 7       106.000          36.000          77.000                  
G26  20765673.734    20765673.210    20765677.726                   -19324265.169 8 -19324265.168 9                 -15057874.145 9       487.000         565.000         917.000                  
G27  24129786.134    24129785.745    24129791.804                    -3899449.280 8  -3899449.280 7                  -3038535.098 8       157.000          70.000         154.000                  
G28  20801347.097    20801346.907    20801347.839                   -21611660.217 9 -21611660.217 8                 -16840261.668 8       613.000         467.000         396.000                  
G29  21876155.185    21876154.430    21876155.965                   -16033272.720 8 -16033272.723 8                 -12493463.165 9       311.000         217.000         680.000                  
G31  21843440.840    21843440.723    21843441.446                   -14665432.017 8 -14665432.015 8                 -11427612.519 9       368.000         305.000         673.000                  
G32  19826930.189    19826929.931    19826933.386                   -26482887.307 9 -26482887.308 9                 -20636018.161 9      1169.000        3415.000        2311.000                  
> 2024 10 31 19 23  0.0000000  0 11
G03  25666654.776    25666654.041    25666660.329                    10487961.114 7  10487961.100 6                   8172417.982 6        54.000          27.000          32.000                  
G10  24195819.006    24195818.444    24195824.595                    -2019344.843 7  -2019344.838 6                  -1573516.010 7        99.000          28.000         100.000                  
G16  22268852.056    22268851.073    22268853.001                   -10603469.688 8 -10603469.701 7                  -8262446.006 7       262.000          52.000          84.000                  
G18  24058644.573    24058643.323    24058648.166                    -5864967.322 8  -5864967.322 6                  -4570106.774 7       164.000          47.000          98.000                  
G25  24038120.800    24038119.949    24038125.328                    -2171998.112 8  -2171998.132 6                  -1692475.284 7       107.000          36.000          72.000                  
G26  20801220.313    20801219.888    20801224.485                   -19137466.867 8 -19137466.866 9                 -14912317.244 9       482.000         552.000         923.000                  
G27  24064734.661    24064733.755    24064739.683                    -4241299.923 8  -4241299.923 7                  -3304912.372 8       166.000          75.000         169.000                  
G28  20843525.170    20843524.768    20843525.834                   -21390015.063 9 -21390015.063 8                 -16667551.378 8       611.000         453.000         392.000                  
G29  21913232.627    21913232.352    21913234.087                   -15838428.099 8 -15838428.105 8                 -12341636.458 9       300.000         188.000         652.000                  
G31  21899048.948    21899048.643    21899049.426                   -14373211.219 8 -14373211.218 8                 -11199908.269 9       378.000         321.000         655.000                  
G32  19800501.085    19800500.817    19800504.345                   -26621773.778 9 -26621773.779 9                 -20744241.517 9      1178.000        3472.000        2375.000                  
> 2024 10 31 19 23 10.0000000  0 10
G10  24132661.206    24132661.420    24132667.899                    -2351238.689 8  -2351238.686 6                  -1832134.700 8       103.000          33.000         102.000                  
G16  22269407.452    22269406.092    22269407.793                   -10600553.622 8 -10600553.637 7                  -8260174.018 7       260.000          51.000          81.000                  
G18  24009011.075    24009010.264    24009015.001                    -6125792.457 8  -6125792.460 6                  -4773347.427 7       169.000          50.000          99.000                  
G25  24085252.280    24085251.131    24085256.678                    -1924322.875 8  -1924322.870 6                  -1499482.314 7       106.000          35.000          70.000                  
G26  20837599.021    20837598.355    20837602.983                   -18946297.572 8 -18946297.571 9                 -14763354.387 9       474.000         533.000         880.000                  
G27  23999960.637    23999959.874    23999965.665                    -4581689.244 8  -4581689.242 7                  -3570150.961 8       174.000          78.000         174.000                  
G28  20886290.566    20886290.387    20886291.470                   -21165281.239 9 -21165281.241 8                 -16492434.351 8       601.000         451.000         392.000                  
G29  21951117.407    21951116.374    21951118.338                   -15639346.315 8 -15639346.317 8                 -12186508.094 9       287.000         184.000         627.000                  
G31  21955096.436    21955096.420    21955097.260                   -14078679.649 8 -14078679.652 8                 -10970403.440 9       375.000         312.000         633.000                  
G32  19774770.413    19774770.097    19774773.669                   -26756990.066 9 -26756990.068 9                 -20849605.001 9      1183.000        3510.000        2351.000                  
> 2024 10 31 19 23 20.0000000  0 10
G10  24069576.220    24069575.354    24069581.983                    -2682758.579 8  -2682758.575 6                  -2090462.022 8       111.000          37.000         107.000                  
G16  22270697.983    22270696.619    22270699.113                   -10593770.081 8 -10593770.078 6                  -8254888.444 7       256.000          44.000          83.000                  
G18  23959872.816    23959871.794    23959876.490                    -6384019.553 8  -6384019.536 6                  -4974563.644 7       175.000          43.000          95.000                  
G25  24132570.292    24132567.989    24132574.598                    -1675672.325 8  -1675672.313 6                  -1305729.436 7       103.000          33.000          66.000                  
G26  20874794.900    20874794.355    20874799.149                   -18750832.157 8 -18750832.156 9                 -14611043.916 9       466.000         522.000         905.000                  
G27  23935469.192    23935468.835    23935474.879                    -4920592.202 8  -4920592.201 7                  -3834231.358 8       177.000          90.000         186.000                  
G28  20929629.142    20929629.019    20929630.352                   -20937535.616 9 -20937535.617 8                 -16314970.478 8       591.000         425.000         387.000                  
G29  21989791.127    21989790.258    21989792.249                   -15436114.974 8 -15436114.978 8                 -12028146.327 9       281.000         179.000         631.000                  
G31  22011569.569    22011568.813    22011569.896                   -13781915.343 8 -13781915.342 8                 -10739158.837 9       361.000         295.000         607.000                  
G32  19749736.289    19749735.980    19749739.561                   -26888545.861 9 -26888545.863 9                 -20952116.154 9      1185.000        3525.000        2422.000                  
> 2024 10 31 19 23 30.0000000  0 10
G10  24006575.120    24006574.019    24006580.338                    -3013834.492 8  -3013834.472 6                  -2348443.383 8       119.000          37.000         121.000                  
G16  22272733.193    22272731.570    22272733.924                   -10583078.832 8 -10583078.837 6                  -8246557.903 7       252.000          48.000          86.000                  
G18  23911242.456    23911242.194    23911246.350                    -6639570.495 8  -6639570.466 6                  -5173694.535 7       178.000          43.000          99.000                  
G25  24180069.206    24180069.329    24180075.996                    -1426054.557 8  -1426054.537 6                  -1111222.962 7       103.000          28.000          57.000                  
G26  20912807.054    20912806.579    20912811.447                   -18551077.310 8 -18551077.308 8                 -14455391.047 9       443.000         472.000         923.000                  
G27  23871278.886    23871278.989    23871284.612                    -5257914.386 8  -5257914.380 7                  -4097079.992 8       184.000          96.000         186.000                  
G28  20973539.550    20973539.335    20973540.725                   -20706786.305 9 -20706786.306 8                 -16135166.086 8       581.000         414.000         375.000                  
G29  22029250.614    22029249.891    22029252.185                   -15228753.292 8 -15228753.291 8                 -11866566.129 9       271.000         170.000         632.000                  
G31  22068465.241    22068464.749    22068465.849                   -13482927.323 8 -13482927.323 8                 -10506181.498 9       354.000         279.000         608.000                  
G32  19725409.819    19725409.612    19725413.238                   -27016382.403 9 -27016382.404 9                 -21051729.195 9      1176.000        3465.000        2487.000                  
> 2024 10 31 19 23 40.0000000  0 10
G10  23943659.056    23943658.423    23943665.604                    -3344456.565 8  -3344456.567 6                  -2606071.103 8       126.000          37.000         109.000                  
G16  22275507.110    22275505.589    22275508.491                   -10568500.819 8 -10568500.814 7                  -8235198.742 7       250.000          52.000          82.000                  
G18  23863125.643    23863124.919    23863129.624                    -6892427.804 8  -6892427.789 6                  -5370726.490 7       180.000          47.000         100.000                  
G25  24227743.700    24227741.904    24227749.308                    -1175537.799 7  -1175537.781 6                   -916016.061 7       100.000          28.000          54.000                  
G26  20951622.737    20951622.240    20951627.103                   -18347100.880 8 -18347100.880 8                 -14296448.660 9       425.000         429.000         903.000                  
G27  23807396.640    23807395.771    23807401.869                    -5593621.522 8  -5593621.516 7                  -4358670.154 8       189.000          99.000         210.000                  
G28  21018008.343    21018008.139    21018009.679                   -20473101.981 9 -20473101.984 8                 -15953074.690 8       566.000         394.000         362.000                  
G29  22069481.420    22069480.828    22069482.930                   -15017341.592 8 -15017341.593 8                 -11701830.102 9       271.000         168.000         643.000                  
G31  22125770.487    22125770.525    22125771.652                   -13181785.041 8 -13181785.044 8                 -10271525.543 9       351.000         275.000         590.000                  
G32  19701790.800    19701790.511    19701794.264                   -27140501.943 9 -27140501.945 9                 -21148445.880 9      1169.000        3423.000        2487.000                  
> 2024 10 31 19 23 50.0000000  0 10
G10  23880840.106    23880839.829    23880846.085                    -3674573.943 8  -3674573.933 6                  -2863305.526 8       134.000          45.000         112.000                  
G16  22279024.775    22279023.076    22279026.493                   -10550017.164 8 -10550017.175 6                  -8220796.242 7       245.000          50.000          89.000                  
G18  23815532.903    23815531.950    23815536.495                    -7142533.703 8  -7142533.696 7                  -5565614.486 7       187.000          53.000         100.000                  
G25  24275581.396    24275580.237    24275587.626                     -924149.551 8   -924149.552 6                   -720130.166 7       102.000          32.000          59.000                  
G26  20991236.355    20991235.961    20991240.945                   -18138930.882 8 -18138930.882 8                 -14134238.571 9       415.000         402.000         878.000                  
G27  23743835.651    23743834.940    23743840.943                    -5927638.471 8  -5927638.471 8                  -4618943.283 8       197.000         112.000         228.000                  
G28  21063030.338    21063030.069    21063031.735                   -20236510.905 9 -20236510.906 8                 -15768718.307 8       556.000         383.000         349.000                  
G29  22110474.763    22110474.464    22110476.744                   -14801920.205 8 -14801920.208 8                 -11533969.669 9       269.000         167.000         668.000                  
G31  22183481.183    22183480.633    22183481.993                   -12878517.261 8 -12878517.261 8                 -10035213.378 9       348.000         267.000         562.000                  
G32  19678886.190    19678885.971    19678889.722                   -27260866.666 9 -27260866.668 9                 -21242236.740 9      1163.000        3406.000        2445.000                  
> 2024 10 31 19 24  0.0000000  0 10
G10  23818123.906    23818123.232    23818129.882                    -4004150.764 8  -4004150.746 6                  -3120118.688 8       138.000          49.000         116.000                  
G16  22283286.021    22283285.005    22283287.075                   -10527625.121 8 -10527625.106 6                  -8203348.245 7       249.000          50.000          86.000                  
G18  23768470.446    23768470.146    23768474.872                    -7389845.804 8  -7389845.817 6                  -5758325.448 8       188.000          50.000         105.000                  
G25  24323577.572    24323576.763    24323584.470                     -671932.256 7   -671932.246 6                   -523598.357 7        97.000          30.000          52.000                  
G26  21031639.695    21031639.333    21031644.238                   -17926611.249 8 -17926611.248 8                 -13968795.016 9       391.000         363.000         899.000                  
G27  23680607.119    23680606.536    23680613.072                    -6259905.005 8  -6259905.011 8                  -4877852.430 8       205.000         114.000         255.000                  
G28  21108597.385    21108597.030    21108598.614                   -19997056.702 9 -19997056.703 8                 -15582130.930 8       547.000         370.000         337.000                  
G29  22152221.162    22152220.294    22152222.918                   -14582545.258 8 -14582545.262 8                 -11363028.555 9       261.000         152.000         702.000                  
G31  22241587.346    22241586.987    22241588.416                   -12573167.964 8 -12573167.966 8                  -9797279.275 9       340.000         263.000         559.000                  
G32  19656700.365    19656700.077    19656703.942                   -27377454.620 9 -27377454.622 9                 -21333084.665 9      1158.000        3359.000        2444.000                  
> 2024 10 31 19 24 10.0000000  0 10
G10  23755514.176    23755513.778    23755520.625                    -4333163.671 8  -4333163.682 7                  -3376492.422 8       147.000          54.000         132.000                  
G16  22288289.467    22288288.143    22288291.089                   -10501335.736 8 -10501335.735 6                  -8182863.385 7       250.000          49.000          86.000                  
G18  23721946.540    23721945.157    23721950.575                    -7634334.860 8  -7634334.841 6                  -5948836.616 8       189.000          49.000         115.000                  
G25  24371720.689    24371719.921    24371727.392                     -418940.953 7   -418940.940 6                   -326463.491 7        97.000          26.000          56.000                  
G26  21072821.501    21072821.048    21072826.433                   -17710199.347 8 -17710199.345 8                 -13800162.697 9       365.000         309.000         890.000                  
G27  23617721.316    23617720.815    23617726.930                    -6590373.413 8  -6590373.413 8                  -5135360.405 8       206.000         112.000         268.000                  
G28  21154698.270    21154698.001    21154699.717                   -19754795.884 9 -19754795.886 8                 -15393356.589 8       540.000         369.000         322.000                  
G29  22194706.380    22194705.359    22194708.081                   -14359286.100 8 -14359286.102 8                 -11189060.792 9       261.000         151.000         716.000                  
G31  22300079.520    22300078.719    22300080.314                   -12265793.747 8 -12265793.747 8                  -9557767.335 9       332.000         238.000         527.000                  
G32  19635234.846    19635234.600    19635238.509                   -27490257.193 9 -27490257.195 9                 -21420982.942 9      1165.000        3411.000        2448.000                  
> 2024 10 31 19 24 20.0000000  0 10
G10  23693024.914    23693024.537    23693031.248                    -4661548.322 8  -4661548.325 7                  -3632376.557 8       150.000          61.000         153.000                  
G16  22294039.231    22294037.992    22294040.709                   -10471120.228 8 -10471120.238 7                  -8159319.198 7       253.000          53.000          87.000                  
G18  23675972.759    23675971.560    23675976.298                    -7875931.286 8  -7875931.295 6                  -6137093.751 8       192.000          46.000         124.000                  
G25  24420009.737    24420008.163    24420016.479                     -165189.826 7   -165189.838 6                   -128736.626 6        93.000          29.000          44.000                  
G26  21114778.911    21114778.459    21114783.988                   -17489712.647 8 -17489712.644 8                 -13628355.211 9       348.000         293.000         880.000                  
G27  23555194.452    23555193.926    23555200.137                    -6918955.145 8  -6918955.149 8                  -5391398.225 8       209.000         124.000         287.000                  
G28  21201330.322    21201329.974    21201331.640                   -19509744.496 9 -19509744.498 8                 -15202407.787 8       533.000         346.000         300.000                  
G29  22237924.797    22237924.184    22237926.929                   -14132172.088 8 -14132172.089 8                 -11012089.259 9       262.000         154.000         737.000                  
G31  22358952.829    22358952.869    22358954.398                   -11956410.546 8 -11956410.546 8                  -9316689.975 9       323.000         238.000         515.000                  
G32  19614498.933    19614498.728    19614502.630                   -27599225.821 9 -27599225.822 9                 -21505893.724 9      1186.000        3509.000        2496.000                  
> 2024 10 31 19 24 30.0000000  0 10
G10  23630655.502    23630654.933    23630661.946                    -4989301.865 8  -4989301.867 7                  -3887768.865 8       151.000          55.000         171.000                  
G16  22300529.835    22300528.384    22300531.840                   -10437012.563 8 -10437012.560 6                  -8132742.162 7       254.000          48.000          92.000                  
G18  23630549.711    23630549.425    23630554.033                    -8114627.593 8  -8114627.589 7                  -6323091.025 8       196.000          52.000         126.000                  
G25  24468428.321    24468427.013    24468435.358                       89245.461 7     89245.454 6                     69523.256 7        91.000          22.000          52.000                  
G26  21157496.872    21157496.205    21157501.633                   -17265230.990 8 -17265230.987 8                 -13453434.775 9       343.000         272.000         836.000                  
G27  23493031.689    23493030.666    23493037.395                    -7245623.170 8  -7245623.172 8                  -5645944.806 8       209.000         124.000         313.000                  
G28  21248478.590    21248478.020    21248479.812                   -19261980.429 9 -19261980.430 8                 -15009345.216 8       524.000         331.000         295.000                  
G29  22281859.374    22281858.864    22281861.858                   -13901294.835 8 -13901294.836 8                 -10832185.340 9       253.000         146.000         738.000                  
G31  22418194.799    22418194.430    22418196.117                   -11645095.943 8 -11645095.944 8                  -9074107.640 9       320.000         219.000         521.000                  
G32  19594490.054    19594489.797    19594493.763                   -27704374.309 9 -27704374.310 9                 -21587827.765 9      1203.000        3623.000        2561.000                  
> 2024 10 31 19 24 40.0000000  0 10
G10  23568419.842    23568419.346    23568426.093                    -5316353.217 8  -5316353.229 7                  -4142613.976 8       152.000          52.000         199.000                  
G16  22307767.269    22307766.707    22307769.665                   -10398979.568 8 -10398979.560 7                  -8103106.407 7       251.000          53.000          76.000                  
G18  23585693.868    23585692.646    23585697.671                    -8350348.654 8  -8350348.658 6                  -6506769.884 8       197.000          47.000         128.000                  
G25  24516974.619    24516974.233    24516982.680                      344357.352 7    344357.350 6                    268310.313 6        88.000          31.000          47.000                  
G26  21200972.300    21200972.129    21200977.239                   -17036766.846 8 -17036766.844 8                 -13275411.107 9       343.000         277.000         829.000                  
G27  23431251.089    23431250.514    23431256.911                    -7570282.263 8  -7570282.268 8                  -5898925.951 8       215.000         116.000         340.000                  
G28  21296141.020    21296140.658    21296142.597                   -19011513.704 9 -19011513.706 8                 -14814176.682 8       509.000         325.000         282.000                  
G29  22326505.993    22326505.217    22326508.302                   -13666678.409 8 -13666678.409 8                 -10649367.780 9       253.000         147.000         731.000                  
G31  22477802.029    22477801.766    22477803.655                   -11331859.531 8 -11331859.529 8                  -8830027.804 9       316.000         221.000         511.000                  
G32  19575218.286    19575217.974    19575221.991                   -27805649.126 9 -27805649.128 9                 -21666743.355 9      1229.000        3769.000        2630.000                  
> 2024 10 31 19 24 50.0000000  0 10
G10  23506319.214    23506318.982    23506325.906                    -5642690.250 8  -5642690.253 7                  -4396902.436 8       158.000          63.000         210.000                  
G16  22315747.080    22315745.634    22315749.349                   -10357048.385 8 -10357048.395 6                  -8070433.108 7       254.000          47.000          80.000                  
G18  23541406.802    23541406.035    23541410.764                    -8583079.002 8  -8583079.001 7                  -6688118.271 8       202.000          56.000         130.000                  
G25  24565639.501    24565637.342    24565646.470                      600079.333 7    600079.323 6                    467572.728 6        86.000          27.000          43.000                  
G26  21245192.158    21245191.672    21245196.979                   -16804392.629 8 -16804392.629 8                 -13094340.630 9       335.000         269.000         810.000                  
G27  23369859.694    23369858.958    23369865.375                    -7892896.300 8  -7892896.299 8                  -6150313.503 8       220.000         137.000         362.000                  
G28  21344304.633    21344304.339    21344306.221                   -18758413.726 8 -18758413.728 8                 -14616956.258 8       493.000         306.000         268.000                  
G29  22371847.776    22371847.248    22371850.341                   -13428406.709 8 -13428406.711 8                 -10463701.954 9       262.000         150.000         708.000                  
G31  22537761.973    22537761.853    22537763.699                   -11016770.119 8 -11016770.119 8                  -8584504.078 8       308.000         209.000         485.000                  
G32  19556682.283    19556682.008    19556686.118                   -27903056.760 9 -27903056.761 9                 -21742645.543 9      1239.000        3841.000        2696.000                  
> 2024 10 31 19 25  0.0000000  0 10
G10  23444365.570    23444365.020    23444371.920                    -5968259.597 8  -5968259.594 7                  -4650592.661 8       170.000          71.000         233.000                  
G16  22324470.918    22324469.751    22324472.866                   -10311206.083 8 -10311206.082 7                  -8034712.154 7       253.000          52.000          78.000                  
G18  23497699.685    23497698.389    23497703.399                    -8812762.559 8  -8812762.561 7                  -6867092.496 8       212.000          65.000         140.000                  
G25  24614414.467    24614412.267    24614421.948                      856386.038 7    856386.033 6                    667290.733 6        83.000          32.000          41.000                  
G26  21290149.620    21290149.127    21290154.715                   -16568140.303 8 -16568140.299 8                 -12910248.248 9       329.000         257.000         837.000                  
G27  23308872.357    23308871.493    23308877.816                    -8213387.992 8  -8213387.993 8                  -6400047.242 8       227.000         151.000         385.000                  
G28  21392963.688    21392963.395    21392965.507                   -18502708.986 8 -18502708.987 8                 -14417706.143 8       471.000         278.000         257.000                  
G29  22417877.291    22417876.618    22417879.685                   -13186522.889 8 -13186522.894 8                 -10275221.483 9       266.000         158.000         676.000                  
G31  22598069.215    22598069.061    22598071.049                   -10699855.164 8 -10699855.163 8                  -8337557.857 8       292.000         185.000         457.000                  
G32  19538888.561    19538888.368    19538892.492                   -27996563.330 9 -27996563.332 9                 -21815507.929 9      1239.000        3810.000        2737.000                  
> 2024 10 31 19 25 10.0000000  0 10
G10  23382564.892    23382564.743    23382571.327                    -6293023.681 8  -6293023.673 7                  -4903655.367 8       178.000          82.000         241.000                  
G16  22333938.152    22333937.206    22333940.405                   -10261456.556 8 -10261456.547 6                  -7995946.578 7       253.000          50.000          77.000                  
G18  23454579.049    23454578.450    23454583.628                    -9039359.716 8  -9039359.700 7                  -7043661.681 8       217.000          61.000         140.000                  
G25  24663291.506    24663289.993    24663299.960                     1113236.327 7   1113236.328 6                    867432.247 6        81.000          23.000          34.000                  
G26  21335835.800    21335835.170    21335841.115                   -16328058.462 8 -16328058.462 8                 -12723171.817 9       327.000         250.000         894.000                  
G27  23248300.108    23248299.241    23248305.614                    -8531695.931 8  -8531695.930 8                  -6648079.323 8       237.000         146.000         391.000                  
G28  21442110.109    21442109.669    21442112.041                   -18244444.095 8 -18244444.097 8                 -14216461.095 8       452.000         256.000         256.000                  
G29  22464582.017    22464581.979    22464584.820                   -12941086.722 8 -12941086.722 8                 -10083972.932 9       262.000         157.000         643.000                  
G31  22658715.320    22658715.399    22658717.473                   -10381158.483 8 -10381158.486 8                  -8089223.279 8       273.000         163.000         411.000                  
G32  19521840.567    19521840.372    19521844.391                   -28086151.744 9 -28086151.746 9                 -21885317.193 9      1242.000        3851.000        2702.000                  
> 2024 10 31 19 25 20.0000000  0 10
G10  23320921.877    23320921.433    23320928.518                    -6616958.094 8  -6616958.086 7                  -5156071.553 8       191.000          81.000         259.000                  
G16  22344145.736    22344144.019    22344147.462                   -10207818.244 8 -10207818.242 6                  -7954150.770 7       249.000          44.000          75.000                  
G18  23412051.176    23412050.775    23412055.240                    -9262844.721 8  -9262844.723 7                  -7217805.784 8       227.000          69.000         141.000                  
G25  24712262.678    24712261.454    24712271.120                     1370575.823 7   1370575.816 6                   1067954.973 6        81.000          29.000          38.000                  
G26  21382238.440    21382238.345    21382244.396                   -16084209.690 8 -16084209.687 8                 -12533160.097 9       316.000         238.000         925.000                  
G27  23188152.703    23188151.895    23188158.338                    -8847772.032 8  -8847772.033 8                  -6894372.277 8       235.000         157.000         405.000                  
G28  21491732.609    21491732.303    21491734.684                   -17983677.171 8 -17983677.172 8                 -14013266.399 8       436.000         240.000         263.000                  
G29  22511949.681    22511948.912    22511952.311                   -12692171.678 8 -12692171.674 8                  -9890013.559 9       266.000         160.000         621.000                  
G31  22719689.907    22719689.716    22719691.960                   -10060737.011 8 -10060737.017 8                  -7839544.702 8       269.000         167.000         356.000                  
G32  19505538.686    19505538.464    19505542.532                   -28171819.058 9 -28171819.060 9                 -21952071.039 9      1238.000        3838.000        2800.000                  
> 2024 10 31 19 25 30.0000000  0 10
G10  23259449.496    23259449.145    23259455.971                    -6939996.318 8  -6939996.313 7                  -5407789.386 8       197.000          96.000         260.000                  
G16  22355096.854    22355095.823    22355099.190                   -10150268.570 8 -10150268.561 6                  -7909307.133 7       244.000          47.000          79.000                  
G18  23370128.528    23370128.470    23370132.737                    -9483150.439 8  -9483150.444 7                  -7389472.484 8       237.000          76.000         143.000                  
G25  24761324.073    24761323.537    24761334.452                     1628392.203 7   1628392.206 6                   1268849.236 6        80.000          28.000          35.000                  
G26  21429354.893    21429354.245    21429360.359                   -15836615.204 8 -15836615.202 8                 -12340229.626 9       303.000         221.000         885.000                  
G27  23128446.808    23128446.322    23128452.769                    -9161526.223 8  -9161526.225 8                  -7138855.919 8       237.000         159.000         420.000                  
G28  21541828.242    21541828.094    21541830.377                   -17720424.504 8 -17720424.503 8                 -13808134.752 8       421.000         222.000         276.000                  
G29  22559972.754    22559972.191    22559975.400                   -12439809.801 8 -12439809.799 8                  -9693368.324 9       274.000         171.000         595.000                  
G31  22780990.098    22780989.561    22780991.963                    -9738605.978 8  -9738605.976 8                  -7588533.989 8       271.000         159.000         312.000                  
G32  19489991.402    19489991.131    19489995.259                   -28253521.224 9 -28253521.225 9                 -22015735.142 9      1233.000        3829.000        2899.000                  
> 2024 10 31 19 25 40.0000000  0 10
G10  23198148.736    23198148.417    23198155.247                    -7262132.442 8  -7262132.435 7                  -5658804.259 8       201.000          92.000         286.000                  
G16  22366785.386    22366784.396    22366787.923                   -10088846.774 8 -10088846.769 6                  -7861446.225 7       235.000          46.000          77.000                  
G18  23328812.052    23328811.550    23328815.763                    -9700271.021 8  -9700271.010 7                  -7558657.235 8       248.000          78.000         143.000                  
G25  24810463.876    24810461.483    24810473.629                     1886612.570 7   1886612.575 6                   1470058.318 6        75.000          24.000          32.000                  
G26  21477167.931    21477167.393    21477173.409                   -15585357.620 8 -15585357.620 8                 -12144444.777 9       297.000         204.000         871.000                  
G27  23069188.765    23069188.365    23069194.661                    -9472929.171 8  -9472929.172 8                  -7381507.394 8       244.000         164.000         439.000                  
G28  21592381.923    21592381.702    21592384.491                   -17454763.275 8 -17454763.274 8                 -13601126.288 8       399.000         200.000         262.000                  
G29  22608634.255    22608633.674    22608636.929                   -12184094.379 8 -12184094.381 8                  -9494109.923 9       284.000         180.000         586.000                  
G31  22842600.742    22842600.373    22842602.940                    -9414840.999 8  -9414840.998 8                  -7336250.061 8       268.000         162.000         273.000                  
G32  19475195.258    19475194.950    19475199.136                   -28331275.748 9 -28331275.750 9                 -22076323.149 9      1239.000        3836.000        3021.000                  
> 2024 10 31 19 25 50.0000000  0 10
G10  23137033.815    23137033.277    23137039.719                    -7583294.477 8  -7583294.479 8                  -5909060.079 8       203.000         103.000         305.000                  
G16  22379215.488    22379214.176    22379217.694                   -10023527.201 8 -10023527.199 7                  -7810548.066 7       234.000          51.000          79.000                  
G18  23288114.957    23288114.260    23288118.534                    -9914135.300 8  -9914135.304 7                  -7725304.569 8       249.000          90.000         147.000                  
G25  24859677.573    24859675.836    24859688.237                     2145230.023 7   2145230.010 6                   1671576.777 6        77.000          27.000          27.000                  
G26  21525674.496    21525674.136    21525680.228                   -15330454.172 8 -15330454.172 8                 -11945818.986 9       281.000         193.000         875.000                  
G27  23010396.043    23010395.741    23010402.041                    -9781885.677 8  -9781885.681 8                  -7622252.528 8       250.000         172.000         461.000                  
G28  21643392.038    21643391.796    21643394.462                   -17186704.907 8 -17186704.910 8                 -13392249.912 8       383.000         183.000         263.000                  
G29  22657928.427    22657928.129    22657931.151                   -11925053.104 8 -11925053.100 8                  -9292259.937 9       284.000         178.000         572.000                  
G31  22904520.879    22904520.440    22904523.049                    -9089451.944 8  -9089451.945 8                  -7082700.611 8       265.000         160.000         265.000                  
G32  19461159.309    19461159.047    19461163.294                   -28405035.120 9 -28405035.121 9                 -22133798.033 9      1259.000        3959.000        3085.000                  
> 2024 10 31 19 26  0.0000000  0 10
G10  23076106.302    23076105.962    23076112.613                    -7903468.133 8  -7903468.135 8                  -6158545.714 8       207.000         105.000         349.000                  
G16  22392380.663    22392379.645    22392383.063                    -9954342.936 8  -9954342.923 6                  -7756638.447 7       230.000          45.000          84.000                  
G18  23248039.671    23248039.258    23248043.622                   -10124730.545 8 -10124730.539 7                  -7889404.589 8       252.000          81.000         141.000                  
G25  24908954.918    24908953.263    24908966.432                     2404180.004 7   2404179.987 6                   1873354.328 6        74.000          18.000          28.000                  
G26  21574860.350    21574859.807    21574866.397                   -15071980.489 8 -15071980.489 8                 -11744411.184 9       264.000         168.000         852.000                  
G27  22952076.067    22952075.761    22952081.900                   -10088358.380 8 -10088358.380 8                  -7861062.215 8       254.000         182.000         484.000                  
G28  21694844.853    21694844.727    21694847.443                   -16916318.746 8 -16916318.745 8                 -13181559.652 8       370.000         177.000         260.000                  
G29  22707838.733    22707838.697    22707841.874                   -11662771.809 8 -11662771.811 8                  -9087885.246 9       290.000         196.000         573.000                  
G31  22966736.688    22966736.430    22966739.175                    -8762506.396 8  -8762506.400 8                  -6827938.298 8       251.000         143.000         254.000                  
G32  19447881.478    19447881.227    19447885.534                   -28474810.505 9 -28474810.507 9                 -22188168.498 9      1283.000        4133.000        3196.000                  
> 2024 10 31 19 26 10.0000000  0 10
G10  23015377.527    23015377.211    23015383.541                    -8222598.717 8  -8222598.717 8                  -6407218.547 8       210.000         109.000         399.000                  
G16  22406282.841    22406281.296    22406285.483                    -9881287.944 8  -9881287.944 6                  -7699712.646 7       230.000          41.000          80.000                  
G18  23208596.552    23208596.394    23208600.609                   -10332004.385 8 -10332004.382 7                  -8050916.473 8       252.000          85.000         137.000                  
G25  24958292.762    24958290.838    24958302.386                     2663438.363 7   2663438.370 6                   2075372.136 6        70.000          25.000          28.000                  
G26  21624719.350    21624718.457    21624725.123                   -14809972.504 8 -14809972.499 8                 -11540249.362 9       250.000         142.000         810.000                  
G27  22894243.822    22894243.229    22894249.273                   -10392269.738 8 -10392269.739 8                  -8097876.028 9       253.000         184.000         516.000                  
G28  21746735.215    21746735.058    21746737.950                   -16643633.987 8 -16643633.984 8                 -12969078.265 8       359.000         166.000         257.000                  
G29  22758357.884    22758357.327    22758360.627                   -11397296.578 8 -11397296.580 8                  -8881021.753 9       297.000         198.000         587.000                  
G31  23029244.096    23029243.589    23029246.328                    -8434031.715 8  -8434031.717 8                  -6571984.460 8       225.000         112.000         247.000                  
G32  19435367.248    19435366.993    19435371.216                   -28540573.679 9 -28540573.681 9                 -22239412.549 9      1326.000        4394.000        3218.000                  
> 2024 10 31 19 26 20.0000000  0 10
G10  22954854.794    22954854.452    22954860.965                    -8540646.273 8  -8540646.270 8                  -6655047.449 8       219.000         117.000         452.000                  
G16  22420919.260    22420918.633    22420922.028                    -9804372.036 8  -9804372.032 6                  -7639778.310 7       228.000          38.000          73.000                  
G18  23169792.998    23169792.369    23169796.235                   -10535919.942 8 -10535919.933 7                  -8209811.504 8       247.000          87.000         134.000                  
G25  25007680.194    25007677.540    25007690.749                     2922966.189 7   2922966.152 6                   2277599.911 6        68.000          23.000          25.000                  
G26  21675240.858    21675240.229    21675246.598                   -14544481.458 8 -14544481.455 8                 -11333373.452 9       243.000         141.000         773.000                  
G27  22836909.753    22836909.874    22836916.034                   -10693557.092 8 -10693557.094 8                  -8332645.150 9       260.000         177.000         545.000                  
G28  21799054.753    21799054.302    21799057.349                   -16368694.789 8 -16368694.789 8                 -12754840.158 8       351.000         156.000         246.000                  
G29  22809472.408    22809471.867    22809475.351                   -11128688.614 8 -11128688.610 8                  -8671717.156 9       295.000         198.000         601.000                  
G31  23092034.259    23092033.629    23092036.521                    -8104070.066 8  -8104070.070 7                  -6314871.940 8       199.000          90.000         236.000                  
G32  19423618.818    19423618.570    19423622.789                   -28602312.163 9 -28602312.164 9                 -22287520.463 9      1366.000        4679.000        3230.000                  
> 2024 10 31 19 26 30.0000000  0 10
G10  22894543.519    22894542.935    22894549.307                    -8857584.033 8  -8857584.032 8                  -6902011.565 8       229.000         130.000         490.000                  
G16  22436286.476    22436285.543    22436288.961                    -9723619.431 8  -9723619.426 6                  -7576854.327 7       228.000          42.000          75.000                  
G18  23131632.178    23131631.909    23131635.836                   -10736454.316 8 -10736454.312 7                  -8366071.835 8       244.000          81.000         129.000                  
G25  25057108.437    25057106.221    25057121.945                     3182711.446 7   3182711.459 6                   2479997.180 6        65.000          21.000          27.000                  
G26  21726412.664    21726412.091    21726418.474                   -14275572.457 8 -14275572.451 8                 -11123834.193 9       239.000         137.000         735.000                  
G27  22780085.581    22780084.986    22780091.349                   -10992171.292 8 -10992171.293 8                  -8565331.280 9       261.000         174.000         563.000                  
G28  21851792.119    21851791.699    21851794.836                   -16091558.727 8 -16091558.726 8                 -12538890.199 8       342.000         149.000         232.000                  
G29  22861168.884    22861168.466    22861172.044                   -10857022.803 8 -10857022.802 8                  -8460029.807 9       295.000         193.000         637.000                  
G31  23155095.590    23155095.267    23155098.722                    -7772676.886 8  -7772676.894 7                  -6056643.943 8       184.000          75.000         215.000                  
G32  19412635.991    19412635.673    19412639.841                   -28660027.730 9 -28660027.732 9                 -22332493.626 9      1396.000        4879.000        3305.000                  
> 2024 10 31 19 26 40.0000000  0 10
G10  22834455.817    22834455.536    22834461.648                    -9173344.674 8  -9173344.679 8                  -7148058.443 9       239.000         143.000         518.000                  
G16  22452386.206    22452384.873    22452388.285                    -9639014.800 8  -9639014.788 6                  -7510928.734 7       223.000          41.000          69.000                  
G18  23094126.580    23094126.368    23094130.375                   -10933544.894 8 -10933544.882 7                  -8519648.663 8       244.000          75.000         135.000                  
G25  25106577.100    25106575.174    25106590.787                     3442662.643 7   3442662.639 6                   2682554.786 6        61.000          20.000          27.000                  
G26  21778229.806    21778229.807    21778235.850                   -14003270.643 8 -14003270.640 8                 -10911651.169 9       237.000         134.000         720.000                  
G27  22723786.833    22723786.234    22723792.412                   -11288022.959 8 -11288022.959 8                  -8795864.770 9       260.000         178.000         580.000                  
G28  21904944.591    21904944.034    21904946.954                   -15812243.031 8 -15812243.034 8                 -12321241.804 8       331.000         139.000         220.000                  
G29  22913440.521    22913440.267    22913444.015                   -10582333.860 8 -10582333.862 8                  -8245986.749 9       296.000         194.000         642.000                  
G31  23218427.689    23218427.345    23218430.766                    -7439867.296 8  -7439867.296 7                  -5797312.239 8       168.000          68.000         179.000                  
G32  19402425.755    19402425.517    19402429.705                   -28713682.616 9 -28713682.618 9                 -22374302.606 9      1415.000        5030.000        3378.000                  
> 2024 10 31 19 26 50.0000000  0 10
G10  22774593.654    22774593.443    22774599.367                    -9487920.819 8  -9487920.819 8                  -7393182.329 9       249.000         150.000         522.000                  
G16  22469210.288    22469208.711    22469212.559                    -9550603.808 8  -9550603.817 6                  -7442037.143 7       224.000          41.000          70.000                  
G18  23057277.041    23057276.266    23057280.416                   -11127189.762 8 -11127189.750 7                  -8670540.512 8       240.000          79.000         136.000                  
G25  25156072.488    25156068.950    25156083.441                     3702748.358 7   3702748.358 6                   2885217.251 6        61.000          24.000          22.000                  
G26  21830676.561    21830676.365    21830682.659                   -13727661.631 8 -13727661.636 8                 -10696891.101 9       222.000         111.000         692.000                  
G27  22668019.098    22668018.532    22668024.525                   -11581082.510 8 -11581082.508 8                  -9024222.577 9       261.000         186.000         584.000                  
G28  21958496.594    21958496.104    21958499.171                   -15530825.015 8 -15530825.017 8                 -12101955.224 8       320.000         127.000         204.000                  
G29  22966270.197    22966269.279    22966272.991                   -10304716.744 8 -10304716.748 8                  -8029661.980 9       298.000         203.000         644.000                  
G31  23282014.617    23282014.854    23282017.845                    -7105716.255 8  -7105716.269 7                  -5536935.237 8       165.000          60.000         159.000                  
G32  19392983.780    19392983.607    19392987.778                   -28763299.989 9 -28763299.990 9                 -22412965.463 9      1413.000        5019.000        3369.000                  
> 2024 10 31 19 27  0.0000000  0 10
G10  22714971.636    22714970.798    22714976.886                    -9801237.630 8  -9801237.627 8                  -7637324.910 9       255.000         160.000         529.000                  
G16  22486762.976    22486761.234    22486765.405                    -9458365.876 8  -9458365.880 6                  -7370163.499 7       228.000          38.000          70.000                  
G18  23021096.113    23021095.771    23021099.608                   -11317320.395 8 -11317320.386 7                  -8818693.980 8       241.000          70.000         130.000                  
G25  25205590.312    25205587.960    25205603.545                     3962964.719 7   3962964.713 6                   3087981.554 6        60.000          22.000          23.000                  
G26  21883749.075    21883748.915    21883755.279                   -13448764.115 8 -13448764.113 8                 -10479568.549 9       207.000         108.000         667.000                  
G27  22612801.119    22612800.859    22612806.466                   -11871253.573 8 -11871253.573 8                  -9250329.608 9       267.000         194.000         599.000                  
G28  22012447.101    22012446.555    22012449.806                   -15247314.734 8 -15247314.737 8                 -11881038.301 8       315.000         129.000         192.000                  
G29  23019650.433    23019649.986    23019653.867                   -10024199.436 8 -10024199.436 8                  -7811077.307 9       295.000         197.000         630.000                  
G31  23345854.857    23345855.572    23345858.542                    -6770231.342 8  -6770231.337 7                  -5275518.842 8       156.000          53.000         134.000                  
G32  19384318.496    19384318.222    19384322.328                   -28808836.637 9 -28808836.638 9                 -22448448.523 9      1401.000        4920.000        3300.000                  
> 2024 10 31 19 27 10.0000000  0 10
G10  22655590.073    22655589.707    22655595.589                   -10113286.797 8 -10113286.796 8                  -7880479.711 9       264.000         171.000         543.000                  
G16  22505034.338    22505032.510    22505036.919                    -9362348.078 8  -9362348.090 6                  -7295344.479 7       231.000          39.000          70.000                  
G18  22985584.567    22985583.901    22985588.010                   -11503935.598 8 -11503935.589 7                  -8964108.142 8       244.000          79.000         140.000                  
G25  25255120.987    25255118.019    25255134.286                     4223241.299 7   4223241.295 6                   3290792.755 6        59.000          20.000          20.000                  
G26  21937431.241    21937430.825    21937437.288                   -13166663.861 8 -13166663.858 8                 -10259750.346 9       204.000         106.000         637.000                  
G27  22558138.293    22558138.095    22558143.779                   -12158506.483 8 -12158506.481 8                  -9474162.738 9       272.000         200.000         628.000                  
G28  22066780.719    22066780.622    22066783.406                   -14961788.903 8 -14961788.902 8                 -11658550.801 8       307.000         117.000         194.000                  
G29  23073565.399    23073564.746    23073568.685                    -9740876.734 8  -9740876.736 8                  -7590306.593 9       285.000         180.000         606.000                  
G31  23409936.194    23409935.940    23409939.250                    -6433486.871 8  -6433486.870 7                  -5013120.952 8       149.000          57.000         113.000                  
G32  19376424.999    19376424.751    19376428.813                   -28850316.872 9 -28850316.874 9                 -22480770.733 9      1378.000        4778.000        3264.000                  
> 2024 10 31 19 27 20.0000000  0 10
G10  22596462.424    22596462.082    22596467.990                   -10424002.157 8 -10424002.154 8                  -8122595.179 9       274.000         188.000         554.000                  
G16  22524027.053    22524025.257    22524029.886                    -9262540.729 8  -9262540.741 6                  -7217572.541 7       231.000          47.000          65.000                  
G18  22950752.314    22950751.831    22950755.803                   -11686977.222 8 -11686977.221 7                  -9106737.681 8       254.000          90.000         142.000                  
G25  25304660.460    25304657.705    25304673.905                     4483565.705 7   4483565.706 6                   3493641.156 6        59.000          21.000          21.000                  
G26  21991717.376    21991716.938    21991723.378                   -12881389.221 8 -12881389.220 7                 -10037458.572 9       205.000         100.000         590.000                  
G27  22504047.858    22504047.349    22504053.070                   -12442753.993 8 -12442753.995 8                  -9695653.989 9       274.000         204.000         687.000                  
G28  22121494.754    22121494.224    22121497.363                   -14674266.560 8 -14674266.562 8                 -11434507.560 8       296.000         108.000         171.000                  
G29  23128006.875    23128005.931    23128010.149                    -9454785.848 8  -9454785.851 8                  -7367378.832 9       275.000         167.000         586.000                  
G31  23474253.327    23474253.465    23474256.795                    -6095499.201 8  -6095499.188 6                  -4749754.328 8       144.000          45.000         102.000                  
G32  19369309.590    19369309.337    19369313.477                   -28887708.215 9 -28887708.217 9                 -22509906.782 9      1348.000        4554.000        3296.000                  
> 2024 10 31 19 27 30.0000000  0 11
G10  22537595.129    22537594.703    22537600.440                   -10733351.017 8 -10733351.020 8                  -8363645.840 9       286.000         202.000         603.000                  
G16  22543736.189    22543735.118    22543738.715                    -9158968.672 8  -9158968.670 6                  -7136867.042 7       232.000          42.000          58.000                  
G18  22916605.260    22916604.518    22916608.616                   -11866421.419 8 -11866421.409 7                  -9246564.017 8       263.000          90.000         139.000                  
G23  24423573.667    24423573.251    24423596.840                     -611238.387 7   -611238.390 6                   -476292.115 6        80.000          22.000          20.000                  
G25  25354199.199    25354197.474    25354213.170                     4743891.943 7   4743891.959 6                   3696491.040 6        60.000          24.000          20.000                  
G26  22046595.730    22046595.201    22046601.488                   -12593002.500 8 -12593002.500 8                  -9812741.786 9       199.000         103.000         548.000                  
G27  22450539.127    22450538.704    22450544.287                   -12723942.705 8 -12723942.707 8                  -9914761.748 9       278.000         206.000         734.000                  
G28  22176577.850    22176577.445    22176580.817                   -14384800.307 8 -14384800.308 7                 -11208949.567 8       280.000          97.000         154.000                  
G29  23182961.555    23182960.877    23182964.991                    -9165997.764 8  -9165997.763 8                  -7142349.337 9       274.000         173.000         550.000                  
G31  23538797.624    23538797.634    23538801.800                    -5756318.253 8  -5756318.254 6                  -4485457.854 7       131.000          37.000          98.000                  
G32  19362971.920    19362971.593    19362975.766                   -28921012.701 9 -28921012.703 9                 -22535858.257 9      1323.000        4393.000        3194.000                  
> 2024 10 31 19 27 40.0000000  0 11
G10  22478997.695    22478997.403    22479003.120                   -11041279.703 8 -11041279.707 8                  -8603589.877 9       300.000         227.000         647.000                  
G16  22564160.703    22564159.122    22564162.978                    -9051636.775 8  -9051636.788 6                  -7053231.776 7       228.000          50.000          60.000                  
G18  22883150.912    22883150.306    22883153.929                   -12042224.265 8 -12042224.262 7                  -9383552.927 8       271.000         100.000         139.000                  
G23  24358043.232    24358043.626    24358062.220                     -955595.136 7   -955595.101 6                   -744620.811 6        77.000          22.000          19.000                  
G25  25403734.868    25403732.652    25403749.902                     5004195.195 7   5004195.174 6                   3899323.017 6        54.000          26.000          23.000                  
G26  22102058.277    22102057.703    22102064.064                   -12301545.444 8 -12301545.442 8                  -9585632.514 9       198.000         103.000         521.000                  
G27  22397626.547    22397626.203    22397631.657                   -13001998.574 8 -13001998.576 8                 -10131428.331 9       278.000         215.000         781.000                  
G28  22232025.431    22232025.268    22232028.457                   -14093421.872 8 -14093421.876 7                 -10981901.551 8       268.000          92.000         143.000                  
G29  23238420.014    23238419.371    23238423.257                    -8874562.778 8  -8874562.779 8                  -6915257.298 8       278.000         166.000         497.000                  
G31  23603564.310    23603563.142    23603567.292                    -5415972.921 8  -5415972.915 6                  -4220254.067 7       125.000          37.000          94.000                  
G32  19357415.271    19357415.018    19357419.139                   -28950212.375 9 -28950212.376 9                 -22558611.170 9      1307.000        4298.000        3157.000                  
> 2024 10 31 19 27 50.0000000  0 11
G10  22420675.422    22420674.785    22420680.528                   -11347765.365 8 -11347765.363 8                  -8842409.459 9       309.000         234.000         673.000                  
G16  22585293.940    22585292.016    22585295.978                    -8940581.708 8  -8940581.699 6                  -6966695.317 7       222.000          39.000          59.000                  
G18  22850391.505    22850391.081    22850394.415                   -12214373.482 8 -12214373.477 7                  -9517694.843 8       274.000          98.000         136.000                  
G23  24292670.934    24292669.573    24292705.140                    -1299135.130 7  -1299135.108 6                  -1012316.128 6        77.000          20.000          18.000                  
G25  25453255.168    25453252.576    25453270.281                     5264419.932 7   5264419.938 6                   4102093.774 6        54.000          23.000          21.000                  
G26  22158091.416    22158090.563    22158097.026                   -12007091.011 8 -12007091.007 7                  -9356187.599 9       204.000          94.000         540.000                  
G27  22345318.376    22345317.865    22345323.438                   -13276878.672 8 -13276878.672 8                 -10345620.278 9       278.000         214.000         826.000                  
G28  22287825.540    22287824.862    22287828.016                   -13800193.887 8 -13800193.890 7                 -10753412.302 8       260.000          89.000         136.000                  
G29  23294366.532    23294365.805    23294369.798                    -8580562.185 8  -8580562.185 8                  -6686166.063 8       272.000         171.000         457.000                  
G31  23668539.889    23668539.223    23668543.781                    -5074523.010 8  -5074523.014 6                  -3954189.555 7       117.000          37.000          81.000                  
G32  19352637.189    19352636.846    19352641.038                   -28975321.161 9 -28975321.162 9                 -22578176.367 9      1300.000        4236.000        3147.000                  
> 2024 10 31 19 28  0.0000000  0 11
G10  22362637.084    22362636.632    22362641.812                   -11652758.174 8 -11652758.174 8                  -9080065.786 9       311.000         233.000         687.000                  
G16  22607133.891    22607131.845    22607135.147                    -8825814.293 8  -8825814.305 6                  -6877266.096 7       215.000          40.000          52.000                  
G18  22818334.954    22818334.572    22818338.140                   -12382830.745 8 -12382830.738 8                  -9648959.909 8       280.000         113.000         139.000                  
G23  24227460.452    24227460.749    24227466.013                    -1641812.683 7  -1641812.667 6                  -1279334.485 6        77.000          20.000          20.000                  
G25  25502756.770    25502751.991    25502770.817                     5524539.064 7   5524539.083 6                   4304782.615 6        54.000          19.000          22.000                  
G26  22214685.302    22214684.749    22214691.591                   -11709685.582 8 -11709685.582 7                  -9124443.188 9       197.000          93.000         566.000                  
G27  22293627.609    22293627.180    22293632.712                   -13548513.528 8 -13548513.529 8                 -10557283.468 9       272.000         205.000         875.000                  
G28  22343969.823    22343969.373    22343972.607                   -13505152.098 8 -13505152.099 7                 -10523509.678 8       254.000          79.000         137.000                  
G29  23350790.504    23350790.210    23350794.221                    -8284050.514 8  -8284050.519 8                  -6455118.119 8       270.000         164.000         430.000                  
G31  23733720.087    23733719.772    23733723.980                    -4732001.295 8  -4732001.310 6                  -3687289.857 7       111.000          34.000          86.000                  
G32  19348639.826    19348639.504    19348643.624                   -28996327.034 9 -28996327.035 9                 -22594544.482 9      1298.000        4227.000        3012.000                  
> 2024 10 31 19 28 10.0000000  0 11
G10  22304894.215    22304893.959    22304899.145                   -11956195.878 8 -11956195.877 8                  -9316510.341 9       313.000         241.000         691.000                  
G16  22629679.600    22629678.305    22629681.700                    -8707333.821 8  -8707333.830 6                  -6784943.568 7       210.000          33.000          55.000                  
G18  22786990.522    22786990.275    22786993.428                   -12547546.156 8 -12547546.148 8                  -9777309.238 8       287.000         105.000         144.000                  
G23  24162424.843    24162425.846    24162430.452                    -1983569.716 7  -1983569.723 6                  -1545637.806 6        79.000          24.000          20.000                  
G25  25552232.771    25552229.108    25552248.116                     5784533.690 7   5784533.678 6                   4507373.990 6        55.000          25.000          25.000                  
G26  22271834.181    22271834.279    22271840.969                   -11409363.399 8 -11409363.399 7                  -8890425.962 9       195.000          84.000         579.000                  
G27  22242570.479    22242569.747    22242574.951                   -13816821.606 8 -13816821.607 8                 -10766354.360 9       269.000         201.000         933.000                  
G28  22400455.124    22400454.570    22400458.085                   -13208319.864 8 -13208319.864 7                 -10292211.876 8       247.000          81.000         139.000                  
G29  23407684.843    23407684.394    23407688.254                    -7985070.015 8  -7985070.019 8                  -6222146.385 8       268.000         167.000         403.000                  
G31  23799100.551    23799099.269    23799103.977                    -4388428.119 8  -4388428.133 6                  -3419570.824 7       107.000          31.000          87.000                  
G32  19345427.610    19345427.391    19345431.399                   -29013206.524 9 -29013206.526 9                 -22607697.228 9      1306.000        4264.000        2909.000                  
> 2024 10 31 19 28 20.0000000  0 10
G10  22247448.780    22247448.393    22247453.480                   -12258072.643 8 -12258072.642 8                  -9551738.591 9       315.000         245.000         681.000                  
G16  22652921.116    22652920.059    22652923.522                    -8585197.184 8  -8585197.198 6                  -6689772.060 7       206.000          36.000          51.000                  
G18  22756356.928    22756356.131    22756359.440                   -12708527.237 8 -12708527.235 8                  -9902748.699 8       285.000         109.000         134.000                  
G23  24097566.909    24097565.985    24097570.437                    -2324404.610 7  -2324404.583 6                  -1811222.567 6        81.000          22.000          22.000                  
G26  22329521.811    22329521.398    22329528.252                   -11106215.587 8 -11106215.588 7                  -8654206.923 9       205.000         100.000         581.000                  
G27  22192149.833    22192149.716    22192155.115                   -14081778.304 8 -14081778.306 8                 -10972813.782 9       261.000         184.000         988.000                  
G28  22457265.575    22457265.538    22457269.061                   -12909777.094 8 -12909777.098 7                 -10059581.162 8       243.000          79.000         141.000                  
G29  23465030.204    23465029.627    23465033.263                    -7683719.591 8  -7683719.588 8                  -5987327.933 8       263.000         159.000         379.000                  
G31  23864665.492    23864665.454    23864669.044                    -4043880.286 8  -4043880.298 6                  -3151092.282 7       104.000          30.000          76.000                  
G32  19342994.240    19342993.996    19342997.921                   -29025993.721 9 -29025993.723 9                 -22617661.163 9      1307.000        4300.000        2829.000                  
> 2024 10 31 19 28 30.0000000  0 10
G10  22190313.714    22190313.287    22190318.357                   -12558317.397 8 -12558317.397 8                  -9785695.151 9       320.000         252.000         706.000                  
G16  22676860.091    22676858.925    22676862.475                    -8459396.776 8  -8459396.783 6                  -6591745.636 6       204.000          34.000          50.000                  
G18  22726444.498    22726443.407    22726446.599                   -12865717.088 8 -12865717.088 8                 -10025233.953 8       286.000         108.000         136.000                  
G23  24032893.288    24032894.858    24032897.699                    -2664250.378 7  -2664250.382 6                  -2076036.662 6        79.000          21.000          21.000                  
G26  22387742.119    22387741.340    22387748.004                   -10800268.186 8 -10800268.185 8                  -8415806.365 9       212.000         108.000         576.000                  
G27  22142385.162    22142384.507    22142390.154                   -14343294.087 8 -14343294.088 8                 -11176591.974 9       249.000         171.000        1021.000                  
G28  22514399.448    22514399.389    22514402.374                   -12609538.397 8 -12609538.401 7                  -9825628.926 8       243.000          76.000         141.000                  
G29  23522819.585    23522819.342    23522822.972                    -7380032.960 8  -7380032.960 8                  -5750689.033 8       262.000         156.000         359.000                  
G31  23930414.563    23930413.776    23930417.655                    -3698369.198 7  -3698369.204 6                  -2881863.131 7        93.000          24.000          72.000                  
G32  19341345.408    19341345.095    19341349.018                   -29034658.355 9 -29034658.357 9                 -22624412.707 9      1305.000        4276.000        2843.000                  
> 2024 10 31 19 28 40.0000000  0 10
G10  22133498.477    22133497.767    22133502.723                   -12856883.207 8 -12856883.203 8                 -10018343.457 9       316.000         245.000         735.000                  
G16  22701492.356    22701491.010    22701495.204                    -8329950.251 8  -8329950.272 6                  -6490878.066 7       202.000          33.000          55.000                  
G18  22697258.735    22697258.954    22697261.512                   -13019083.954 8 -13019083.951 8                 -10144740.255 8       292.000         111.000         134.000                  
G23  23968420.388    23968419.694    23968423.468                    -3003064.306 7  -3003064.273 6                  -2340046.802 6        84.000          25.000          18.000                  
G26  22446484.750    22446484.505    22446491.116                   -10491571.743 8 -10491571.739 8                  -8175263.683 9       215.000         119.000         567.000                  
G27  22093287.196    22093286.508    22093292.044                   -14601304.096 8 -14601304.098 8                 -11377638.405 9       241.000         149.000        1049.000                  
G28  22571848.784    22571847.763    22571851.518                   -12307642.599 8 -12307642.603 7                  -9590385.417 8       241.000          84.000         143.000                  
G29  23581042.665    23581042.524    23581046.343                    -7074068.054 8  -7074068.060 8                  -5512274.832 8       255.000         148.000         322.000                  
G31  23996339.771    23996338.960    23996342.890                    -3351930.502 7  -3351930.540 6                  -2611911.150 7        89.000          25.000          53.000                  
G32  19340481.890    19340481.644    19340485.570                   -29039195.397 9 -29039195.399 9                 -22627947.941 9      1296.000        4213.000        2854.000                  
> 2024 10 31 19 28 50.0000000  0 10
G10  22077005.258    22077004.935    22077010.007                   -13153753.057 8 -13153753.055 8                 -10249670.248 9       298.000         225.000         767.000                  
G16  22726809.571    22726808.888    22726812.725                    -8196906.018 8  -8196906.038 6                  -6387207.085 7       201.000          37.000          58.000                  
G18  22668801.601    22668801.470    22668804.203                   -13168626.890 8 -13168626.894 8                 -10261266.886 8       291.000         106.000         132.000                  
G23  23904144.582    23904142.593    23904148.327                    -3340833.493 7  -3340833.501 6                  -2603242.820 6        91.000          20.000          21.000                  
G26  22505736.015    22505735.388    22505741.846                   -10180206.910 8 -10180206.905 8                  -7932641.726 9       222.000         118.000         569.000                  
G27  22044862.900    22044862.486    22044867.729                   -14855773.868 8 -14855773.871 8                 -11575926.218 9       240.000         172.000        1050.000                  
G28  22629599.855    22629598.761    22629602.356                   -12004158.438 8 -12004158.436 7                  -9353904.206 8       242.000          83.000         141.000                  
G29  23639682.745    23639682.380    23639686.273                    -6765912.832 8  -6765912.836 8                  -5272153.861 8       254.000         147.000         323.000                  
G31  24062427.518    24062427.803    24062432.015                    -3004629.794 7  -3004629.795 6                  -2341287.436 6        84.000          25.000          48.000                  
G32  19340398.880    19340398.638    19340402.539                   -29039630.717 9 -29039630.718 9                 -22628287.029 9      1277.000        4098.000        2780.000                  
> 2024 10 31 19 29  0.0000000  0 10
G10  22020850.558    22020849.828    22020854.967                   -13448848.290 8 -13448848.291 8                 -10479614.231 9       274.000         188.000         768.000                  
G16  22752814.598    22752812.871    22752816.618                    -8060251.833 8  -8060251.833 6                  -6280723.157 7       205.000          39.000          52.000                  
G18  22641083.935    22641083.204    22641086.272                   -13314284.241 8 -13314284.244 8                 -10374765.792 8       292.000         111.000         128.000                  
G23  23840080.604    23840079.438    23840085.056                    -3677483.369 7  -3677483.350 6                  -2865566.763 6        95.000          23.000          24.000                  
G26  22565491.240    22565490.428    22565496.827                    -9866192.975 8  -9866192.978 8                  -7687955.528 9       236.000         133.000         550.000                  
G27  21997130.782    21997129.901    21997135.257                   -15106607.734 8 -15106607.735 8                 -11771380.869 9       251.000         173.000        1053.000                  
G28  22687651.301    22687650.995    22687654.748                   -11699092.969 8 -11699092.961 7                  -9116190.797 8       238.000          73.000         137.000                  
G29  23698734.497    23698734.007    23698737.888                    -6455593.726 8  -6455593.724 8                  -5030346.734 8       246.000         133.000         304.000                  
G31  24128682.550    24128680.125    24128684.946                    -2656470.778 7  -2656470.779 6                  -2069994.903 6        80.000          23.000          46.000                  
G32  19341103.045    19341102.876    19341106.781                   -29035929.499 9 -29035929.500 9                 -22625402.842 9      1265.000        4032.000        2785.000                  
> 2024 10 31 19 29 10.0000000  0 10
G10  21965034.740    21965034.292    21965039.610                   -13742158.105 8 -13742158.105 8                 -10708166.989 9       274.000         175.000         752.000                  
G16  22779494.247    22779492.960    22779497.527                    -7920044.204 8  -7920044.196 6                  -6171470.287 7       200.000          37.000          51.000                  
G18  22614103.946    22614103.598    22614106.270                   -13456063.238 8 -13456063.234 8                 -10485242.621 8       294.000         113.000         121.000                  
G23  23776233.270    23776231.673    23776235.516                    -4013007.293 8  -4013007.275 6                  -3127013.318 6       107.000          19.000          30.000                  
G26  22625733.207    22625732.723    22625739.114                    -9549617.293 8  -9549617.295 8                  -7441273.151 9       248.000         147.000         541.000                  
G27  21950095.507    21950094.861    21950099.926                   -15353778.446 8 -15353778.446 8                 -11963981.134 9       253.000         173.000        1036.000                  
G28  22745990.581    22745989.683    22745993.049                   -11392521.153 8 -11392521.157 7                  -8877303.605 8       239.000          73.000         139.000                  
G29  23758180.090    23758179.663    23758183.388                    -6143204.934 8  -6143204.935 8                  -4786926.855 8       236.000         128.000         297.000                  
G31  24195084.660    24195082.599    24195087.352                    -2307525.010 7  -2307525.026 6                  -1798089.286 6        74.000          21.000          28.000                  
G32  19342588.023    19342587.738    19342591.692                   -29028125.852 9 -29028125.854 9                 -22619321.958 9      1256.000        3983.000        2804.000                  
> 2024 10 31 19 29 20.0000000  0 10
G10  21909574.586    21909574.046    21909578.907                   -14033603.744 8 -14033603.744 8                 -10935267.160 9       284.000         197.000         720.000                  
G16  22806853.147    22806852.126    22806855.800                    -7776272.482 8  -7776272.492 6                  -6059440.206 7       203.000          34.000          54.000                  
G18  22587873.090    22587872.860    22587875.764                   -13593904.030 8 -13593904.024 8                 -10592650.730 8       295.000         117.000         131.000                  
G23  23712613.494    23712611.626    23712615.392                    -4347330.546 8  -4347330.554 6                  -3387524.374 6       121.000          27.000          32.000                  
G26  22686458.785    22686459.078    22686465.202                    -9230499.399 8  -9230499.398 8                  -7192609.819 9       243.000         139.000         518.000                  
G27  21903774.892    21903774.591    21903779.784                   -15597191.320 8 -15597191.324 8                 -12153653.218 9       257.000         172.000        1038.000                  
G28  22804614.794    22804613.752    22804617.060                   -11084449.909 8 -11084449.917 7                  -8637248.021 8       236.000          73.000         136.000                  
G29  23818014.625    23818014.326    23818018.082                    -5828772.868 8  -5828772.866 8                  -4541914.794 8       228.000         123.000         293.000                  
G31  24261634.287    24261634.411    24261638.700                    -1957795.929 7  -1957795.921 6                  -1525573.329 6        66.000          25.000          31.000                  
G32  19344859.796    19344859.560    19344863.458                   -29016186.860 9 -29016186.862 9                 -22610018.730 9      1269.000        4050.000        2860.000                  
> 2024 10 31 19 29 30.0000000  0 10
G10  21854470.288    21854470.160    21854474.783                   -14323176.327 8 -14323176.323 8                 -11160907.830 9       291.000         211.000         696.000                  
G16  22834878.780    22834877.808    22834881.482                    -7628996.737 8  -7628996.744 6                  -5944679.733 6       200.000          36.000          49.000                  
G18  22562389.996    22562389.644    22562392.338                   -13727817.618 8 -13727817.619 8                 -10696998.708 8       297.000         116.000         128.000                  
G23  23649223.187    23649221.509    23649224.803                    -4680448.291 8  -4680448.300 6                  -3647096.101 6       133.000          28.000          35.000                  
G26  22747651.961    22747651.494    22747657.971                    -8908928.852 8  -8908928.850 8                  -6942035.327 8       232.000         128.000         494.000                  
G27  21858174.662    21858174.116    21858179.190                   -15836822.107 8 -15836822.112 8                 -12340378.237 9       257.000         188.000         997.000                  
G28  22863509.215    22863508.351    22863511.819                   -10774955.989 8 -10774955.986 7                  -8396083.861 8       230.000          62.000         126.000                  
G29  23878219.880    23878219.177    23878222.955                    -5512393.683 8  -5512393.682 8                  -4295385.493 8       221.000         119.000         294.000                  
G31  24328321.638    24328320.066    24328325.518                    -1607356.903 7  -1607356.888 6                  -1252504.110 6        58.000          20.000          23.000                  
G32  19347911.446    19347911.165    19347914.980                   -29000150.442 9 -29000150.443 9                 -22597522.709 9      1297.000        4245.000        2928.000                  
> 2024 10 31 19 29 40.0000000  0 10
G10  21799737.229    21799736.913    21799741.353                   -14610800.047 8 -14610800.045 8                 -11385029.921 9       289.000         212.000         702.000                  
G16  22863572.969    22863570.943    22863574.032                    -7478211.083 8  -7478211.059 6                  -5827184.241 6       198.000          31.000          44.000                  
G18  22537664.654    22537664.541    22537667.186                   -13857749.074 8 -13857749.074 8                 -10798243.733 8       287.000         109.000         129.000                  
G23  23586075.232    23586073.859    23586077.450                    -5012288.750 8  -5012288.760 6                  -3905672.561 6       142.000          31.000          44.000                  
G26  22809307.674    22809306.656    22809313.237                    -8584928.463 8  -8584928.463 8                  -6689567.449 8       221.000         123.000         462.000                  
G27  21813311.597    21813310.941    21813315.624                   -16072580.206 8 -16072580.208 8                 -12524085.589 9       267.000         197.000         962.000                  
G28  22922672.581    22922672.284    22922675.318                   -10464049.154 8 -10464049.152 7                  -8153818.733 8       223.000          63.000         124.000                  
G29  23938788.900    23938788.720    23938792.822                    -5194096.590 8  -5194096.589 8                  -4047361.718 8       209.000         103.000         277.000                  
G31  24395143.184    24395140.865    24395145.428                    -1256214.219 7  -1256214.206 6                   -978886.614 6        56.000          20.000          23.000                  
G32  19351748.053    19351747.808    19351751.584                   -28979988.611 9 -28979988.613 9                 -22581812.088 9      1336.000        4480.000        3024.000                  
> 2024 10 31 19 29 50.0000000  0  9
G10  21745378.211    21745377.700    21745382.195                   -14896458.675 8 -14896458.674 8                 -11607620.786 9       290.000         206.000         708.000                  
G16  22892924.161    22892922.544    22892925.587                    -7323969.930 8  -7323969.953 6                  -5706996.183 6       189.000          31.000          47.000                  
G18  22513696.316    22513695.809    22513698.653                   -13983703.986 8 -13983703.985 8                 -10896390.173 8       289.000         106.000         139.000                  
G23  23523173.547    23523172.732    23523175.346                    -5342839.680 8  -5342839.652 6                  -4163244.260 7       151.000          28.000          53.000                  
G26  22871409.141    22871408.467    22871415.086                    -8258580.692 8  -8258580.686 8                  -6435270.448 8       220.000         111.000         427.000                  
G27  21769190.186    21769190.117    21769194.877                   -16304435.205 8 -16304435.204 8                 -12704751.584 9       270.000         199.000         946.000                  
G28  22982091.583    22982091.490    22982094.655                   -10151798.642 8 -10151798.650 7                  -7910506.585 8       220.000          58.000         119.000                  
G29  23999707.217    23999706.646    23999710.799                    -4873970.351 8  -4873970.354 7                  -3797912.635 8       196.000          96.000         275.000                  
G32  19356363.586    19356363.297    19356366.997                   -28955733.863 9 -28955733.864 9                 -22562912.188 9      1371.000        4724.000        3112.000                  
> 2024 10 31 19 30  0.0000000  0  9
G10  21691405.023    21691405.032    21691409.520                   -15180085.817 8 -15180085.815 8                 -11828628.685 9       290.000         205.000         695.000                  
G16  22922930.954    22922929.470    22922933.658                    -7166278.240 8  -7166278.227 6                  -5584119.395 6       184.000          29.000          46.000                  
G18  22490492.359    22490492.212    22490494.751                   -14105638.718 8 -14105638.718 8                 -10991404.022 8       286.000         110.000         150.000                  
G23  23460527.278    23460527.119    23460530.415                    -5672038.558 8  -5672038.544 6                  -4419762.423 7       159.000          40.000          60.000                  
G26  22933951.361    22933950.919    22933957.442                    -7929917.863 8  -7929917.863 8                  -6179169.501 8       213.000         108.000         397.000                  
G27  21725827.911    21725827.213    21725832.027                   -16532307.075 8 -16532307.076 8                 -12882313.851 9       280.000         215.000         902.000                  
G28  23041763.268    23041762.997    23041765.906                    -9838223.392 8  -9838223.400 7                  -7666162.181 8       211.000          64.000         112.000                  
G29  24060965.930    24060965.488    24060969.571                    -4552053.322 8  -4552053.323 7                  -3547068.132 8       190.000          82.000         263.000                  
G32  19361761.088    19361760.854    19361764.447                   -28927369.423 9 -28927369.424 9                 -22540809.936 9      1403.000        4943.000        3146.000                  
> 2024 10 31 19 30 10.0000000  0  9
G10  21637824.512    21637824.044    21637828.411                   -15461654.669 8 -15461654.668 8                 -12048032.738 9       293.000         212.000         657.000                  
G16  22953587.013    22953585.167    22953588.659                    -7005181.528 8  -7005181.520 6                  -5458589.352 6       175.000          30.000          44.000                  
G18  22468054.963    22468054.059    22468056.905                   -14223550.305 8 -14223550.310 8                 -11083282.966 8       285.000         111.000         155.000                  
G23  23398144.259    23398144.765    23398146.846                    -5999862.537 8  -5999862.537 6                  -4675209.284 7       169.000          42.000          66.000                  
G26  22996920.957    22996920.393    22996926.676                    -7599012.032 8  -7599012.027 8                  -5921320.769 8       209.000         104.000         357.000                  
G27  21683231.086    21683230.270    21683234.676                   -16756156.091 8 -16756156.092 8                 -13056741.447 9       288.000         227.000         860.000                  
G28  23101675.561    23101674.820    23101678.279                    -9523381.926 8  -9523381.929 7                  -7420831.112 8       204.000          56.000         104.000                  
G29  24122550.344    24122549.994    24122553.952                    -4228423.423 8  -4228423.425 7                  -3294888.940 8       183.000          77.000         243.000                  
G32  19367936.114    19367935.859    19367939.406                   -28894919.145 9 -28894919.146 9                 -22515523.921 9      1413.000        5026.000        3232.000                  
> 2024 10 31 19 30 20.0000000  0  9
G10  21584646.828    21584646.422    21584650.817                   -15741103.125 8 -15741103.126 8                 -12265784.550 9       289.000         208.000         599.000                  
G16  22984888.339    22984886.537    22984890.670                    -6840690.605 8  -6840690.585 6                  -5330414.496 6       171.000          28.000          40.000                  
G18  22446389.527    22446389.158    22446391.798                   -14337401.353 8 -14337401.347 8                 -11171997.870 8       289.000         108.000         159.000                  
G23  23336034.775    23336033.675    23336036.720                    -6326253.323 8  -6326253.317 6                  -4929539.394 7       175.000          47.000          69.000                  
G26  23060310.261    23060309.614    23060315.680                    -7265899.948 8  -7265899.944 7                  -5661752.885 8       200.000          96.000         325.000                  
G27  21641412.886    21641412.448    21641417.051                   -16975907.862 8 -16975907.866 8                 -13227976.402 9       292.000         236.000         881.000                  
G28  23161824.460    23161823.752    23161826.989                    -9207297.273 8  -9207297.273 7                  -7174531.336 8       198.000          51.000         102.000                  
G29  24184452.921    24184452.588    24184456.439                    -3903123.238 8  -3903123.239 7                  -3041408.240 8       178.000          76.000         230.000                  
G32  19374890.643    19374890.437    19374894.032                   -28858372.392 9 -28858372.394 9                 -22487045.852 9      1420.000        5059.000        3376.000                  
> 2024 10 31 19 30 30.0000000  0  9
G10  21531879.679    21531878.967    21531883.409                   -16018397.088 8 -16018397.085 8                 -12481857.558 9       296.000         219.000         591.000                  
G16  23016828.753    23016827.148    23016829.309                    -6672844.993 8  -6672845.007 6                  -5199625.599 6       167.000          34.000          43.000                  
G18  22425498.608    22425498.071    22425500.503                   -14447183.493 8 -14447183.494 8                 -11257542.215 8       293.000         110.000         164.000                  
G23  23274202.894    23274201.712    23274204.915                    -6651180.594 8  -6651180.605 6                  -5182729.123 7       180.000          46.000          79.000                  
G26  23124106.800    23124106.271    23124112.467                    -6930646.299 8  -6930646.301 7                  -5400516.263 8       192.000          92.000         284.000                  
G27  21600383.801    21600383.292    21600387.913                   -17191516.653 8 -17191516.655 8                 -13395983.069 9       292.000         239.000         934.000                  
G28  23222199.750    23222199.455    23222202.505                    -8890020.291 8  -8890020.275 6                  -6927302.491 7       187.000          48.000          90.000                  
G29  24246659.910    24246660.327    24246663.573                    -3576223.083 8  -3576223.083 7                  -2786680.820 8       172.000          62.000         211.000                  
G32  19382621.243    19382621.042    19382624.660                   -28817747.450 9 -28817747.451 9                 -22455389.981 9      1406.000        4944.000        3481.000                  
> 2024 10 31 19 30 40.0000000  0 10
G08  24684740.593    24684740.486    24684760.216                     -430820.954 7   -430820.923 6                   -335708.735 6        86.000          29.000          25.000                  
G10  21479530.023    21479529.312    21479533.541                   -16293496.753 8 -16293496.753 8                 -12696220.733 9       315.000         243.000         621.000                  
G16  23049399.765    23049397.904    23049401.661                    -6501679.151 8  -6501679.159 6                  -5066249.513 6       167.000          29.000          45.000                  
G18  22405384.079    22405383.687    22405386.552                   -14552883.661 8 -14552883.656 8                 -11339905.812 8       297.000         119.000         160.000                  
G23  23212655.929    23212655.741    23212658.083                    -6974608.272 8  -6974608.275 6                  -5434750.368 7       192.000          47.000          79.000                  
G26  23188299.939    23188299.154    23188305.204                    -6593310.195 8  -6593310.189 7                  -5137656.962 8       189.000          94.000         260.000                  
G27  21560152.795    21560152.356    21560156.825                   -17402931.753 8 -17402931.754 8                 -13560721.934 9       308.000         258.000         970.000                  
G28  23282794.036    23282793.936    23282796.934                    -8571596.045 8  -8571596.060 6                  -6679179.686 7       182.000          43.000          79.000                  
G29  24309159.536    24309159.257    24309162.717                    -3247787.476 8  -3247787.489 7                  -2530756.971 8       167.000          67.000         198.000                  
G32  19391125.363    19391125.108    19391128.767                   -28773057.813 9 -28773057.814 9                 -22420566.822 9      1379.000        4768.000        3489.000                  
> 2024 10 31 19 30 50.0000000  0 10
G08  24628519.468    24628518.466    24628524.933                     -726263.252 7   -726263.251 6                   -565921.645 7        86.000          25.000          64.000                  
G10  21427609.283    21427608.504    21427612.752                   -16566341.169 8 -16566341.168 8                 -12908826.583 9       334.000         274.000         671.000                  
G16  23082599.864    23082599.523    23082602.295                    -6327207.268 8  -6327207.284 6                  -4930297.353 6       165.000          28.000          40.000                  
G18  22386053.178    22386052.807    22386055.263                   -14654468.573 8 -14654468.570 8                 -11419062.732 8       305.000         124.000         160.000                  
G23  23151405.959    23151405.620    23151407.899                    -7296479.074 8  -7296479.073 7                  -5685558.475 7       196.000          56.000          77.000                  
G26  23252881.688    23252881.088    23252887.314                    -6253929.464 8  -6253929.466 7                  -4873204.466 8       186.000          82.000         236.000                  
G27  21520734.063    21520732.943    21520737.283                   -17610082.023 8 -17610082.024 8                 -13722137.567 9       328.000         305.000        1031.000                  
G28  23343601.827    23343601.694    23343604.971                    -8252048.186 8  -8252048.182 6                  -6430181.320 7       171.000          43.000          65.000                  
G29  24371943.070    24371942.450    24371946.079                    -2917859.490 8  -2917859.493 7                  -2273670.223 8       161.000          57.000         180.000                  
G32  19400404.243    19400403.979    19400407.687                   -28724296.668 9 -28724296.670 9                 -22382571.064 9      1344.000        4526.000        3516.000                  
> 2024 10 31 19 31  0.0000000  0 10
G08  24572576.955    24572576.930    24572582.947                    -1020240.773 7  -1020240.779 6                   -794995.042 7        83.000          29.000          63.000                  
G10  21376123.758    21376123.505    21376127.727                   -16836896.513 8 -16836896.515 8                 -13119648.750 9       342.000         288.000         728.000                  
G16  23116422.429    23116421.513    23116424.610                    -6149471.090 8  -6149471.093 6                  -4791801.586 6       165.000          26.000          35.000                  
G18  22367505.975    22367505.711    22367508.173                   -14751933.054 8 -14751933.052 8                 -11495008.943 8       316.000         130.000         150.000                  
G23  23090457.793    23090457.511    23090459.953                    -7616762.744 8  -7616762.737 7                  -5935129.878 7       204.000          60.000          78.000                  
G26  23317840.350    23317840.023    23317845.989                    -5912568.970 8  -5912568.968 7                  -4607209.295 8       179.000          79.000         211.000                  
G27  21482134.037    21482133.389    21482137.599                   -17812924.148 8 -17812924.149 8                 -13880196.219 9       355.000         340.000        1115.000                  
G28  23404614.541    23404613.639    23404616.424                    -7931427.429 8  -7931427.437 6                  -6180346.980 7       163.000          35.000          56.000                  
G29  24434996.739    24434995.936    24434999.968                    -2586509.252 8  -2586509.244 7                  -2015475.273 8       156.000          53.000         164.000                  
G32  19410453.888    19410453.615    19410457.371                   -28671485.144 9 -28671485.146 9                 -22341419.171 9      1308.000        4303.000        3469.000                  
> 2024 10 31 19 31 10.0000000  0 10
G08  24516921.875    24516922.455    24516928.942                    -1312705.090 7  -1312705.084 6                  -1022888.812 7        85.000          25.000          73.000                  
G10  21325082.107    21325081.771    21325085.931                   -17105122.506 8 -17105122.505 8                 -13328655.843 9       359.000         319.000         757.000                  
G16  23150858.771    23150858.059    23150860.676                    -5968506.641 8  -5968506.617 6                  -4650790.283 6       168.000          26.000          39.000                  
G18  22349745.143    22349744.823    22349747.440                   -14845266.518 8 -14845266.515 8                 -11567736.191 8       318.000         140.000         155.000                  
G23  23029818.570    23029818.134    23029820.387                    -7935422.562 8  -7935422.557 7                  -6183435.959 7       207.000          58.000          83.000                  
G26  23383165.526    23383164.166    23383170.054                    -5569287.139 8  -5569287.139 7                  -4339717.003 8       172.000          70.000         183.000                  
G27  21444363.281    21444362.890    21444367.012                   -18011409.171 8 -18011409.172 8                 -14034859.736 9       364.000         366.000        1181.000                  
G28  23465822.351    23465821.561    23465824.485                    -7609777.729 8  -7609777.717 6                  -5929710.860 7       158.000          34.000          58.000                  
G29  24498309.315    24498308.438    24498312.248                    -2253800.038 8  -2253800.057 7                  -1756221.386 8       153.000          52.000         160.000                  
G32  19421271.392    19421271.102    19421274.804                   -28614638.804 9 -28614638.805 9                 -22297123.269 9      1285.000        4154.000        3414.000                  
> 2024 10 31 19 31 20.0000000  0 10
G08  24461568.670    24461568.224    24461574.983                    -1603587.593 7  -1603587.619 6                  -1249550.048 7        86.000          24.000          77.000                  
G10  21274495.054    21274494.675    21274498.811                   -17370958.819 8 -17370958.818 8                 -13535800.860 9       403.000         387.000         788.000                  
G16  23185906.246    23185904.886    23185908.270                    -5784330.341 8  -5784330.358 6                  -4507276.246 6       164.000          31.000          41.000                  
G18  22332776.110    22332775.788    22332777.802                   -14934439.236 8 -14934439.234 8                 -11637221.308 8       322.000         141.000         152.000                  
G23  22969499.750    22969498.715    22969500.718                    -8252401.604 8  -8252401.607 7                  -6430432.366 7       207.000          51.000          95.000                  
G26  23448847.368    23448846.633    23448852.779                    -5224122.104 8  -5224122.109 7                  -4070757.285 8       167.000          69.000         166.000                  
G27  21407435.121    21407434.379    21407438.690                   -18205468.806 8 -18205468.807 8                 -14186074.907 9       370.000         382.000        1238.000                  
G28  23527220.488    23527221.041    23527223.150                    -7287122.770 8  -7287122.785 6                  -5678291.405 6       148.000          39.000          46.000                  
G29  24561872.026    24561871.457    24561875.232                    -1919774.800 8  -1919774.791 7                  -1495942.014 8       145.000          59.000         146.000                  
G32  19432857.248    19432857.056    19432860.727                   -28553753.924 9 -28553753.926 9                 -22249680.457 9      1274.000        4080.000        3340.000                  
> 2024 10 31 19 31 30.0000000  0 10
G08  24406524.694    24406524.461    24406530.469                    -1892845.083 7  -1892845.084 6                  -1474945.067 7        88.000          24.000          79.000                  
G10  21224369.449    21224368.902    21224373.082                   -17634370.622 8 -17634370.622 8                 -13741056.669 9       435.000         476.000         842.000                  
G16  23221557.297    23221555.969    23221558.686                    -5596984.754 8  -5596984.737 6                  -4361292.648 6       168.000          22.000          44.000                  
G18  22316599.315    22316599.065    22316601.446                   -15019447.970 8 -15019447.965 8                 -11703461.769 8       323.000         141.000         147.000                  
G23  22909505.929    22909505.048    22909507.350                    -8567668.392 8  -8567668.390 7                  -6676094.568 7       208.000          55.000          92.000                  
G26  23514876.588    23514875.957    23514882.013                    -4877137.451 8  -4877137.456 7                  -3800379.705 8       164.000          62.000         152.000                  
G27  21371356.382    21371356.150    21371360.409                   -18395061.109 8 -18395061.110 8                 -14333809.047 9       383.000         399.000        1300.000                  
G28  23588802.131    23588802.653    23588805.488                    -6963511.540 8  -6963511.520 6                  -5426126.838 6       136.000          28.000          43.000                  
G29  24625671.975    24625671.789    24625675.891                    -1584501.820 8  -1584501.817 6                  -1234690.409 8       138.000          44.000         138.000                  
G32  19445207.629    19445207.283    19445210.938                   -28488853.074 9 -28488853.075 9                 -22199108.323 9      1268.000        4026.000        3277.000                  
> 2024 10 31 19 31 40.0000000  0 10
G08  24351800.039    24351798.677    24351804.892                    -2180428.903 7  -2180428.903 6                  -1699035.960 7        91.000          28.000          83.000                  
G10  21174712.752    21174712.190    21174716.428                   -17895317.730 8 -17895317.730 9                 -13944391.949 9       460.000         517.000         869.000                  
G16  23257804.607    23257802.515    23257804.805                    -5406507.735 8  -5406507.752 6                  -4212868.975 6       165.000          30.000          42.000                  
G18  22301216.815    22301216.234    22301218.145                   -15100285.078 8 -15100285.076 8                 -11766451.619 8       326.000         140.000         148.000                  
G23  22849845.195    22849844.324    22849846.596                    -8881186.000 8  -8881185.997 7                  -6920393.787 7       207.000          53.000          96.000                  
G26  23581241.327    23581240.202    23581246.672                    -4528391.190 8  -4528391.196 7                  -3528629.444 8       153.000          62.000         133.000                  
G27  21336137.395    21336136.705    21336140.969                   -18580139.557 8 -18580139.559 8                 -14478025.907 9       392.000         413.000        1298.000                  
G28  23650557.032    23650556.915    23650559.555                    -6638987.406 8  -6638987.405 6                  -5173250.927 6       125.000          28.000          45.000                  
G29  24689698.859    24689697.900    24689701.690                    -1248043.640 8  -1248043.659 6                   -972515.293 8       138.000          50.000         124.000                  
G32  19458318.535    19458318.260    19458321.907                   -28419954.237 9 -28419954.238 9                 -22145420.879 9      1253.000        3945.000        3198.000                  
> 2024 10 31 19 31 50.0000000  0 10
G08  24297405.059    24297404.130    24297411.060                    -2466270.257 7  -2466270.275 6                  -1921769.105 7        91.000          30.000          86.000                  
G10  21125536.695    21125536.169    21125540.196                   -18153739.976 8 -18153739.976 9                 -14145759.807 9       471.000         532.000         892.000                  
G16  23294644.225    23294641.699    23294644.492                    -5212917.511 8  -5212917.498 6                  -4062019.444 6       171.000          26.000          39.000                  
G18  22286632.596    22286632.286    22286634.686                   -15176923.908 8 -15176923.904 8                 -11826170.095 8       326.000         132.000         156.000                  
G23  22790528.682    22790527.415    22790529.965                    -9192897.413 8  -9192897.409 7                  -7163285.592 8       205.000          61.000         101.000                  
G26  23647933.621    23647932.607    23647938.403                    -4177921.203 8  -4177921.204 7                  -3255536.043 8       147.000          57.000         121.000                  
G27  21301789.533    21301788.795    21301793.072                   -18760638.474 8 -18760638.473 8                 -14618674.306 9       408.000         454.000        1283.000                  
G28  23712481.834    23712481.437    23712483.519                    -6313573.487 8  -6313573.483 6                  -4919681.688 6       122.000          28.000          43.000                  
G29  24753941.388    24753941.112    24753944.922                     -910442.539 8   -910442.533 6                   -709449.613 8       133.000          43.000         113.000                  
G32  19472190.568    19472190.305    19472193.854                   -28347056.147 9 -28347056.149 9                 -22088617.142 9      1252.000        3915.000        3098.000                  
