     3.03           OBSERVATION DATA    M (MIXED)           RINEX VERSION / TYPE
BJPP                CNES                20241031 073231 UTC PGM / RUN BY / DATE 
MARKER                                                      MARKER NAME         
SPACECRAFT                                                  MARKER TYPE         
OBSERVER            CNES                                    OBSERVER / AGENCY   
RECNUM              BLACKJACK           RECVERS             REC # / TYPE / VERS 
ANTNUM              BLACKJACK                               ANT # / TYPE        
        0.0000        0.0000        0.0000                  ANTENNA: DELTA H/E/N
G   12 C1C C1W C2W C2X L1C L1W L2X L2W S1C S1W S2W S2X      SYS / # / OBS TYPES 
DBHZ                                                        SIGNAL STRENGTH UNIT
This rinex produced from the following file(s):             COMMENT             
/tmp/mesos_work/slaves/d197f515-9ebc-49f2-8adc-fe7a9d3e6458-COMMENT             
S45/frameworks/8c1b9f46-52ed-4aff-9edf-38d17bf6761e-2813/exeCOMMENT             
cutors/toil-39358/runs/dd1a9bf3-f2cc-4d87-a11c-bd23331dd2ee/COMMENT             
da418760a432553f9ac4d0c25b2abe00/e769/2e8e/tmpkjpkc4x35nag8cCOMMENT             
19/stgdf5f1a16-e2e9-4f91-ad17-69af36e166c8/SWOT_KRX_20241031COMMENT             
T064902_20241031T032119_20241031T051329_O_APID1280.PTM_0    COMMENT             
  2024    10    31     3    21    0.0000000                 TIME OF FIRST OBS   
G L1C                                                       SYS / PHASE SHIFT   
G L1W -0.25000                                              SYS / PHASE SHIFT   
G L2W                                                       SYS / PHASE SHIFT   
G L2X  0.25000                                              SYS / PHASE SHIFT   
                                                            END OF HEADER       
> 2024 10 31 03 21  0.0000000  0  9
G02  22004309.363    22004308.419    22004306.260                   -16892634.927 8 -16892634.923 7                 -13163093.238 8       329.000          98.000         113.000                  
G03  23813120.822    23813121.084    23813125.840                    -4283656.593 7  -4283656.567 6                  -3337914.323 7        75.000          22.000          77.000                  
G08  20814970.373    20814970.041    20814973.617                   -20487481.632 8 -20487481.637 9                 -15964269.546 9       456.000         506.000         611.000                  
G10  22219613.027    22219612.941    22219615.772                   -13869254.345 8 -13869254.344 8                 -10807212.500 8       283.000         189.000         392.000                  
G21  20552018.558    20552017.414    20552017.895                   -22881769.350 9 -22881769.353 8                 -17829950.674 8       551.000         282.000         205.000                  
G27  22408756.009    22408755.309    22408758.741                   -12747633.124 8 -12747633.125 8                  -9933220.938 8       268.000         196.000         428.000                  
G28  23490278.998    23490278.199    23490279.466                    -8026694.991 8  -8026695.016 6                  -6254563.037 6       152.000          36.000          32.000                  
G31  24954083.239    24954081.417    24954082.855                      529361.928 7    529361.925 6                    412488.731 6        74.000          26.000          27.000                  
G32  20568657.861    20568657.482    20568660.105                   -22721389.125 9 -22721389.128 9                 -17704975.805 9       688.000        1187.000        1071.000                  
> 2024 10 31 03 21 10.0000000  0  9
G02  21967147.376    21967146.145    21967144.831                   -17087920.463 8 -17087920.462 7                 -13315263.744 8       336.000          93.000         110.000                  
G03  23828836.226    23828835.415    23828839.379                    -4201080.950 7  -4201080.938 6                  -3273569.718 7        73.000          32.000          76.000                  
G08  20858521.991    20858521.416    20858524.877                   -20258617.948 8 -20258617.950 8                 -15785934.181 9       453.000         488.000         589.000                  
G10  22178846.293    22178846.339    22178849.198                   -14083483.802 8 -14083483.799 8                 -10974144.496 8       272.000         182.000         432.000                  
G21  20524404.259    20524402.875    20524403.507                   -23026884.320 9 -23026884.324 8                 -17943027.251 8       552.000         294.000         209.000                  
G27  22479201.074    22479200.555    22479204.225                   -12377440.040 8 -12377440.043 8                  -9644758.824 8       259.000         181.000         402.000                  
G28  23513074.525    23513074.006    23513074.039                    -7906901.077 8  -7906901.092 6                  -6161217.086 6       147.000          33.000          28.000                  
G31  25006530.619    25006528.440    25006530.194                      804975.284 7    804975.303 6                    627252.301 6        73.000          28.000          28.000                  
G32  20544994.253    20544993.961    20544996.704                   -22845741.067 9 -22845741.068 9                 -17801873.379 9       688.000        1185.000        1082.000                  
> 2024 10 31 03 21 20.0000000  0  9
G02  21930708.850    21930707.897    21930706.327                   -17279405.994 8 -17279405.988 7                 -13464473.220 8       336.000          97.000         111.000                  
G03  23844814.063    23844813.328    23844817.528                    -4117113.261 7  -4117113.244 6                  -3208140.357 7        72.000          23.000          83.000                  
G08  20903006.074    20903005.769    20903009.025                   -20024851.319 8 -20024851.321 8                 -15603778.340 9       441.000         483.000         574.000                  
G10  22138609.874    22138609.118    22138612.268                   -14294930.557 8 -14294930.556 8                 -11138908.156 8       264.000         168.000         487.000                  
G21  20497765.465    20497764.417    20497764.616                   -23166870.631 9 -23166870.632 8                 -18052107.454 8       551.000         283.000         218.000                  
G27  22550163.396    22550162.955    22550166.531                   -12004530.646 8 -12004530.648 8                  -9354180.101 8       245.000         169.000         383.000                  
G28  23536094.144    23536093.508    23536095.224                    -7785930.742 8  -7785930.758 6                  -6066954.463 6       143.000          33.000          26.000                  
G31  25058990.907    25058992.079    25058992.289                     1080666.663 7   1080666.650 6                    842076.729 6        71.000          24.000          26.000                  
G32  20521975.934    20521975.568    20521978.151                   -22966703.765 9 -22966703.768 9                 -17896129.991 9       695.000        1210.000        1128.000                  
> 2024 10 31 03 21 30.0000000  0  9
G02  21895004.087    21895002.899    21895001.740                   -17467034.993 8 -17467034.990 8                 -13610677.618 8       346.000         101.000         115.000                  
G03  23861058.024    23861058.210    23861061.970                    -4031747.954 7  -4031747.972 6                  -3141621.899 7        69.000          21.000          81.000                  
G08  20948413.802    20948413.259    20948416.545                   -19786232.964 8 -19786232.968 8                 -15417841.935 9       431.000         451.000         546.000                  
G10  22098909.232    22098908.719    22098911.712                   -14503557.835 8 -14503557.834 8                 -11301474.813 9       259.000         167.000         512.000                  
G21  20472112.367    20472111.280    20472111.473                   -23301679.300 9 -23301679.302 8                 -18157153.140 8       558.000         291.000         229.000                  
G27  22621630.214    22621629.613    22621633.177                   -11628970.923 8 -11628970.924 8                  -9061536.179 8       237.000         159.000         353.000                  
G28  23559336.841    23559336.747    23559337.359                    -7663790.789 8  -7663790.776 6                  -5971780.475 6       141.000          34.000          29.000                  
G31  25111464.542    25111465.673    25111465.960                     1356417.418 7   1356417.409 6                   1056947.435 6        67.000          23.000          25.000                  
G32  20499607.454    20499607.131    20499609.732                   -23084250.513 9 -23084250.514 9                 -17987724.821 9       703.000        1250.000        1172.000                  
> 2024 10 31 03 21 40.0000000  0  9
G02  21860039.541    21860038.027    21860036.708                   -17650777.067 8 -17650777.064 8                 -13753853.212 8       351.000         101.000         118.000                  
G03  23877564.651    23877564.020    23877569.010                    -3945005.025 7  -3945005.014 6                  -3074029.954 7        74.000          22.000          80.000                  
G08  20994729.982    20994729.298    20994732.593                   -19542840.389 8 -19542840.392 8                 -15228185.366 8       417.000         423.000         499.000                  
G10  22059746.981    22059746.580    22059749.897                   -14709354.450 8 -14709354.446 8                 -11461835.769 9       257.000         165.000         514.000                  
G21  20447448.736    20447447.522    20447447.801                   -23431287.819 9 -23431287.818 8                 -18258146.746 8       558.000         296.000         238.000                  
G27  22693583.590    22693583.334    22693586.910                   -11250851.969 8 -11250851.971 8                  -8766898.045 8       233.000         149.000         321.000                  
G28  23582795.824    23582795.188    23582796.499                    -7540513.328 8  -7540513.317 6                  -5875720.107 6       141.000          29.000          27.000                  
G31  25163940.580    25163942.870    25163942.310                     1632183.769 7   1632183.760 6                   1271830.199 6        62.000          21.000          26.000                  
G32  20477889.142    20477888.886    20477891.468                   -23198380.437 9 -23198380.439 9                 -18076657.188 9       680.000        1166.000        1161.000                  
> 2024 10 31 03 21 50.0000000  0  9
G02  21825825.331    21825823.902    21825822.515                   -17830573.760 8 -17830573.759 7                 -13893954.475 8       359.000          98.000         122.000                  
G03  23894335.467    23894334.938    23894339.545                    -3856875.817 7  -3856875.816 6                  -3005357.809 7        68.000          25.000          85.000                  
G08  21041945.266    21041944.491    21041947.758                   -19294723.054 8 -19294723.058 8                 -15034847.174 8       413.000         408.000         463.000                  
G10  22021131.732    22021131.102    22021134.293                   -14912280.863 8 -14912280.862 8                 -11619960.208 9       250.000         163.000         529.000                  
G21  20423784.025    20423782.723    20423782.907                   -23555646.284 9 -23555646.285 8                 -18355049.401 8       570.000         313.000         240.000                  
G27  22766012.174    22766012.109    22766015.622                   -10870235.776 8 -10870235.774 8                  -8470314.007 8       235.000         156.000         290.000                  
G28  23606469.495    23606470.255    23606471.127                    -7416101.755 8  -7416101.751 6                  -5778776.047 6       140.000          31.000          31.000                  
G31  25216417.336    25216419.763    25216418.791                     1907951.041 7   1907951.044 6                   1486713.748 6        63.000          28.000          24.000                  
G32  20456826.582    20456826.310    20456828.920                   -23309064.449 9 -23309064.451 9                 -18162904.424 9       691.000        1187.000        1168.000                  
> 2024 10 31 03 22  0.0000000  0  9
G02  21792372.335    21792371.118    21792369.190                   -18006370.497 8 -18006370.503 8                 -14030938.910 8       369.000         110.000         111.000                  
G03  23911372.996    23911370.423    23911374.249                    -3767355.115 7  -3767355.114 6                  -2935601.407 7        71.000          25.000          73.000                  
G08  21090049.043    21090048.572    21090051.854                   -19041934.515 8 -19041934.518 8                 -14837869.100 8       411.000         396.000         419.000                  
G10  21983069.143    21983068.457    21983071.697                   -15112301.144 8 -15112301.143 8                 -11775820.123 9       253.000         152.000         521.000                  
G21  20401126.946    20401125.817    20401126.173                   -23674709.287 9 -23674709.290 8                 -18447825.719 8       586.000         319.000         233.000                  
G27  22838904.415    22838903.885    22838907.306                   -10487187.381 8 -10487187.379 8                  -8171834.742 8       237.000         140.000         251.000                  
G28  23630360.224    23630359.201    23630361.160                    -7290562.741 8  -7290562.733 6                  -5680953.424 6       137.000          27.000          26.000                  
G31  25268893.310    25268892.200    25268894.030                     2183701.380 7   2183701.365 6                   1701584.090 6        59.000          20.000          27.000                  
G32  20436424.615    20436424.426    20436426.983                   -23416277.267 9 -23416277.269 9                 -18246446.844 9       704.000        1242.000        1127.000                  
> 2024 10 31 03 22 10.0000000  0  9
G02  21759685.576    21759684.257    21759682.608                   -18178140.422 8 -18178140.419 8                 -14164785.559 8       380.000         122.000         112.000                  
G03  23928667.187    23928665.909    23928670.368                    -3676464.889 7  -3676464.870 6                  -2864777.833 7        73.000          27.000          56.000                  
G08  21139026.589    21139025.925    21139029.185                   -18784556.157 8 -18784556.159 8                 -14637314.555 8       390.000         376.000         400.000                  
G10  21945561.434    21945560.397    21945563.756                   -15309406.857 8 -15309406.854 8                 -11929408.946 9       255.000         162.000         506.000                  
G21  20379481.164    20379479.748    20379479.997                   -23788459.883 9 -23788459.882 8                 -18536462.511 8       593.000         335.000         233.000                  
G27  22912241.186    22912240.782    22912244.418                   -10101798.649 8 -10101798.649 8                  -7871531.838 8       219.000         135.000         219.000                  
G28  23654458.017    23654456.952    23654457.894                    -7163930.003 8  -7163930.020 6                  -5582278.560 6       139.000          36.000          31.000                  
G31  25321357.435    25321353.775    25321354.966                     2459389.523 7   2459389.536 6                   1916405.874 6        55.000          23.000          24.000                  
G32  20416682.949    20416682.536    20416685.214                   -23520021.272 9 -23520021.272 9                 -18327286.291 9       705.000        1256.000        1129.000                  
> 2024 10 31 03 22 20.0000000  0  9
G02  21727779.019    21727777.466    21727775.879                   -18345810.557 8 -18345810.557 8                 -14295437.547 8       392.000         122.000         119.000                  
G03  23946226.733    23946226.715    23946231.230                    -3584180.576 7  -3584180.577 6                  -2792867.975 7        76.000          21.000          65.000                  
G08  21188870.625    21188870.168    21188873.593                   -18522623.259 8 -18522623.264 8                 -14433211.031 8       383.000         357.000         403.000                  
G10  21908618.174    21908617.429    21908620.621                   -15503543.177 8 -15503543.179 8                 -12080683.962 9       260.000         166.000         506.000                  
G21  20358857.828    20358856.613    20358856.774                   -23896835.505 9 -23896835.508 8                 -18620911.018 8       604.000         338.000         238.000                  
G27  22986015.766    22986014.676    22986018.303                    -9714114.294 8  -9714114.292 8                  -7569440.152 8       206.000         121.000         203.000                  
G28  23678765.689    23678765.349    23678765.224                    -7036190.511 8  -7036190.491 6                  -5482741.311 6       139.000          32.000          24.000                  
G31  25373805.415    25373804.537    25373805.674                     2735018.852 7   2735018.818 6                   2131181.919 6        52.000          24.000          19.000                  
G32  20397609.325    20397609.122    20397611.765                   -23620252.642 9 -23620252.644 9                 -18405388.619 9       708.000        1264.000        1182.000                  
> 2024 10 31 03 22 30.0000000  0  8
G02  21696654.577    21696653.190    21696651.780                   -18509370.133 8 -18509370.130 8                 -14422886.518 8       406.000         133.000         119.000                  
G03  23964045.945    23964045.945    23964050.307                    -3490539.070 7  -3490539.052 6                  -2719900.543 7        77.000          28.000          61.000                  
G08  21239562.884    21239562.509    21239565.968                   -18256233.211 8 -18256233.216 8                 -14225634.388 8       372.000         338.000         402.000                  
G10  21872238.820    21872238.469    21872241.443                   -15694717.117 8 -15694717.117 8                 -12229650.625 8       262.000         175.000         484.000                  
G21  20339257.309    20339256.095    20339256.496                   -23999836.438 9 -23999836.441 8                 -18701171.447 8       613.000         352.000         235.000                  
G27  23060205.847    23060205.365    23060209.038                    -9324240.177 8  -9324240.183 8                  -7265642.161 8       192.000         108.000         179.000                  
G28  23703275.291    23703273.894    23703276.311                    -6907392.734 8  -6907392.748 6                  -5382379.425 6       139.000          30.000          27.000                  
G32  20379200.749    20379200.671    20379203.301                   -23716989.571 9 -23716989.572 9                 -18480768.000 9       724.000        1305.000        1205.000                  
> 2024 10 31 03 22 40.0000000  0  8
G02  21666327.530    21666326.055    21666324.420                   -18668740.570 8 -18668740.568 8                 -14547071.233 8       402.000         142.000         124.000                  
G03  23982130.069    23982130.070    23982134.290                    -3395509.094 7  -3395509.084 6                  -2645851.169 7        76.000          29.000          57.000                  
G08  21291097.909    21291097.433    21291100.964                   -17985415.532 8 -17985415.540 8                 -14014607.630 8       348.000         297.000         410.000                  
G10  21836435.084    21836434.756    21836437.625                   -15882867.534 8 -15882867.530 8                 -12376261.294 8       267.000         176.000         498.000                  
G21  20320692.390    20320691.169    20320691.255                   -24097395.797 9 -24097395.797 8                 -18777191.693 8       610.000         343.000         234.000                  
G27  23134805.767    23134805.769    23134809.545                    -8932213.258 8  -8932213.260 7                  -6960166.659 8       183.000          99.000         183.000                  
G28  23727989.049    23727988.916    23727990.119                    -6777516.615 8  -6777516.631 6                  -5281177.232 6       135.000          27.000          26.000                  
G32  20361466.702    20361466.666    20361469.286                   -23810182.279 9 -23810182.280 9                 -18553385.647 9       731.000        1346.000        1288.000                  
> 2024 10 31 03 22 50.0000000  0  8
G02  21636800.672    21636799.073    21636797.652                   -18823905.934 8 -18823905.930 8                 -14667979.270 8       414.000         148.000         143.000                  
G03  24000473.577    24000472.004    24000476.185                    -3299121.299 7  -3299121.284 6                  -2570743.764 6        77.000          27.000          50.000                  
G08  21343457.878    21343457.321    21343460.854                   -17710262.232 8 -17710262.235 8                 -13800202.465 8       334.000         268.000         383.000                  
G10  21801205.974    21801205.703    21801208.886                   -16067995.661 8 -16067995.659 8                 -12520516.933 8       272.000         188.000         470.000                  
G21  20303163.770    20303162.416    20303162.347                   -24189509.992 9 -24189509.996 8                 -18848968.955 8       609.000         348.000         243.000                  
G27  23209797.587    23209796.838    23209800.700                    -8538132.086 8  -8538132.090 7                  -6653090.444 8       183.000          94.000         159.000                  
G28  23752901.219    23752900.806    23752902.347                    -6646604.005 8  -6646603.974 6                  -5179167.479 6       137.000          33.000          29.000                  
G32  20344404.906    20344404.620    20344407.258                   -23899843.524 9 -23899843.526 9                 -18623251.502 9       739.000        1368.000        1271.000                  
> 2024 10 31 03 23  0.0000000  0  8
G02  21608084.815    21608083.368    21608081.821                   -18974808.227 8 -18974808.226 8                 -14785565.413 8       419.000         146.000         142.000                  
G03  24019073.845    24019074.644    24019079.407                    -3201363.748 7  -3201363.764 6                  -2494569.014 7        81.000          27.000          54.000                  
G08  21396633.398    21396632.567    21396636.372                   -17430823.049 8 -17430823.053 8                 -13582457.657 8       317.000         250.000         363.000                  
G10  21766560.751    21766560.045    21766562.915                   -16250060.320 8 -16250060.319 8                 -12662385.456 8       277.000         185.000         433.000                  
G21  20286679.541    20286678.211    20286678.594                   -24276134.055 9 -24276134.058 8                 -18916468.197 8       607.000         351.000         242.000                  
G27  23285168.644    23285168.372    23285172.125                    -8142051.966 8  -8142051.967 7                  -6344456.604 8       175.000          90.000         143.000                  
G28  23778010.640    23778009.824    23778010.381                    -6514653.728 8  -6514653.731 6                  -5076349.047 6       132.000          34.000          24.000                  
G32  20328020.487    20328020.289    20328022.843                   -23985943.823 9 -23985943.824 9                 -18690342.598 9       761.000        1464.000        1231.000                  
> 2024 10 31 03 23 10.0000000  0  8
G02  21580189.545    21580188.362    21580186.643                   -19121396.850 8 -19121396.850 8                 -14899790.252 8       439.000         159.000         142.000                  
G03  24037941.077    24037938.767    24037942.733                    -3102231.165 7  -3102231.170 6                  -2417322.808 6        88.000          28.000          43.000                  
G08  21450613.793    21450612.978    21450616.520                   -17147154.803 8 -17147154.811 8                 -13361417.472 8       309.000         231.000         370.000                  
G10  21732504.251    21732503.733    21732506.538                   -16429027.318 8 -16429027.320 8                 -12801840.220 8       291.000         215.000         410.000                  
G21  20271247.162    20271246.125    20271246.333                   -24357231.096 9 -24357231.097 8                 -18979660.673 8       631.000         372.000         248.000                  
G27  23360909.682    23360909.084    23360912.344                    -7744034.396 8  -7744034.399 7                  -6034313.060 8       175.000          83.000         123.000                  
G28  23803316.549    23803316.216    23803317.070                    -6381671.447 8  -6381671.448 6                  -4972726.483 6       139.000          32.000          20.000                  
G32  20312318.112    20312317.905    20312320.377                   -24068460.796 9 -24068460.797 9                 -18754641.496 9       821.000        1693.000        1224.000                  
> 2024 10 31 03 23 20.0000000  0  8
G02  21553119.220    21553117.886    21553115.983                   -19263653.639 8 -19263653.639 8                 -15010639.651 8       443.000         159.000         171.000                  
G03  24057061.065    24057059.478    24057063.854                    -3001750.028 7  -3001750.026 6                  -2339025.791 6        90.000          30.000          49.000                  
G08  21505381.786    21505381.130    21505384.856                   -16859346.331 8 -16859346.335 8                 -13137151.132 8       301.000         220.000         407.000                  
G10  21699037.829    21699037.148    21699040.008                   -16604894.480 8 -16604894.476 8                 -12938879.521 8       308.000         225.000         479.000                  
G21  20256867.532    20256866.233    20256866.414                   -24432797.107 9 -24432797.108 8                 -19038543.232 8       636.000         382.000         288.000                  
G27  23437001.117    23436999.920    23437003.632                    -7344172.059 8  -7344172.058 7                  -5722732.038 8       163.000          76.000         135.000                  
G28  23828811.420    23828810.226    23828812.561                    -6247694.246 8  -6247694.271 6                  -4868328.701 6       142.000          39.000          26.000                  
G32  20297295.701    20297295.445    20297297.767                   -24147404.333 9 -24147404.335 9                 -18816155.895 9       838.000        1743.000        1354.000                  
> 2024 10 31 03 23 30.0000000  0  8
G02  21526884.700    21526883.341    21526881.786                   -19401515.632 8 -19401515.635 8                 -15118064.530 8       446.000         159.000         172.000                  
G03  24076442.192    24076441.044    24076445.022                    -2899901.295 7  -2899901.288 6                  -2259663.114 6        90.000          31.000          46.000                  
G08  21560929.489    21560928.923    21560932.472                   -16567441.250 8 -16567441.252 8                 -12909692.623 8       296.000         219.000         381.000                  
G10  21666169.903    21666169.520    21666172.545                   -16777614.413 8 -16777614.412 8                 -13073466.427 8       324.000         251.000         466.000                  
G21  20243549.233    20243548.235    20243548.420                   -24502784.085 9 -24502784.086 8                 -19093078.544 8       644.000         395.000         289.000                  
G27  23513433.806    23513433.690    23513437.123                    -6942511.514 8  -6942511.515 7                  -5409749.823 8       150.000          62.000         107.000                  
G28  23854496.796    23854496.291    23854497.208                    -6112713.503 8  -6112713.508 6                  -4763148.880 6       141.000          34.000          29.000                  
G32  20282959.835    20282959.579    20282961.896                   -24222739.207 9 -24222739.208 9                 -18874858.358 9       837.000        1758.000        1292.000                  
> 2024 10 31 03 23 40.0000000  0  8
G02  21501491.179    21501489.853    21501488.344                   -19534958.702 8 -19534958.705 8                 -15222046.083 8       441.000         158.000         175.000                  
G03  24096079.509    24096079.835    24096082.941                    -2796704.027 7  -2796704.023 6                  -2179249.624 6        91.000          29.000          43.000                  
G08  21617241.147    21617240.506    21617244.009                   -16271521.587 8 -16271521.592 8                 -12679105.862 8       284.000         199.000         358.000                  
G10  21633903.407    21633902.678    21633905.500                   -16947178.210 8 -16947178.208 8                 -13205594.005 8       327.000         258.000         453.000                  
G21  20231294.623    20231293.507    20231293.637                   -24567183.273 9 -24567183.273 8                 -19143259.718 8       636.000         379.000         297.000                  
G27  23590194.808    23590192.897    23590196.787                    -6539136.907 8  -6539136.913 6                  -5095431.981 8       137.000          49.000         104.000                  
G28  23880368.976    23880368.289    23880369.347                    -5976758.556 8  -5976758.563 6                  -4657209.941 6       140.000          36.000          23.000                  
G32  20269310.157    20269309.874    20269312.166                   -24294468.772 9 -24294468.773 9                 -18930751.476 9       823.000        1688.000        1289.000                  
> 2024 10 31 03 23 50.0000000  0  8
G02  21476946.687    21476945.357    21476943.601                   -19663941.781 8 -19663941.782 8                 -15322552.340 8       456.000         169.000         177.000                  
G03  24115972.967    24115973.985    24115976.458                    -2692159.744 7  -2692159.740 6                  -2097786.522 6        86.000          30.000          42.000                  
G08  21674304.513    21674303.745    21674307.360                   -15971651.945 8 -15971651.949 8                 -12445441.203 8       277.000         181.000         351.000                  
G10  21602241.915    21602241.323    21602243.973                   -17113559.605 8 -17113559.608 8                 -13335241.801 8       339.000         284.000         431.000                  
G21  20220108.028    20220106.750    20220107.017                   -24625969.579 9 -24625969.581 8                 -19189067.170 8       649.000         394.000         289.000                  
G27  23667266.791    23667266.465    23667269.963                    -6134114.158 8  -6134114.164 7                  -4779829.871 7       133.000          56.000          95.000                  
G28  23906424.015    23906422.876    23906423.387                    -5839840.938 8  -5839840.932 6                  -4550520.830 6       143.000          32.000          21.000                  
G32  20256348.998    20256348.767    20256351.150                   -24362579.234 9 -24362579.236 9                 -18983824.506 9       841.000        1775.000        1237.000                  
> 2024 10 31 03 24  0.0000000  0  8
G02  21453259.301    21453257.896    21453256.272                   -19788419.308 8 -19788419.307 8                 -15419547.792 8       459.000         177.000         174.000                  
G03  24136124.600    24136124.862    24136128.011                    -2586264.544 7  -2586264.526 6                  -2015270.754 6        88.000          34.000          44.000                  
G08  21732107.629    21732107.194    21732111.021                   -15667891.918 8 -15667891.922 8                 -12208745.097 8       264.000         174.000         338.000                  
G10  21571192.035    21571191.580    21571194.111                   -17276727.403 8 -17276727.400 8                 -13462385.485 8       348.000         289.000         446.000                  
G21  20209994.941    20209993.680    20209993.752                   -24679114.412 9 -24679114.414 8                 -19230478.719 8       646.000         390.000         291.000                  
G27  23744642.010    23744641.466    23744645.189                    -5727503.292 8  -5727503.301 6                  -4462990.265 7       124.000          45.000          75.000                  
G28  23932660.052    23932659.210    23932660.217                    -5701966.872 8  -5701966.880 6                  -4443086.465 6       144.000          37.000          24.000                  
G32  20244080.089    20244079.929    20244082.215                   -24427052.010 9 -24427052.012 9                 -19034062.979 9       840.000        1766.000        1192.000                  
> 2024 10 31 03 24 10.0000000  0  8
G02  21430433.392    21430432.008    21430430.420                   -19908370.813 8 -19908370.817 8                 -15513016.487 8       472.000         175.000         182.000                  
G03  24156529.220    24156528.798    24156532.265                    -2479038.751 7  -2479038.738 6                  -1931718.145 6        87.000          24.000          43.000                  
G08  21790635.685    21790635.140    21790639.019                   -15360325.319 8 -15360325.320 8                 -11969082.837 8       256.000         163.000         350.000                  
G10  21540754.868    21540754.382    21540757.061                   -17436674.962 8 -17436674.963 8                 -13587019.902 8       353.000         302.000         498.000                  
G21  20200955.836    20200954.613    20200954.714                   -24726614.357 9 -24726614.359 8                 -19267491.599 8       653.000         394.000         305.000                  
G27  23822303.198    23822303.238    23822307.077                    -5319387.936 8  -5319387.938 6                  -4144978.326 7       122.000          43.000          82.000                  
G28  23959072.234    23959072.592    23959073.433                    -5563166.411 8  -5563166.396 6                  -4334930.250 6       146.000          30.000          23.000                  
G32  20232502.469    20232502.220    20232504.592                   -24487893.200 9 -24487893.201 9                 -19081471.651 9       863.000        1876.000        1231.000                  
> 2024 10 31 03 24 20.0000000  0  8
G02  21408479.218    21408477.848    21408476.447                   -20023739.809 8 -20023739.816 8                 -15602914.361 8       479.000         181.000         186.000                  
G03  24177189.664    24177188.758    24177192.513                    -2370466.165 7  -2370466.141 6                  -1847116.062 6        86.000          27.000          35.000                  
G08  21849879.476    21849878.423    21849882.400                   -15048999.399 8 -15048999.406 8                 -11726491.207 8       243.000         144.000         347.000                  
G10  21510938.738    21510938.407    21510941.076                   -17593359.318 8 -17593359.317 8                 -13709111.556 9       364.000         325.000         523.000                  
G21  20192998.292    20192996.993    20192997.123                   -24768431.176 9 -24768431.178 8                 -19300076.048 8       649.000         391.000         306.000                  
G27  23900242.984    23900242.739    23900246.649                    -4909814.478 8  -4909814.483 6                  -3825830.203 7       122.000          49.000          62.000                  
G28  23985663.252    23985662.875    23985663.720                    -5423432.837 8  -5423432.836 6                  -4226046.914 6       146.000          37.000          25.000                  
G32  20221621.646    20221621.304    20221623.657                   -24545072.749 9 -24545072.749 9                 -19126027.106 9       884.000        1963.000        1235.000                  
> 2024 10 31 03 24 30.0000000  0  8
G02  21387402.064    21387400.635    21387398.867                   -20134502.226 8 -20134502.225 8                 -15689222.721 8       479.000         184.000         182.000                  
G03  24198103.040    24198103.450    24198105.949                    -2260561.791 7  -2260561.762 6                  -1761476.230 6        86.000          28.000          36.000                  
G08  21909822.898    21909822.055    21909826.058                   -14733992.991 8 -14733992.996 8                 -11481031.649 8       231.000         126.000         338.000                  
G10  21481746.356    21481745.610    21481748.205                   -17746769.215 8 -17746769.216 8                 -13828651.687 9       378.000         353.000         547.000                  
G21  20186123.388    20186122.149    20186122.289                   -24804559.111 9 -24804559.114 8                 -19328227.605 8       631.000         371.000         306.000                  
G27  23978445.543    23978445.152    23978448.221                    -4498859.993 8  -4498859.985 6                  -3505605.952 6       115.000          44.000          48.000                  
G28  24012425.808    24012426.253    24012427.284                    -5282790.664 8  -5282790.675 6                  -4116455.608 6       143.000          30.000          28.000                  
G32  20211436.961    20211436.801    20211439.145                   -24598592.377 9 -24598592.378 9                 -19167730.665 9       871.000        1909.000        1215.000                  
> 2024 10 31 03 24 40.0000000  0  8
G02  21367206.449    21367205.004    21367203.277                   -20240630.567 8 -20240630.570 8                 -15771920.105 8       487.000         194.000         186.000                  
G03  24219270.059    24219268.466    24219272.003                    -2149336.605 7  -2149336.622 6                  -1674807.196 6        86.000          27.000          36.000                  
G08  21970452.675    21970452.087    21970456.020                   -14415380.832 8 -14415380.836 8                 -11232762.392 8       223.000         124.000         353.000                  
G10  21453179.024    21453178.659    21453181.264                   -17896889.732 8 -17896889.732 8                 -13945628.676 9       400.000         383.000         581.000                  
G21  20180332.620    20180331.229    20180331.551                   -24834989.827 9 -24834989.830 8                 -19351939.760 8       622.000         360.000         309.000                  
G27  24056896.785    24056896.193    24056899.086                    -4086596.833 8  -4086596.846 6                  -3184361.953 6       113.000          40.000          42.000                  
G28  24039357.844    24039358.359    24039359.589                    -5141259.980 8  -5141259.984 6                  -4006171.905 6       139.000          38.000          26.000                  
G32  20201949.502    20201949.160    20201951.560                   -24648450.268 9 -24648450.270 9                 -19206580.940 9       903.000        2030.000        1254.000                  
> 2024 10 31 03 24 50.0000000  0  8
G02  21347901.699    21347900.447    21347898.807                   -20342076.427 8 -20342076.429 8                 -15850968.709 8       485.000         191.000         189.000                  
G03  24240687.845    24240687.568    24240690.830                    -2036779.810 7  -2036779.802 6                  -1587100.490 6        85.000          31.000          35.000                  
G08  22031758.769    22031757.870    22031762.108                   -14093216.077 8 -14093216.084 8                 -10981724.892 8       219.000         120.000         356.000                  
G10  21425244.958    21425244.558    21425247.092                   -18043684.589 8 -18043684.591 8                 -14060014.244 9       409.000         407.000         615.000                  
G21  20175631.266    20175629.803    20175629.871                   -24859694.914 9 -24859694.914 8                 -19371190.414 8       610.000         351.000         311.000                  
G27  24135588.243    24135587.400    24135589.913                    -3673075.074 8  -3673075.080 6                  -2862137.244 6       108.000          37.000          31.000                  
G28  24066460.719    24066460.479    24066460.663                    -4998839.150 8  -4998839.150 6                  -3895194.606 6       137.000          32.000          28.000                  
G32  20193163.149    20193162.825    20193165.100                   -24694623.430 9 -24694623.431 9                 -19242560.010 9       928.000        2154.000        1314.000                  
> 2024 10 31 03 25  0.0000000  0  8
G02  21329492.210    21329490.915    21329488.976                   -20438818.735 8 -20438818.741 8                 -15926352.245 8       483.000         184.000         172.000                  
G03  24262356.818    24262356.645    24262360.082                    -1922906.657 7  -1922906.651 6                  -1498368.049 6        82.000          25.000          34.000                  
G08  22093725.927    22093725.016    22093729.030                   -13767577.760 8 -13767577.764 8                 -10727980.730 8       219.000         122.000         323.000                  
G10  21397945.561    21397945.114    21397947.646                   -18187143.860 8 -18187143.860 8                 -14171800.660 9       419.000         423.000         589.000                  
G21  20172019.847    20172018.407    20172018.675                   -24878673.115 9 -24878673.116 8                 -19385978.582 8       608.000         352.000         287.000                  
G27  24214502.952    24214502.642    24214506.528                    -3258370.083 7  -3258370.099 6                  -2538990.569 6        96.000          31.000          34.000                  
G28  24093726.905    24093726.694    24093727.558                    -4855552.280 8  -4855552.280 6                  -3783542.490 6       134.000          31.000          24.000                  
G32  20185077.225    20185076.836    20185079.155                   -24737115.194 9 -24737115.196 9                 -19275670.429 9       935.000        2190.000        1255.000                  
> 2024 10 31 03 25 10.0000000  0  8
G02  21311982.850    21311981.732    21311979.981                   -20530830.065 8 -20530830.063 8                 -15998049.364 8       483.000         195.000         190.000                  
G03  24284276.743    24284275.013    24284278.896                    -1807725.325 7  -1807725.322 6                  -1408616.245 6        81.000          25.000          30.000                  
G08  22156339.956    22156339.078    22156342.988                   -13438537.793 8 -13438537.797 8                 -10471585.921 8       219.000         126.000         298.000                  
G10  21371283.675    21371283.504    21371286.041                   -18327250.928 8 -18327250.926 8                 -14280974.973 9       423.000         444.000         624.000                  
G21  20169499.308    20169498.068    20169498.218                   -24891917.760 9 -24891917.762 8                 -19396299.062 8       610.000         351.000         305.000                  
G27  24293631.291    24293630.848    24293633.376                    -2842549.445 7  -2842549.436 6                  -2214974.501 6        86.000          24.000          28.000                  
G28  24121156.158    24121154.574    24121155.377                    -4711416.026 8  -4711416.007 6                  -3671228.539 6       134.000          34.000          24.000                  
G32  20177692.392    20177692.017    20177694.317                   -24775922.485 9 -24775922.486 9                 -19305909.837 9       945.000        2224.000        1348.000                  
> 2024 10 31 03 25 20.0000000  0  8
G02  21295382.342    21295381.300    21295379.348                   -20618065.933 8 -20618065.932 8                 -16066025.346 8       494.000         195.000         194.000                  
G03  24306445.139    24306444.201    24306447.822                    -1691226.121 7  -1691226.133 6                  -1317837.468 6        81.000          24.000          34.000                  
G08  22219591.475    22219590.193    22219594.069                   -13106150.246 8 -13106150.255 8                 -10212582.603 8       222.000         119.000         279.000                  
G10  21345266.700    21345266.225    21345268.966                   -18463971.826 8 -18463971.825 8                 -14387510.718 9       434.000         453.000         670.000                  
G21  20168074.181    20168073.336    20168073.317                   -24899405.710 9 -24899405.712 8                 -19402133.800 8       625.000         366.000         308.000                  
G27  24372962.471    24372961.428    24372964.153                    -2425662.395 7  -2425662.402 6                  -1890127.503 6        78.000          25.000          24.000                  
G28  24148746.778    24148744.971    24148746.282                    -4566429.239 8  -4566429.239 6                  -3558251.827 6       134.000          33.000          20.000                  
G32  20171012.621    20171012.244    20171014.482                   -24811024.900 9 -24811024.901 9                 -19333262.330 9       963.000        2328.000        1390.000                  
> 2024 10 31 03 25 30.0000000  0  8
G02  21279694.445    21279693.174    21279690.916                   -20700508.018 8 -20700508.019 8                 -16130265.903 8       482.000         190.000         210.000                  
G03  24328860.093    24328861.271    24328864.166                    -1573424.418 7  -1573424.439 6                  -1226043.778 6        75.000          28.000          43.000                  
G08  22283464.416    22283463.742    22283467.410                   -12770494.250 8 -12770494.252 8                  -9951032.414 8       220.000         119.000         294.000                  
G10  21319895.641    21319895.128    21319897.821                   -18597298.046 8 -18597298.045 8                 -14491401.251 9       434.000         456.000         766.000                  
G21  20167744.039    20167743.036    20167743.146                   -24901140.592 9 -24901140.594 8                 -19403485.610 8       608.000         354.000         346.000                  
G27  24452482.718    24452480.958    24452484.061                    -2007782.524 7  -2007782.537 6                  -1564506.849 6        70.000          24.000          23.000                  
G28  24176492.127    24176492.433    24176491.408                    -4420615.681 8  -4420615.653 6                  -3444630.823 6       128.000          27.000          23.000                  
G32  20165036.732    20165036.471    20165038.733                   -24842427.600 9 -24842427.602 9                 -19357731.946 9       927.000        2162.000        1516.000                  
> 2024 10 31 03 25 40.0000000  0  8
G02  21264922.924    21264921.829    21264919.947                   -20778131.507 8 -20778131.508 8                 -16190751.727 8       497.000         201.000         184.000                  
G03  24351524.564    24351524.001    24351526.210                    -1454328.186 7  -1454328.168 6                  -1133241.369 6        75.000          25.000          34.000                  
G08  22347946.235    22347945.274    22347948.942                   -12431641.278 8 -12431641.282 8                  -9686991.074 8       224.000         126.000         238.000                  
G10  21295173.424    21295172.962    21295175.548                   -18727214.004 8 -18727214.004 9                 -14592634.445 9       456.000         509.000         674.000                  
G21  20168509.302    20168508.044    20168508.301                   -24897119.889 9 -24897119.890 8                 -19400352.594 8       629.000         374.000         311.000                  
G27  24532178.728    24532176.912    24532180.888                    -1588975.208 7  -1588975.194 6                  -1238163.472 6        67.000          24.000          24.000                  
G28  24204393.764    24204393.938    24204395.510                    -4273991.174 8  -4273991.176 6                  -3330377.898 6       129.000          31.000          23.000                  
G32  20159765.360    20159765.092    20159767.384                   -24870128.690 9 -24870128.692 9                 -19379317.183 9       944.000        2225.000        1373.000                  
> 2024 10 31 03 25 50.0000000  0  8
G02  21251075.954    21251074.756    21251072.743                   -20850898.320 8 -20850898.321 8                 -16247453.135 8       499.000         195.000         187.000                  
G03  24374435.131    24374434.467    24374437.677                    -1333930.942 7  -1333930.931 6                  -1039425.160 6        73.000          27.000          37.000                  
G08  22413024.625    22413024.256    22413027.884                   -12089648.450 8 -12089648.452 8                  -9420503.107 8       223.000         121.000         215.000                  
G10  21271105.882    21271105.323    21271107.975                   -18853690.305 8 -18853690.305 9                 -14691187.389 9       469.000         527.000         683.000                  
G21  20170372.687    20170371.417    20170371.503                   -24887328.289 9 -24887328.291 8                 -19392722.778 8       637.000         379.000         312.000                  
G27  24612042.850    24612040.753    24612044.026                    -1169291.022 7  -1169291.034 6                   -911136.914 6        64.000          23.000          24.000                  
G28  24232449.550    24232449.763    24232449.874                    -4126557.356 8  -4126557.366 6                  -3215494.358 6       130.000          25.000          21.000                  
G32  20155201.496    20155201.137    20155203.392                   -24894112.630 9 -24894112.632 9                 -19398005.947 9       948.000        2260.000        1372.000                  
> 2024 10 31 03 26  0.0000000  0  8
G02  21238155.473    21238154.116    21238152.034                   -20918796.555 9 -20918796.556 8                 -16300360.835 8       519.000         210.000         177.000                  
G03  24397590.639    24397589.667    24397593.534                    -1212251.521 7  -1212251.512 6                   -944609.880 6        76.000          24.000          38.000                  
G08  22478685.632    22478685.205    22478688.324                   -11744597.868 8 -11744597.874 8                  -9151632.475 8       217.000         112.000         182.000                  
G10  21247693.460    21247693.008    21247695.563                   -18976723.169 8 -18976723.169 9                 -14787057.126 9       484.000         569.000         634.000                  
G21  20173331.873    20173330.687    20173330.875                   -24871777.153 9 -24871777.154 8                 -19380604.990 8       646.000         397.000         291.000                  
G27  24692058.038    24692056.392    24692061.221                     -748804.968 7   -748804.959 6                   -583485.446 6        66.000          23.000          22.000                  
G28  24260655.181    24260654.400    24260654.138                    -3978340.860 8  -3978340.877 6                  -3100001.011 6       131.000          31.000          20.000                  
G32  20151342.792    20151342.559    20151344.791                   -24914389.524 9 -24914389.525 9                 -19413806.106 9       953.000        2276.000        1275.000                  
> 2024 10 31 03 26 10.0000000  0  8
G02  21226166.163    21226164.936    21226163.205                   -20981799.681 9 -20981799.680 8                 -16349454.165 8       531.000         222.000         199.000                  
G03  24420989.764    24420987.280    24420990.133                    -1089292.440 7  -1089292.445 6                   -848797.281 6        73.000          28.000          46.000                  
G08  22544915.742    22544915.215    22544918.571                   -11396555.883 8 -11396555.890 8                  -8880430.910 8       206.000         104.000         177.000                  
G10  21224939.897    21224939.436    21224942.001                   -19096293.573 8 -19096293.573 9                 -14880228.852 9       495.000         581.000         657.000                  
G21  20177387.650    20177386.480    20177386.568                   -24850463.791 9 -24850463.793 8                 -19363997.182 8       649.000         393.000         323.000                  
G27  24772215.320    24772214.117    24772217.598                     -327575.754 7   -327575.766 6                   -255254.956 6        67.000          26.000          24.000                  
G28  24289006.711    24289005.749    24289005.232                    -3829352.011 8  -3829352.021 6                  -2983905.770 6       128.000          27.000          23.000                  
G32  20148190.527    20148190.224    20148192.560                   -24930954.324 9 -24930954.325 9                 -19426713.720 9       922.000        2110.000        1361.000                  
> 2024 10 31 03 26 20.0000000  0  8
G02  21215114.976    21215113.719    21215111.630                   -21039875.117 9 -21039875.119 8                 -16394707.748 8       530.000         228.000         219.000                  
G03  24444631.370    24444629.682    24444632.942                     -965050.878 7   -965050.856 6                   -751985.520 6        74.000          26.000          48.000                  
G08  22611704.008    22611703.592    22611707.043                   -11045581.329 8 -11045581.335 7                  -8606944.210 8       194.000          93.000         173.000                  
G10  21202850.274    21202849.665    21202852.192                   -19212375.896 8 -19212375.896 9                 -14970682.589 9       496.000         599.000         647.000                  
G21  20182541.665    20182540.384    20182540.479                   -24823379.743 9 -24823379.747 8                 -19342892.708 8       639.000         391.000         350.000                  
G27  24852503.811    24852503.103    24852506.512                       94345.755 7     94345.763 6                     73515.010 6        68.000          25.000          27.000                  
G28  24317502.976    24317504.021    24317505.020                    -3679594.308 8  -3679594.313 6                  -2867211.445 6       119.000          26.000          20.000                  
G32  20145747.014    20145746.661    20145748.950                   -24943795.405 9 -24943795.406 9                 -19436719.734 9       906.000        2052.000        1450.000                  
> 2024 10 31 03 26 30.0000000  0  8
G02  21205001.900    21205000.769    21204998.467                   -21093019.629 9 -21093019.628 8                 -16436119.048 8       554.000         245.000         205.000                  
G03  24468510.208    24468511.749    24468515.067                     -839550.483 7   -839550.512 6                   -654192.859 6        80.000          32.000          39.000                  
G08  22679033.741    22679033.008    22679036.734                   -10691761.234 8 -10691761.239 7                  -8331240.207 8       193.000          92.000         160.000                  
G10  21181423.610    21181423.214    21181425.606                   -19324973.217 9 -19324973.217 9                 -15058420.739 9       525.000         666.000         590.000                  
G21  20188789.398    20188788.392    20188788.475                   -24790546.462 9 -24790546.466 8                 -19317308.336 8       653.000         394.000         321.000                  
G27  24932909.730    24932908.946    24932912.585                      516881.109 7    516881.127 6                    402763.307 6        74.000          22.000          27.000                  
G28  24346142.303    24346142.220    24346142.534                    -3529099.020 8  -3529099.000 6                  -2749942.326 6       117.000          21.000          19.000                  
G32  20144008.645    20144008.432    20144010.689                   -24952929.927 9 -24952929.927 9                 -19443837.517 9       940.000        2209.000        1300.000                  
> 2024 10 31 03 26 40.0000000  0  8
G02  21195832.675    21195831.468    21195829.436                   -21141203.730 9 -21141203.730 8                 -16473665.095 8       545.000         237.000         196.000                  
G03  24492634.344    24492633.887    24492636.813                     -712788.017 7   -712787.996 6                   -555416.765 6        78.000          30.000          47.000                  
G08  22746893.524    22746893.187    22746896.994                   -10335154.940 8 -10335154.939 7                  -8053365.133 8       186.000          86.000         144.000                  
G10  21160664.673    21160664.345    21160666.704                   -19434061.660 9 -19434061.658 9                 -15143424.702 9       523.000         664.000         533.000                  
G21  20196132.534    20196131.234    20196131.146                   -24751959.359 9 -24751959.361 8                 -19287240.451 8       640.000         390.000         280.000                  
G27  25013422.000    25013422.277    25013425.700                      939979.893 7    939979.907 6                    732450.617 6        70.000          26.000          20.000                  
G28  24374920.023    24374920.024    24374919.673                    -3377870.042 8  -3377870.061 6                  -2632101.597 6       116.000          34.000          21.000                  
G32  20142977.555    20142977.358    20142979.557                   -24958348.152 9 -24958348.153 9                 -19448059.495 9       915.000        2105.000        1171.000                  
> 2024 10 31 03 26 50.0000000  0  8
G02  21187612.515    21187611.229    21187609.232                   -21184401.238 9 -21184401.240 8                 -16507325.485 8       539.000         231.000         216.000                  
G03  24516998.360    24516996.492    24516998.513                     -584762.682 7   -584762.645 6                   -455656.617 6        82.000          28.000          38.000                  
G08  22815271.895    22815271.152    22815275.131                    -9975823.869 8  -9975823.875 7                  -7773366.852 8       182.000          82.000         155.000                  
G10  21140577.654    21140577.247    21140579.645                   -19539620.240 9 -19539620.239 9                 -15225678.121 9       532.000         691.000         600.000                  
G21  20204570.297    20204569.042    20204569.131                   -24707617.922 9 -24707617.924 8                 -19252688.683 8       634.000         379.000         298.000                  
G27  25094033.943    25094032.378    25094036.250                     1363590.035 7   1363590.007 6                   1062536.438 6        69.000          23.000          19.000                  
G28  24403837.015    24403835.592    24403837.783                    -3225913.216 8  -3225913.216 6                  -2513693.609 6       112.000          27.000          22.000                  
G32  20142655.090    20142654.815    20142656.996                   -24960043.245 9 -24960043.247 9                 -19449380.324 9       921.000        2139.000        1247.000                  
> 2024 10 31 03 27  0.0000000  0  8
G02  21180342.121    21180340.815    21180338.845                   -21222607.779 9 -21222607.780 8                 -16537096.820 8       543.000         240.000         232.000                  
G03  24541596.604    24541595.456    24541597.561                     -455494.225 7   -455494.207 6                   -354927.881 6        81.000          29.000          46.000                  
G08  22884153.425    22884152.699    22884156.317                    -9613849.672 8  -9613849.670 7                  -7491308.964 8       177.000          80.000         167.000                  
G10  21121162.144    21121161.886    21121164.118                   -19641648.922 9 -19641648.922 9                 -15305180.969 9       544.000         712.000         659.000                  
G21  20214099.101    20214098.132    20214098.082                   -24657543.311 9 -24657543.312 8                 -19213669.512 8       645.000         389.000         319.000                  
G27  25174725.958    25174726.117    25174730.821                     1787639.605 7   1787639.620 6                   1392964.622 6        71.000          23.000          20.000                  
G28  24432886.704    24432886.532    24432888.319                    -3073254.760 8  -3073254.767 6                  -2394739.029 6       112.000          28.000          20.000                  
G32  20143038.342    20143038.046    20143040.188                   -24958029.384 9 -24958029.385 9                 -19447811.063 9       929.000        2170.000        1393.000                  
> 2024 10 31 03 27 10.0000000  0  8
G02  21174025.227    21174024.115    21174022.325                   -21255802.386 9 -21255802.388 8                 -16562962.756 8       524.000         226.000         216.000                  
G03  24566430.308    24566430.701    24566433.030                     -324984.670 7   -324984.691 6                   -253232.036 6        78.000          23.000          37.000                  
G08  22953526.125    22953524.888    22953528.793                    -9249296.218 8  -9249296.234 7                  -7207241.289 8       173.000          74.000         158.000                  
G10  21102421.844    21102421.358    21102423.830                   -19740130.686 9 -19740130.687 9                 -15381919.988 9       525.000         667.000         671.000                  
G21  20224718.255    20224716.823    20224716.999                   -24601740.742 9 -24601740.743 8                 -19170187.014 8       619.000         354.000         307.000                  
G27  25255493.993    25255494.269    25255497.238                     2212074.934 7   2212074.939 6                   1723693.401 6        63.000          26.000          21.000                  
G28  24462068.802    24462067.519    24462069.346                    -2919903.134 8  -2919903.136 6                  -2275244.239 6       104.000          26.000          20.000                  
G32  20144127.784    20144127.524    20144129.828                   -24952303.751 9 -24952303.752 9                 -19443349.514 9       906.000        2038.000        1384.000                  
> 2024 10 31 03 27 20.0000000  0  8
G02  21168666.586    21168665.611    21168663.374                   -21283962.066 9 -21283962.069 8                 -16584905.354 8       520.000         220.000         220.000                  
G03  24591502.950    24591501.102    24591504.376                     -193232.846 7   -193232.836 6                   -150568.208 6        76.000          21.000          37.000                  
G08  23023377.511    23023376.594    23023380.295                    -8882223.818 8  -8882223.816 7                  -6921210.812 8       167.000          69.000         155.000                  
G10  21084359.978    21084359.542    21084362.013                   -19835045.745 9 -19835045.744 9                 -15455879.756 9       517.000         651.000         716.000                  
G21  20236426.355    20236425.030    20236425.273                   -24540213.680 9 -24540213.682 8                 -19122243.846 8       614.000         356.000         296.000                  
G27  25336324.900    25336325.222    25336328.410                     2636846.235 7   2636846.252 6                   2054684.001 6        64.000          23.000          20.000                  
G28  24491382.220    24491381.451    24491381.491                    -2765863.292 8  -2765863.295 6                  -2155213.168 6       104.000          24.000          17.000                  
G32  20145924.717    20145924.461    20145926.731                   -24942860.820 9 -24942860.821 9                 -19435991.377 9       903.000        2049.000        1415.000                  
> 2024 10 31 03 27 30.0000000  0  8
G02  21164265.529    21164264.367    21164262.547                   -21307089.792 9 -21307089.794 8                 -16602926.953 8       516.000         215.000         217.000                  
G03  24616806.120    24616805.231    24616808.087                      -60262.420 7    -60262.408 6                    -46954.822 6        70.000          23.000          39.000                  
G08  23093692.043    23093691.320    23093694.885                    -8512717.142 8  -8512717.140 7                  -6633283.481 8       164.000          72.000         145.000                  
G10  21066976.106    21066975.429    21066977.984                   -19926399.650 9 -19926399.649 9                 -15527064.601 9       517.000         661.000         723.000                  
G21  20249218.210    20249216.806    20249217.031                   -24472991.938 9 -24472991.939 8                 -19069863.261 8       609.000         356.000         295.000                  
G27  25417208.113    25417206.176    25417210.098                     3061879.600 7   3061879.601 6                   2385878.791 6        66.000          23.000          18.000                  
G28  24520818.933    24520819.573    24520820.579                    -2611165.001 8  -2611165.017 6                  -2034669.035 6       105.000          26.000          20.000                  
G32  20148425.363    20148425.065    20148427.166                   -24929720.352 9 -24929720.354 9                 -19425752.041 9       922.000        2126.000        1405.000                  
> 2024 10 31 03 27 40.0000000  0  8
G02  21160828.665    21160827.406    21160825.219                   -21325151.762 9 -21325151.764 8                 -16617001.203 8       505.000         211.000         205.000                  
G03  24642343.932    24642343.389    24642345.986                       73940.861 7     73940.861 6                     57619.301 6        70.000          23.000          41.000                  
G08  23164460.651    23164460.673    23164464.133                    -8140822.768 8  -8140822.777 7                  -6343495.629 8       160.000          68.000         133.000                  
G10  21050275.606    21050275.054    21050277.655                   -20014160.559 9 -20014160.557 9                 -15595449.712 9       516.000         649.000         741.000                  
G21  20263094.859    20263093.814    20263093.981                   -24400068.766 9 -24400068.769 8                 -19013040.001 8       605.000         347.000         276.000                  
G27  25498130.836    25498131.127    25498133.663                     3487139.706 7   3487139.711 6                   2717250.244 6        56.000          21.000          21.000                  
G28  24550384.481    24550384.413    24550384.987                    -2455799.660 8  -2455799.663 6                  -1913605.176 6       104.000          24.000          22.000                  
G32  20151632.783    20151632.530    20151634.713                   -24912864.757 9 -24912864.759 9                 -19412617.792 9       905.000        2057.000        1375.000                  
> 2024 10 31 03 27 50.0000000  0  9
G02  21158352.242    21158351.301    21158348.942                   -21338163.699 8 -21338163.701 8                 -16627140.362 8       500.000         201.000         183.000                  
G03  24668110.553    24668108.763    24668112.157                      209342.862 7    209342.857 6                    163127.414 6        66.000          26.000          36.000                  
G08  23235667.712    23235666.196    23235669.389                    -7766635.081 8  -7766635.090 7                  -6051920.786 8       154.000          67.000         114.000                  
G10  21034255.688    21034255.236    21034257.761                   -20098345.442 9 -20098345.441 9                 -15661048.309 9       515.000         638.000         687.000                  
G17  24852283.070    24852291.061    24852326.649                     -466870.890 7   -466870.901 6                   -363800.238 6        90.000          24.000          22.000                  
G21  20278048.564    20278047.241    20278047.342                   -24321487.222 9 -24321487.223 8                 -18951807.608 8       599.000         336.000         248.000                  
G27  25579080.427    25579083.250    25579086.568                     3912543.612 7   3912543.599 6                   3048733.767 6        54.000          21.000          21.000                  
G28  24580067.258    24580068.755    24580069.004                    -2299806.876 7  -2299806.863 6                  -1792052.328 6        95.000          22.000          22.000                  
G32  20155541.176    20155540.998    20155543.251                   -24892325.277 9 -24892325.278 9                 -19396612.987 9       886.000        1965.000        1233.000                  
> 2024 10 31 03 28  0.0000000  0  9
G02  21156843.716    21156842.475    21156840.368                   -21346092.075 8 -21346092.079 8                 -16633318.309 8       499.000         204.000         183.000                  
G03  24694105.650    24694106.560    24694109.026                      345960.109 7    345960.101 6                    269582.478 6        68.000          20.000          29.000                  
G08  23307300.345    23307299.407    23307303.487                    -7390197.520 8  -7390197.524 7                  -5758592.761 7       148.000          54.000          94.000                  
G10  21018922.520    21018922.201    21018924.694                   -20178921.296 9 -20178921.295 9                 -15723834.679 9       516.000         651.000         702.000                  
G17  24795430.280    24795434.233    24795449.243                     -765630.861 7   -765630.867 6                   -596597.643 6        87.000          28.000          18.000                  
G21  20294079.937    20294078.826    20294079.110                   -24237241.199 9 -24237241.201 8                 -18886161.343 8       602.000         341.000         255.000                  
G27  25660055.677    25660056.629    25660061.650                     4338061.061 7   4338061.068 6                   3380306.019 6        56.000          23.000          21.000                  
G28  24609874.930    24609874.551    24609875.950                    -2143175.570 7  -2143175.591 6                  -1670001.895 6        98.000          25.000          23.000                  
G32  20160154.476    20160154.086    20160156.404                   -24868083.099 9 -24868083.101 9                 -19377722.953 9       891.000        2001.000        1247.000                  
> 2024 10 31 03 28 10.0000000  0 10
G02  21156300.220    21156298.845    21156296.710                   -21348948.547 9 -21348948.549 8                 -16635544.122 8       504.000         210.000         186.000                  
G03  24720330.658    24720329.652    24720333.040                      483764.536 7    483764.541 6                    376962.480 6        69.000          26.000          32.000                  
G08  23379345.138    23379345.032    23379348.895                    -7011597.477 8  -7011597.470 7                  -5463579.701 7       143.000          58.000          93.000                  
G10  21004274.110    21004273.640    21004276.051                   -20255899.821 9 -20255899.819 9                 -15783817.938 9       527.000         666.000         751.000                  
G17  24738924.231    24738924.535    24738956.174                    -1062576.654 7  -1062576.681 6                   -827986.414 6        87.000          23.000          16.000                  
G21  20311182.032    20311180.710    20311180.860                   -24147370.209 9 -24147370.211 8                 -18816131.982 8       617.000         357.000         262.000                  
G23  24642771.522    24642817.699    24642836.635                     -109160.823 7   -109160.821 6                    -85062.484 6        65.000          21.000          18.000                  
G27  25741034.284    25741037.880    25741041.552                     4763613.828 6   4763613.836 6                   3711906.346 6        49.000          19.000          17.000                  
G28  24639795.619    24639795.642    24639796.071                    -1985938.593 7  -1985938.570 6                  -1547479.612 6        91.000          22.000          24.000                  
G32  20165467.313    20165466.946    20165469.146                   -24840164.131 9 -24840164.132 9                 -19355967.894 9       909.000        2062.000        1329.000                  
> 2024 10 31 03 28 20.0000000  0  9
G02  21156727.606    21156726.612    21156724.533                   -21346700.883 9 -21346700.881 8                 -16633792.691 8       506.000         211.000         174.000                  
G03  24746782.500    24746783.219    24746785.243                      622774.485 7    622774.459 6                    485281.964 6        65.000          19.000          30.000                  
G08  23451794.040    23451793.395    23451797.470                    -6630876.721 8  -6630876.719 6                  -5166914.148 7       132.000          48.000          77.000                  
G10  20990316.236    20990315.856    20990318.507                   -20329248.150 9 -20329248.150 9                 -15840972.468 9       529.000         669.000         748.000                  
G17  24682775.769    24682776.129    24682776.575                    -1357629.886 7  -1357629.863 6                  -1057894.625 6        87.000          26.000          43.000                  
G21  20329354.820    20329353.898    20329353.711                   -24051870.008 9 -24051870.007 8                 -18741716.230 8       620.000         355.000         247.000                  
G23  24620866.035    24620913.352    24620922.059                     -224264.395 7   -224264.422 6                   -174750.984 6        65.000          20.000          22.000                  
G28  24669834.887    24669834.503    24669837.036                    -1828083.504 7  -1828083.496 6                  -1424475.652 6        95.000          25.000          17.000                  
G32  20171483.210    20171482.924    20171485.196                   -24808549.698 9 -24808549.699 9                 -19331333.255 9       916.000        2095.000        1241.000                  
> 2024 10 31 03 28 30.0000000  0  9
G02  21158123.520    21158122.241    21158120.077                   -21339367.022 9 -21339367.024 8                 -16628077.992 8       503.000         210.000         180.000                  
G03  24773457.950    24773458.630    24773461.423                      762958.143 7    762958.151 6                    594516.023 6        60.000          24.000          31.000                  
G08  23524629.648    23524628.762    23524631.954                    -6248125.454 8  -6248125.467 6                  -4868666.390 7       124.000          43.000          65.000                  
G10  20977046.150    20977045.753    20977048.389                   -20398982.823 9 -20398982.822 9                 -15895311.155 9       532.000         679.000         766.000                  
G17  24626994.878    24626995.493    24626995.825                    -1650760.745 7  -1650760.752 6                  -1286308.316 6        83.000          29.000          50.000                  
G21  20348590.400    20348589.320    20348589.359                   -23950786.584 9 -23950786.583 8                 -18662949.910 8       618.000         360.000         245.000                  
G23  24599192.798    24599239.685    24599264.329                     -338161.441 7   -338161.431 6                   -263504.379 6        67.000          22.000          21.000                  
G28  24699983.704    24699984.207    24699984.805                    -1669646.436 7  -1669646.424 6                  -1301018.091 6        88.000          20.000          18.000                  
G32  20178196.531    20178196.368    20178198.543                   -24773270.467 9 -24773270.468 9                 -19303842.915 9       925.000        2134.000        1198.000                  
> 2024 10 31 03 28 40.0000000  0  9
G02  21160492.030    21160490.878    21160488.718                   -21326920.399 8 -21326920.401 8                 -16618379.331 8       500.000         200.000         178.000                  
G03  24800358.700    24800360.539    24800362.782                      904329.743 7    904329.781 6                    704675.755 6        59.000          20.000          26.000                  
G08  23597841.140    23597841.735    23597845.143                    -5863387.793 8  -5863387.786 6                  -4568870.779 6       116.000          36.000          46.000                  
G10  20964469.326    20964468.866    20964471.369                   -20465075.343 9 -20465075.344 9                 -15946811.819 9       542.000         714.000         716.000                  
G17  24571593.854    24571594.092    24571594.762                    -1941893.548 7  -1941893.557 6                  -1513165.066 7        84.000          29.000          60.000                  
G21  20368888.048    20368887.023    20368887.148                   -23844121.687 9 -23844121.687 8                 -18579834.403 8       626.000         374.000         237.000                  
G23  24577754.008    24577799.690    24577808.860                     -450825.458 7   -450825.493 6                   -351291.989 6        64.000          26.000          17.000                  
G28  24730244.635    24730246.530    24730247.571                    -1510617.723 7  -1510617.724 6                  -1177099.700 6        89.000          22.000          18.000                  
G32  20185610.156    20185609.934    20185612.069                   -24734311.998 9 -24734311.999 9                 -19273485.652 9       921.000        2136.000        1136.000                  
> 2024 10 31 03 28 50.0000000  0  9
G02  21163828.909    21163827.460    21163825.432                   -21309385.509 8 -21309385.510 8                 -16604715.796 8       499.000         193.000         182.000                  
G03  24827481.704    24827481.476    24827484.968                     1046853.682 7   1046853.690 6                    815733.396 6        58.000          21.000          27.000                  
G08  23671415.899    23671415.273    23671418.430                    -5476757.300 8  -5476757.315 6                  -4267600.251 6       107.000          35.000          36.000                  
G10  20952581.491    20952580.798    20952583.221                   -20527547.523 9 -20527547.523 9                 -15995491.448 9       547.000         733.000         687.000                  
G17  24516580.308    24516578.401    24516578.896                    -2231002.508 7  -2231002.525 6                  -1738444.799 7        85.000          22.000          61.000                  
G21  20390237.817    20390236.738    20390236.714                   -23731928.202 9 -23731928.205 8                 -18492410.912 8       624.000         364.000         218.000                  
G23  24556544.355    24556589.505    24556614.438                     -562279.761 7   -562279.757 6                   -438141.928 6        63.000          20.000          18.000                  
G28  24760614.246    24760613.938    24760613.056                    -1351037.332 7  -1351037.336 6                  -1052751.238 6        89.000          25.000          16.000                  
G32  20193716.870    20193716.720    20193718.897                   -24691710.182 9 -24691710.185 9                 -19240289.428 9       904.000        2041.000        1093.000                  
> 2024 10 31 03 29  0.0000000  0  9
G02  21168139.825    21168138.465    21168136.465                   -21286730.851 8 -21286730.854 8                 -16587062.834 8       475.000         181.000         172.000                  
G03  24854827.311    24854827.340    24854829.550                     1190551.552 6   1190551.511 6                    927705.783 6        50.000          22.000          25.000                  
G08  23745343.243    23745341.929    23745345.420                    -5088269.935 7  -5088269.939 6                  -3964882.860 6        96.000          30.000          36.000                  
G10  20941388.905    20941388.370    20941390.699                   -20586364.610 9 -20586364.610 9                 -16041322.947 9       536.000         702.000         622.000                  
G17  24461965.497    24461964.191    24461963.978                    -2518004.474 7  -2518004.477 6                  -1962082.700 7        87.000          30.000          60.000                  
G21  20412640.051    20412638.978    20412639.007                   -23614203.192 9 -23614203.192 8                 -18400677.146 8       597.000         337.000         211.000                  
G23  24535571.200    24535616.762    24535625.725                     -672490.362 7   -672490.363 6                   -524017.790 6        65.000          18.000          16.000                  
G28  24791087.539    24791088.780    24791088.679                    -1190887.850 7  -1190887.875 6                   -927959.676 6        84.000          23.000          15.000                  
G32  20202521.162    20202520.880    20202522.982                   -24645444.251 9 -24645444.253 9                 -19204238.052 9       881.000        1950.000        1000.000                  
> 2024 10 31 03 29 10.0000000  0  8
G02  21173419.554    21173418.392    21173416.520                   -21258984.926 8 -21258984.928 8                 -16565442.659 8       471.000         178.000         171.000                  
G08  23819606.034    23819603.797    23819607.878                    -4698019.970 7  -4698019.975 6                  -3660791.982 6        91.000          25.000          33.000                  
G10  20930887.093    20930886.613    20930888.999                   -20641551.293 9 -20641551.293 9                 -16084325.557 9       541.000         708.000         617.000                  
G17  24407756.255    24407754.987    24407755.806                    -2802875.071 7  -2802875.074 6                  -2184059.814 7        88.000          29.000          66.000                  
G21  20436084.255    20436083.108    20436083.181                   -23491003.917 9 -23491003.918 8                 -18304677.733 8       592.000         323.000         209.000                  
G22  24511335.390    24511336.255    24511352.501                     -212174.902 7   -212174.922 6                   -165335.194 6        86.000          22.000          18.000                  
G28  24821664.555    24821663.994    24821663.449                    -1030210.483 7  -1030210.459 6                   -802748.366 6        84.000          20.000          19.000                  
G32  20212015.235    20212014.916    20212017.020                   -24595552.805 9 -24595552.807 9                 -19165361.604 9       896.000        2017.000        1035.000                  
> 2024 10 31 03 29 20.0000000  0  9
G02  21179673.614    21179672.482    21179670.901                   -21226119.523 8 -21226119.525 8                 -16539833.285 8       465.000         175.000         182.000                  
G08  23894195.214    23894194.104    23894197.656                    -4306043.115 7  -4306043.133 6                  -3355355.462 6        77.000          29.000          34.000                  
G10  20921082.728    20921082.092    20921084.462                   -20693074.751 9 -20693074.751 9                 -16124473.725 9       540.000         699.000         624.000                  
G17  24353969.613    24353967.493    24353967.882                    -3085531.668 7  -3085531.652 6                  -2404311.749 7        94.000          25.000          82.000                  
G21  20460570.128    20460568.817    20460568.884                   -23362330.684 9 -23362330.687 8                 -18204412.899 8       575.000         305.000         219.000                  
G22  24471346.705    24471346.011    24471346.557                     -422320.440 7   -422320.416 6                   -329083.505 6        91.000          21.000          22.000                  
G24  23189563.828    23189567.216    23189578.485                     -291067.292 8   -291067.293 6                   -226807.701 6       103.000          31.000          25.000                  
G28  24852343.959    24852344.754    24852344.048                     -868988.223 7   -868988.200 6                   -677119.525 6        86.000          21.000          18.000                  
G32  20222202.697    20222202.500    20222204.658                   -24542016.836 9 -24542016.836 9                 -19123645.275 9       883.000        1946.000        1095.000                  
> 2024 10 31 03 29 30.0000000  0  9
G02  21186896.347    21186895.117    21186892.951                   -21188165.053 8 -21188165.055 8                 -16510258.393 8       462.000         168.000         184.000                  
G08  23969096.546    23969096.121    23969099.601                    -3912432.152 7  -3912432.152 6                  -3048645.679 6        74.000          24.000          27.000                  
G10  20911970.287    20911969.766    20911972.127                   -20740960.180 9 -20740960.179 9                 -16161787.071 9       536.000         698.000         634.000                  
G17  24300605.811    24300605.888    24300606.211                    -3365948.914 8  -3365948.926 6                  -2622818.719 7       101.000          28.000          81.000                  
G21  20486086.239    20486084.987    20486084.964                   -23228242.518 9 -23228242.519 8                 -18099928.645 8       573.000         303.000         226.000                  
G22  24431858.707    24431857.849    24431856.698                     -629824.147 7   -629824.161 6                   -490774.708 6        91.000          23.000          23.000                  
G24  23126081.859    23126082.358    23126086.308                     -624660.474 8   -624660.470 6                   -486752.264 8       106.000          39.000         108.000                  
G28  24883120.323    24883119.863    24883120.253                     -707261.290 7   -707261.278 6                   -551098.721 6        79.000          26.000          17.000                  
G32  20233076.367    20233076.136    20233078.347                   -24484875.273 9 -24484875.275 9                 -19079119.402 9       865.000        1897.000        1117.000                  
> 2024 10 31 03 29 40.0000000  0  9
G02  21195090.401    21195089.212    21195087.470                   -21145104.208 8 -21145104.209 8                 -16476704.512 8       458.000         169.000         176.000                  
G08  24044301.773    24044299.651    24044304.276                    -3517230.370 7  -3517230.371 6                  -2740696.219 6        71.000          24.000          27.000                  
G10  20903554.576    20903554.245    20903556.628                   -20785184.366 9 -20785184.366 9                 -16196247.513 9       528.000         672.000         631.000                  
G17  24247684.806    24247684.145    24247684.944                    -3644052.711 8  -3644052.694 6                  -2839523.013 7       102.000          28.000          81.000                  
G21  20512630.592    20512629.406    20512629.494                   -23088750.756 9 -23088750.758 8                 -17991233.780 8       554.000         277.000         222.000                  
G22  24392885.977    24392883.117    24392884.376                     -834630.821 7   -834630.816 6                   -650364.391 6        88.000          23.000          18.000                  
G24  23062813.276    23062812.490    23062815.243                     -957146.105 8   -957146.115 6                   -745831.996 8       110.000          35.000         124.000                  
G28  24913995.796    24913993.644    24913993.066                     -545020.727 7   -545020.711 6                   -424677.611 6        75.000          19.000          18.000                  
G32  20244638.158    20244637.763    20244639.981                   -24424118.601 9 -24424118.602 9                 -19031776.571 9       838.000        1756.000        1091.000                  
> 2024 10 31 03 29 50.0000000  0  9
G02  21204253.926    21204252.476    21204250.322                   -21096951.848 8 -21096951.851 8                 -16439183.205 8       457.000         167.000         152.000                  
G08  24119795.456    24119792.963    24119796.555                    -3120511.596 7  -3120511.595 6                  -2431564.730 6        67.000          26.000          20.000                  
G10  20895834.193    20895833.724    20895836.180                   -20825755.798 9 -20825755.799 9                 -16227861.659 9       521.000         658.000         580.000                  
G17  24195212.104    24195211.519    24195211.945                    -3919799.829 8  -3919799.836 6                  -3054390.913 7       106.000          25.000          72.000                  
G21  20540194.779    20540193.662    20540193.871                   -22943899.120 9 -22943899.124 8                 -17878362.398 8       539.000         274.000         194.000                  
G22  24354431.150    24354427.443    24354429.357                    -1036716.406 7  -1036716.428 6                   -807832.604 6        92.000          16.000          17.000                  
G24  22999759.928    22999758.957    22999761.782                    -1288494.089 8  -1288494.102 6                  -1004025.237 8       115.000          39.000         122.000                  
G28  24944961.661    24944960.911    24944962.451                     -382288.507 7   -382288.525 6                   -297873.301 6        74.000          24.000          18.000                  
G32  20256883.384    20256883.169    20256885.464                   -24359768.829 9 -24359768.831 9                 -18981633.922 9       815.000        1670.000        1017.000                  
> 2024 10 31 03 30  0.0000000  0  9
G02  21214383.086    21214381.883    21214380.008                   -21043720.193 8 -21043720.192 8                 -16397704.004 8       452.000         161.000         141.000                  
G08  24195563.625    24195562.743    24195565.429                    -2722345.256 7  -2722345.230 6                  -2121305.320 6        63.000          20.000          18.000                  
G10  20888807.811    20888807.380    20888809.964                   -20862679.515 9 -20862679.513 9                 -16256633.424 9       510.000         630.000         581.000                  
G17  24143196.442    24143196.809    24143195.987                    -4193142.989 8  -4193142.969 6                  -3267385.573 7       108.000          28.000          76.000                  
G21  20568771.606    20568770.301    20568770.253                   -22793728.439 9 -22793728.440 8                 -17761346.302 8       530.000         264.000         186.000                  
G22  24316497.818    24316494.485    24316498.881                    -1236053.163 8  -1236053.177 6                   -963160.067 6       101.000          21.000          17.000                  
G24  22936929.826    22936929.107    22936931.681                    -1618669.976 8  -1618669.970 6                  -1261305.153 8       118.000          41.000         143.000                  
G28  24976016.537    24976016.843    24976018.051                     -219082.356 7   -219082.369 6                   -170696.680 6        69.000          23.000          16.000                  
G32  20269809.101    20269808.695    20269811.045                   -24291844.488 9 -24291844.490 9                 -18928705.896 9       806.000        1636.000        1021.000                  
> 2024 10 31 03 30 10.0000000  0 10
G02  21225481.130    21225479.864    21225477.875                   -20985400.903 8 -20985400.904 8                 -16352260.418 8       463.000         169.000         141.000                  
G08  24271599.473    24271597.055    24271599.956                    -2322778.491 7  -2322778.512 6                  -1809954.647 6        62.000          23.000          18.000                  
G10  20882478.750    20882478.204    20882480.853                   -20895939.449 9 -20895939.447 9                 -16282550.277 9       508.000         621.000         596.000                  
G17  24091653.073    24091651.192    24091651.271                    -4464013.367 8  -4464013.349 6                  -3478453.416 7       113.000          32.000          76.000                  
G21  20598356.197    20598355.032    20598355.264                   -22638259.176 9 -22638259.178 8                 -17640201.444 8       534.000         272.000         186.000                  
G22  24279098.437    24279094.415    24279095.598                    -1432591.927 8  -1432591.948 6                  -1116307.158 6       104.000          24.000          21.000                  
G23  24395362.781    24395362.580    24395374.541                      -69898.495 7    -69898.469 6                    -54467.868 6        74.000          15.000          17.000                  
G24  22874332.134    22874332.259    22874335.179                    -1947617.273 8  -1947617.267 6                  -1517627.716 8       124.000          43.000         157.000                  
G28  25007165.645    25007165.266    25007163.342                      -55398.090 7    -55398.102 6                    -43150.576 6        68.000          18.000          21.000                  
G32  20283415.322    20283415.093    20283417.421                   -24220342.862 9 -24220342.862 9                 -18872990.365 9       820.000        1697.000        1042.000                  
> 2024 10 31 03 30 20.0000000  0 10
G02  21237543.230    21237542.020    21237540.021                   -20922014.015 8 -20922014.019 8                 -16302868.047 8       461.000         172.000         138.000                  
G08  24347886.333    24347885.481    24347887.008                    -1921885.153 7  -1921885.153 6                  -1497570.235 6        62.000          22.000          20.000                  
G10  20876844.480    20876843.958    20876846.621                   -20925547.357 8 -20925547.356 9                 -16305621.398 9       490.000         580.000         577.000                  
G17  24040585.177    24040584.810    24040584.762                    -4732369.028 8  -4732369.034 6                  -3687561.689 7       117.000          31.000          84.000                  
G21  20628940.050    20628939.080    20628939.334                   -22477539.829 9 -22477539.831 8                 -17514965.594 8       524.000         260.000         168.000                  
G22  24242234.560    24242231.395    24242232.595                    -1626311.162 8  -1626311.166 6                  -1267257.259 6       108.000          18.000          19.000                  
G23  24376287.101    24376283.802    24376285.346                     -170154.038 7   -170154.030 6                   -132587.673 6        70.000          21.000          19.000                  
G24  22811975.248    22811975.037    22811977.523                    -2275306.340 8  -2275306.345 6                  -1772969.844 8       125.000          42.000         162.000                  
G28  25038402.686    25038400.532    25038399.781                      108741.410 7    108741.413 6                     84750.302 6        66.000          19.000          16.000                  
G32  20297697.616    20297697.415    20297699.770                   -24145288.903 9 -24145288.904 9                 -18814506.785 9       803.000        1625.000        1046.000                  
> 2024 10 31 03 30 30.0000000  0 10
G02  21250566.778    21250565.536    21250563.484                   -20853575.032 8 -20853575.031 8                 -16249538.998 8       468.000         172.000         141.000                  
G08  24424414.041    24424412.064    24424416.022                    -1519732.627 7  -1519732.621 6                  -1184204.715 6        51.000          20.000          21.000                  
G10  20871904.132    20871903.465    20871906.245                   -20951509.710 8 -20951509.709 9                 -16325851.840 9       500.000         602.000         605.000                  
G17  23990007.132    23990006.261    23990006.322                    -4998162.640 8  -4998162.648 6                  -3894673.609 7       116.000          38.000          84.000                  
G21  20660514.792    20660513.584    20660513.805                   -22311614.149 9 -22311614.153 8                 -17385672.865 8       523.000         261.000         156.000                  
G22  24205911.113    24205909.942    24205912.124                    -1817183.469 8  -1817183.473 6                  -1415988.982 6       115.000          22.000          16.000                  
G23  24357445.517    24357444.357    24357447.331                     -269157.567 7   -269157.593 6                   -209733.362 6        70.000          22.000          21.000                  
G24  22749865.587    22749864.058    22749866.801                    -2601701.240 8  -2601701.235 6                  -2027303.522 8       135.000          44.000         180.000                  
G28  25069719.431    25069717.628    25069719.451                      273319.395 7    273319.384 6                    212992.226 6        61.000          19.000          16.000                  
G32  20312652.338    20312651.969    20312654.344                   -24066702.148 9 -24066702.149 9                 -18753270.374 9       801.000        1604.000        1079.000                  
> 2024 10 31 03 30 40.0000000  0 10
G02  21264553.401    21264552.231    21264549.977                   -20780074.593 8 -20780074.592 8                 -16192265.921 8       463.000         176.000         146.000                  
G08  24501175.456    24501171.294    24501175.160                    -1116362.114 7  -1116362.124 6                   -869890.153 6        56.000          19.000          19.000                  
G10  20867660.923    20867660.528    20867663.126                   -20973807.696 9 -20973807.695 9                 -16343226.925 9       510.000         628.000         670.000                  
G17  23939929.949    23939928.908    23939928.734                    -5261320.623 8  -5261320.624 6                  -4099731.775 7       122.000          32.000          86.000                  
G21  20693076.575    20693075.218    20693075.472                   -22140501.252 9 -22140501.252 8                 -17252338.187 8       513.000         255.000         159.000                  
G22  24170142.651    24170140.303    24170142.028                    -2005156.182 8  -2005156.185 6                  -1562461.270 6       122.000          23.000          20.000                  
G23  24338849.725    24338846.638    24338849.988                     -366885.424 7   -366885.440 6                   -285885.009 6        68.000          21.000          18.000                  
G24  22688011.813    22688011.286    22688014.026                    -2926740.022 8  -2926740.021 7                  -2280580.481 8       147.000          60.000         196.000                  
G28  25101124.912    25101120.520    25101123.382                      438345.071 7    438345.095 6                    341561.319 6        64.000          20.000          17.000                  
G32  20328280.201    20328279.931    20328282.393                   -23984576.823 9 -23984576.824 9                 -18689276.669 9       780.000        1513.000        1107.000                  
> 2024 10 31 03 30 50.0000000  0 10
G02  21279492.625    21279491.170    21279489.243                   -20701569.086 8 -20701569.084 8                 -16131092.792 8       464.000         179.000         151.000                  
G08  24578142.386    24578141.945    24578145.679                     -711878.424 6   -711878.444 6                   -554708.067 6        49.000          17.000          18.000                  
G10  20864106.283    20864105.911    20864108.556                   -20992487.471 9 -20992487.470 9                 -16357782.602 9       520.000         651.000         741.000                  
G17  23890354.966    23890354.617    23890354.900                    -5521834.082 8  -5521834.077 6                  -4302729.280 7       125.000          38.000          96.000                  
G21  20726609.327    20726607.941    20726608.134                   -21964285.295 9 -21964285.294 8                 -17115027.030 8       515.000         247.000         163.000                  
G22  24134923.069    24134919.383    24134920.685                    -2190241.461 8  -2190241.463 6                  -1706683.547 6       127.000          24.000          19.000                  
G23  24320486.417    24320484.178    24320488.556                     -463378.385 7   -463378.397 6                   -361074.346 6        70.000          20.000          21.000                  
G24  22626416.755    22626416.335    22626418.866                    -3250424.659 8  -3250424.654 7                  -2532802.272 8       159.000          60.000         221.000                  
G28  25132599.824    25132598.532    25132601.863                      603763.525 7    603763.517 6                    470443.510 6        60.000          21.000          21.000                  
G32  20344570.315    20344569.985    20344572.524                   -23898971.756 9 -23898971.757 9                 -18622571.424 9       779.000        1530.000        1174.000                  
> 2024 10 31 03 31  0.0000000  0  9
G02  21295391.671    21295390.451    21295388.516                   -20618018.215 8 -20618018.218 8                 -16065988.222 8       468.000         170.000         153.000                  
G10  20861250.099    20861249.413    20861252.025                   -21007498.097 9 -21007498.096 9                 -16369479.214 9       534.000         681.000         765.000                  
G17  23841304.216    23841303.917    23841304.108                    -5779596.401 8  -5779596.394 6                  -4503583.043 8       128.000          47.000         111.000                  
G21  20761115.605    20761114.011    20761114.432                   -21782954.294 9 -21782954.294 8                 -16973730.136 8       525.000         263.000         157.000                  
G22  24100267.574    24100265.006    24100265.948                    -2372353.876 8  -2372353.887 6                  -1848589.365 6       134.000          24.000          19.000                  
G23  24302371.607    24302368.175    24302372.398                     -558579.448 7   -558579.452 6                   -435257.021 6        75.000          24.000          17.000                  
G24  22565097.617    22565097.142    22565099.555                    -3572659.125 8  -3572659.132 7                  -2783894.070 8       172.000          74.000         238.000                  
G28  25164159.821    25164159.691    25164164.643                      769617.808 7    769617.800 6                    599680.691 6        59.000          26.000          16.000                  
G32  20361529.852    20361529.535    20361531.984                   -23809848.770 9 -23809848.772 9                 -18553124.956 9       788.000        1561.000        1166.000                  
> 2024 10 31 03 31 10.0000000  0  9
G02  21312243.926    21312242.657    21312240.583                   -20529459.585 8 -20529459.586 8                 -15996981.518 8       463.000         172.000         156.000                  
G10  20859086.754    20859086.362    20859088.876                   -21018865.897 9 -21018865.895 9                 -16378337.256 9       543.000         717.000         785.000                  
G17  23792784.046    23792782.474    23792782.881                    -6034577.817 8  -6034577.809 6                  -4702269.869 8       134.000          46.000         115.000                  
G21  20796582.323    20796581.108    20796581.332                   -21596573.755 9 -21596573.757 8                 -16828498.548 8       532.000         265.000         155.000                  
G22  24066179.728    24066178.028    24066179.422                    -2551485.096 8  -2551485.103 6                  -1988172.106 6       133.000          24.000          26.000                  
G23  24284497.541    24284494.436    24284497.553                     -652508.398 7   -652508.398 6                   -508448.462 6        73.000          19.000          18.000                  
G24  22504058.399    22504057.648    22504060.002                    -3893423.747 8  -3893423.749 7                  -3033840.535 8       182.000          92.000         265.000                  
G28  25195800.787    25195796.984    25195798.983                      935874.324 7    935874.346 6                    729230.986 6        56.000          19.000          18.000                  
G32  20379151.471    20379151.138    20379153.570                   -23717246.669 9 -23717246.671 9                 -18480967.486 9       781.000        1541.000        1121.000                  
> 2024 10 31 03 31 20.0000000  0  9
G02  21330042.951    21330041.677    21330039.901                   -20435924.496 8 -20435924.496 8                 -15924097.030 8       465.000         181.000         163.000                  
G10  20857612.845    20857612.507    20857615.177                   -21026610.267 9 -21026610.266 9                 -16384371.845 9       555.000         745.000         809.000                  
G17  23744798.349    23744797.768    23744798.107                    -6286741.227 8  -6286741.218 6                  -4898760.876 8       140.000          50.000         130.000                  
G21  20832999.273    20832997.916    20832998.206                   -21405202.573 9 -21405202.575 8                 -16679378.151 8       548.000         281.000         166.000                  
G22  24032662.641    24032661.156    24032661.175                    -2727619.705 8  -2727619.730 6                  -2125419.869 6       138.000          28.000          18.000                  
G23  24266861.684    24266859.562    24266862.420                     -745177.453 7   -745177.435 6                   -580658.078 6        72.000          23.000          21.000                  
G24  22443303.398    22443302.822    22443305.659                    -4212691.065 8  -4212691.075 7                  -3282620.272 8       190.000          90.000         304.000                  
G28  25227508.464    25227506.508    25227507.855                     1102507.287 7   1102507.322 6                    859067.708 6        59.000          22.000          18.000                  
G32  20397429.063    20397428.772    20397431.235                   -23621197.260 9 -23621197.261 9                 -18406123.810 9       793.000        1574.000        1135.000                  
> 2024 10 31 03 31 30.0000000  0  9
G02  21348790.659    21348789.781    21348787.578                   -20337404.342 8 -20337404.345 8                 -15847328.092 8       467.000         175.000         169.000                  
G10  20856832.864    20856832.445    20856834.991                   -21030710.241 9 -21030710.241 9                 -16387566.638 9       568.000         770.000         825.000                  
G17  23697363.696    23697363.739    23697364.001                    -6536008.534 8  -6536008.537 6                  -5092995.174 8       143.000          50.000         130.000                  
G21  20870362.252    20870360.904    20870361.145                   -21208859.598 9 -21208859.599 8                 -16526383.633 8       553.000         287.000         166.000                  
G22  23999726.177    23999724.679    23999725.273                    -2900701.701 8  -2900701.682 6                  -2260289.019 6       134.000          21.000          22.000                  
G23  24249473.552    24249471.482    24249473.321                     -836558.086 7   -836558.112 6                   -651863.744 6        74.000          22.000          20.000                  
G24  22382846.484    22382846.744    22382849.392                    -4530392.334 8  -4530392.329 7                  -3530179.711 8       188.000          93.000         350.000                  
G28  25259292.779    25259290.990    25259292.363                     1269531.991 7   1269531.996 6                    989204.858 6        56.000          19.000          20.000                  
G32  20416364.259    20416364.034    20416366.468                   -23521691.695 9 -23521691.697 9                 -18328587.009 9       778.000        1525.000        1137.000                  
> 2024 10 31 03 31 40.0000000  0  9
G02  21368477.363    21368475.891    21368473.871                   -20233952.082 8 -20233952.086 8                 -15766715.958 8       466.000         173.000         159.000                  
G10  20856738.493    20856738.150    20856740.684                   -21031205.722 9 -21031205.722 9                 -16387952.733 9       576.000         806.000         821.000                  
G17  23650485.354    23650484.374    23650484.427                    -6782362.229 8  -6782362.226 7                  -5284959.129 8       145.000          51.000         142.000                  
G21  20908655.782    20908654.516    20908654.692                   -21007624.920 9 -21007624.921 8                 -16369577.401 8       548.000         284.000         162.000                  
G22  23967369.198    23967368.199    23967368.185                    -3070735.777 8  -3070735.767 6                  -2392783.155 6       139.000          26.000          22.000                  
G23  24232323.859    24232321.514    24232323.616                     -926681.883 7   -926681.874 6                   -722090.176 6        74.000          18.000          22.000                  
G24  22322689.651    22322689.024    22322692.345                    -4846518.782 8  -4846518.778 7                  -3776512.015 8       187.000          91.000         390.000                  
G28  25291140.318    25291140.715    25291143.763                     1436903.611 7   1436903.590 6                   1119623.288 6        56.000          20.000          14.000                  
G32  20435947.354    20435947.127    20435949.495                   -23418781.938 9 -23418781.940 9                 -18248397.598 9       773.000        1503.000        1124.000                  
> 2024 10 31 03 31 50.0000000  0  9
G02  21389104.270    21389103.029    21389100.953                   -20125555.406 8 -20125555.405 8                 -15682251.032 8       474.000         182.000         176.000                  
G10  20857335.254    20857334.705    20857337.141                   -21028070.920 9 -21028070.919 9                 -16385510.027 9       593.000         851.000         855.000                  
G17  23604176.214    23604175.003    23604175.258                    -7025718.736 8  -7025718.740 6                  -5474587.608 8       150.000          49.000         166.000                  
G21  20947877.420    20947876.242    20947876.566                   -20801513.243 9 -20801513.244 8                 -16208970.924 8       553.000         284.000         169.000                  
G22  23935605.092    23935603.310    23935602.859                    -3237660.763 8  -3237660.767 6                  -2522854.575 6       145.000          24.000          19.000                  
G23  24215418.219    24215418.031    24215419.497                    -1015514.225 7  -1015514.226 6                   -791310.129 6        79.000          22.000          24.000                  
G24  22262847.007    22262846.649    22262849.585                    -5160995.135 8  -5160995.135 8                  -4021558.529 8       194.000         102.000         451.000                  
G28  25323063.619    25323060.628    25323062.809                     1604643.863 7   1604643.872 6                   1250330.731 6        56.000          21.000          18.000                  
G32  20456181.025    20456180.705    20456182.976                   -23312454.063 9 -23312454.064 9                 -18165544.723 9       790.000        1587.000        1162.000                  
> 2024 10 31 03 32  0.0000000  0  9
G02  21410663.092    21410661.798    21410659.763                   -20012263.132 8 -20012263.131 8                 -15593971.352 8       478.000         184.000         175.000                  
G10  20858615.756    20858615.376    20858617.827                   -21021340.688 9 -21021340.687 9                 -16380265.694 9       590.000         834.000         857.000                  
G17  23558440.908    23558440.549    23558440.792                    -7266054.626 8  -7266054.632 7                  -5661862.369 8       161.000          64.000         172.000                  
G21  20988013.030    20988011.797    20988012.055                   -20590600.076 9 -20590600.076 8                 -16044623.017 8       554.000         296.000         169.000                  
G22  23904431.548    23904430.295    23904430.138                    -3401476.005 8  -3401476.015 6                  -2650502.909 6       149.000          24.000          24.000                  
G23  24198756.753    24198754.617    24198756.314                    -1103080.590 7  -1103080.613 6                   -859543.661 6        83.000          22.000          19.000                  
G24  22203321.061    22203320.677    22203323.553                    -5473805.782 8  -5473805.785 7                  -4265307.094 8       199.000          99.000         474.000                  
G28  25355044.845    25355043.218    25355045.699                     1772714.504 7   1772714.491 6                   1381294.889 6        56.000          21.000          18.000                  
G32  20477056.128    20477055.811    20477058.113                   -23202754.473 9 -23202754.474 9                 -18080064.530 9       812.000        1647.000        1173.000                  
> 2024 10 31 03 32 10.0000000  0  9
G02  21433152.194    21433150.968    21433148.832                   -19894082.644 8 -19894082.646 8                 -15501882.702 8       476.000         181.000         172.000                  
G10  20860581.915    20860581.545    20860584.157                   -21011007.747 9 -21011007.745 9                 -16372214.053 9       586.000         823.000         862.000                  
G17  23513294.084    23513293.207    23513293.842                    -7503304.081 8  -7503304.089 7                  -5846732.124 8       170.000          64.000         186.000                  
G21  21029055.750    21029054.729    21029054.355                   -20374918.956 9 -20374918.956 8                 -15876559.803 8       562.000         298.000         167.000                  
G22  23873859.498    23873857.200    23873857.410                    -3562138.454 8  -3562138.442 6                  -2775694.444 6       153.000          26.000          27.000                  
G23  24182336.302    24182335.375    24182337.046                    -1189363.858 7  -1189363.838 6                   -926777.398 6        83.000          21.000          22.000                  
G24  22144123.406    22144123.086    22144125.603                    -5784892.276 8  -5784892.278 8                  -4507712.163 9       203.000         102.000         527.000                  
G28  25387090.415    25387090.255    25387090.755                     1941120.343 7   1941120.363 6                   1512512.498 6        54.000          23.000          14.000                  
G32  20498572.159    20498571.834    20498574.036                   -23089687.429 9 -23089687.430 9                 -17991960.353 9       835.000        1753.000        1210.000                  
> 2024 10 31 03 32 20.0000000  0  9
G02  21456566.482    21456565.301    21456563.310                   -19771039.222 8 -19771039.223 8                 -15406004.752 8       484.000         190.000         186.000                  
G10  20863231.758    20863231.562    20863234.060                   -20997082.362 9 -20997082.361 9                 -16361363.114 9       580.000         823.000         875.000                  
G17  23468743.886    23468743.214    23468743.374                    -7737418.409 8  -7737418.413 7                  -6029158.905 8       182.000          72.000         197.000                  
G21  21070996.033    21070994.886    21070994.860                   -20154521.220 9 -20154521.222 8                 -15704821.324 8       557.000         284.000         164.000                  
G22  23843890.756    23843889.204    23843890.372                    -3719622.829 8  -3719622.843 6                  -2898409.636 6       158.000          33.000          27.000                  
G23  24166161.444    24166160.935    24166162.968                    -1274363.794 7  -1274363.758 6                   -993011.099 6        85.000          20.000          26.000                  
G24  22085262.179    22085261.102    22085264.069                    -6094212.768 8  -6094212.775 8                  -4748741.130 9       203.000         105.000         561.000                  
G28  25419199.672    25419198.821    25419199.947                     2109849.126 7   2109849.114 6                   1643982.948 6        55.000          21.000          21.000                  
G32  20520724.765    20520724.497    20520726.738                   -22973274.427 9 -22973274.429 9                 -17901248.932 9       845.000        1789.000        1249.000                  
> 2024 10 31 03 32 30.0000000  0 10
G02  21480898.778    21480897.804    21480895.337                   -19643172.170 8 -19643172.173 8                 -15306368.114 8       481.000         185.000         180.000                  
G10  20866560.697    20866560.490    20866563.067                   -20979588.456 9 -20979588.456 9                 -16347731.519 9       583.000         821.000         842.000                  
G14  24523802.462    24523803.165    24523832.685                      -22663.667 7    -22663.693 6                    -17663.569 6        74.000          19.000          17.000                  
G17  23424797.373    23424796.050    23424796.503                    -7968362.290 8  -7968362.288 7                  -6209115.190 8       193.000          75.000         189.000                  
G21  21113821.420    21113820.428    21113820.114                   -19929472.049 9 -19929472.048 8                 -15529458.397 8       551.000         289.000         147.000                  
G22  23814529.462    23814528.352    23814528.693                    -3873917.125 8  -3873917.157 6                  -3018638.980 6       158.000          25.000          25.000                  
G23  24150228.011    24150228.735    24150230.183                    -1358093.324 7  -1358093.326 6                  -1058254.926 6        84.000          21.000          22.000                  
G24  22026740.697    22026740.922    22026743.963                    -6401738.284 8  -6401738.282 8                  -4988371.415 9       202.000         104.000         570.000                  
G28  25451363.139    25451362.799    25451365.594                     2278876.013 7   2278876.021 6                   1775692.945 6        54.000          20.000          16.000                  
G32  20543507.636    20543507.253    20543509.585                   -22853550.450 9 -22853550.452 9                 -17807957.533 9       849.000        1805.000        1280.000                  
> 2024 10 31 03 32 40.0000000  0 10
G02  21506149.206    21506147.988    21506145.732                   -19510481.379 8 -19510481.376 8                 -15202972.739 8       482.000         186.000         191.000                  
G10  20870572.080    20870571.572    20870574.146                   -20958509.884 9 -20958509.883 9                 -16331306.684 9       586.000         833.000         835.000                  
G14  24517769.467    24517767.616    24517768.828                      -54376.041 7    -54376.036 6                    -42373.135 6        80.000          18.000          19.000                  
G17  23381467.242    23381466.862    23381466.751                    -8196060.160 8  -8196060.162 7                  -6386542.120 8       204.000          95.000         209.000                  
G21  21157527.227    21157526.135    21157526.150                   -19699796.592 9 -19699796.593 8                 -15350490.505 8       560.000         299.000         137.000                  
G22  23785785.747    23785784.045    23785783.626                    -4024969.214 8  -4024969.192 6                  -3136341.924 6       168.000          22.000          32.000                  
G23  24134542.861    24134541.499    24134543.179                    -1440524.707 7  -1440524.704 6                  -1122487.205 6        87.000          22.000          25.000                  
G24  21968576.601    21968575.659    21968578.668                    -6707398.941 8  -6707398.941 8                  -5226548.558 9       205.000         112.000         611.000                  
G28  25483589.396    25483588.425    25483590.055                     2448216.740 7   2448216.743 6                   1907646.758 6        54.000          19.000          18.000                  
G32  20566921.345    20566921.105    20566923.288                   -22730510.222 9 -22730510.223 9                 -17712082.045 9       868.000        1906.000        1352.000                  
> 2024 10 31 03 32 50.0000000  0 11
G02  21532305.564    21532304.183    21532302.401                   -19373028.649 8 -19373028.652 8                 -15095866.759 8       488.000         188.000         195.000                  
G10  20875256.508    20875256.188    20875258.656                   -20933892.091 9 -20933892.092 9                 -16312124.032 9       588.000         844.000         823.000                  
G12  24794491.666    24794490.129    24794503.114                     -416509.714 7   -416509.691 6                   -324555.377 6       100.000          24.000          18.000                  
G14  24512233.410    24512232.955    24512234.929                      -83463.134 7    -83463.153 6                    -65039.436 6        77.000          23.000          20.000                  
G17  23338757.906    23338757.710    23338757.965                    -8420497.625 8  -8420497.622 8                  -6561428.474 8       210.000         103.000         211.000                  
G21  21202097.323    21202095.753    21202095.876                   -19465581.977 9 -19465581.978 8                 -15167985.677 8       566.000         304.000         142.000                  
G22  23757656.547    23757654.287    23757655.396                    -4172788.528 8  -4172788.545 6                  -3251525.823 6       174.000          28.000          27.000                  
G23  24119097.012    24119095.774    24119096.940                    -1521691.313 7  -1521691.316 6                  -1185733.972 6        90.000          23.000          25.000                  
G24  21910766.958    21910766.867    21910769.864                    -7011185.670 8  -7011185.673 8                  -5463265.491 9       213.000         113.000         640.000                  
G28  25515864.255    25515864.117    25515865.962                     2617826.264 7   2617826.271 6                   2039810.908 6        57.000          20.000          18.000                  
G32  20590955.626    20590955.259    20590957.540                   -22604209.886 9 -22604209.887 9                 -17613666.244 9       881.000        1928.000        1372.000                  
> 2024 10 31 03 33  0.0000000  0 11
G02  21559368.834    21559367.667    21559365.700                   -19230809.412 8 -19230809.414 8                 -14985046.594 8       490.000         193.000         189.000                  
G10  20880618.899    20880618.388    20880620.948                   -20905713.665 9 -20905713.665 9                 -16290166.861 9       595.000         860.000         833.000                  
G12  24726901.527    24726899.985    24726901.033                     -771699.072 8   -771699.056 6                   -601325.281 6       104.000          31.000          44.000                  
G14  24507205.375    24507202.973    24507205.030                     -109892.568 7   -109892.585 6                    -85631.835 6        80.000          20.000          15.000                  
G17  23296685.484    23296684.778    23296684.773                    -8641593.384 8  -8641593.381 8                  -6733710.909 8       223.000         115.000         211.000                  
G21  21247526.416    21247525.352    21247525.101                   -19226848.490 9 -19226848.493 8                 -14981959.633 8       575.000         309.000         141.000                  
G22  23730153.228    23730151.362    23730152.344                    -4317317.689 8  -4317317.671 6                  -3364145.978 6       179.000          32.000          34.000                  
G23  24103898.851    24103896.865    24103898.870                    -1601559.143 7  -1601559.155 6                  -1247968.674 6        91.000          19.000          19.000                  
G24  21853330.048    21853329.381    21853332.321                    -7313021.729 8  -7313021.735 8                  -5698462.415 9       228.000         126.000         661.000                  
G28  25548193.850    25548195.619    25548196.073                     2787727.120 7   2787727.115 6                   2172200.800 6        54.000          22.000          21.000                  
G32  20615612.281    20615611.884    20615614.167                   -22474638.390 9 -22474638.392 9                 -17512701.476 9       877.000        1918.000        1416.000                  
> 2024 10 31 03 33 10.0000000  0 11
G02  21587328.129    21587326.823    21587324.653                   -19083883.619 8 -19083883.621 8                 -14870558.991 8       490.000         191.000         187.000                  
G10  20886650.409    20886650.069    20886652.689                   -20874017.042 9 -20874017.041 9                 -16265468.215 9       601.000         877.000         869.000                  
G12  24659375.586    24659375.422    24659376.218                    -1126545.079 8  -1126545.077 6                   -877828.595 6       113.000          40.000          44.000                  
G14  24502674.417    24502672.971    24502673.186                     -133695.907 7   -133695.908 6                   -104169.014 6        78.000          23.000          19.000                  
G17  23255251.152    23255250.914    23255250.956                    -8859329.792 8  -8859329.786 8                  -6903375.660 8       230.000         110.000         209.000                  
G21  21293799.900    21293798.666    21293798.635                   -18983679.896 9 -18983679.896 8                 -14792477.652 8       575.000         322.000         136.000                  
G22  23703274.882    23703273.399    23703275.085                    -4458563.132 8  -4458563.145 6                  -3474207.376 6       186.000          31.000          36.000                  
G23  24088942.516    24088940.372    24088942.699                    -1680157.496 7  -1680157.500 6                  -1309214.177 6        99.000          21.000          25.000                  
G24  21796265.716    21796265.848    21796268.579                    -7612893.558 8  -7612893.561 8                  -5932128.775 9       242.000         150.000         706.000                  
G28  25580574.238    25580574.184    25580573.808                     2957878.644 7   2957878.656 6                   2304786.010 6        54.000          20.000          17.000                  
G32  20640881.290    20640880.924    20640883.333                   -22341848.516 9 -22341848.517 9                 -17409228.891 9       875.000        1912.000        1488.000                  
> 2024 10 31 03 33 20.0000000  0 11
G02  21616180.083    21616179.281    21616177.292                   -18932264.036 8 -18932264.036 8                 -14752413.920 8       485.000         189.000         194.000                  
G10  20893352.555    20893352.163    20893354.709                   -20838797.242 9 -20838797.242 9                 -16238024.239 9       610.000         911.000         895.000                  
G12  24591929.544    24591928.710    24591929.305                    -1480981.224 8  -1480981.212 6                  -1154012.539 7       120.000          40.000          55.000                  
G14  24498648.434    24498646.802    24498645.614                     -154857.107 7   -154857.117 6                   -120658.352 6        71.000          21.000          16.000                  
G17  23214469.371    23214468.579    23214468.638                    -9073641.497 8  -9073641.496 8                  -7070371.811 8       226.000         117.000         228.000                  
G21  21340910.292    21340909.083    21340909.128                   -18736112.962 9 -18736112.962 8                 -14599568.357 8       564.000         299.000         143.000                  
G22  23677029.813    23677028.429    23677028.550                    -4596483.759 8  -4596483.751 6                  -3581678.041 6       189.000          37.000          41.000                  
G23  24074230.244    24074229.108    24074231.539                    -1757467.673 7  -1757467.684 6                  -1369455.868 6       100.000          23.000          28.000                  
G24  21739587.905    21739587.476    21739590.453                    -7910739.327 8  -7910739.325 8                  -6164216.379 9       245.000         147.000         750.000                  
G28  25613003.799    25613001.296    25613000.265                     3128288.527 7   3128288.513 6                   2437599.895 6        56.000          17.000          16.000                  
G32  20666761.794    20666761.496    20666763.870                   -22205845.130 9 -22205845.130 9                 -17303252.243 9       849.000        1819.000        1526.000                  
> 2024 10 31 03 33 30.0000000  0 11
G02  21645919.354    21645918.131    21645916.336                   -18775984.648 8 -18775984.654 8                 -14630637.813 8       477.000         190.000         181.000                  
G10  20900722.252    20900721.749    20900724.287                   -20800070.156 9 -20800070.155 9                 -16207847.302 9       639.000         981.000         896.000                  
G12  24524568.076    24524568.474    24524568.874                    -1834960.985 8  -1834960.973 6                  -1429840.866 7       127.000          39.000          53.000                  
G14  24495121.569    24495120.487    24495120.967                     -173380.878 7   -173380.855 6                   -135092.652 6        70.000          26.000          19.000                  
G17  23174346.858    23174346.520    23174346.709                    -9284483.780 8  -9284483.785 8                  -7234664.493 8       229.000         119.000         226.000                  
G21  21388846.847    21388845.485    21388845.689                   -18484205.372 9 -18484205.372 8                 -14403276.727 8       551.000         284.000         146.000                  
G22  23651421.119    23651419.456    23651420.035                    -4731059.462 8  -4731059.460 6                  -3686542.240 6       189.000          34.000          41.000                  
G23  24059762.779    24059762.506    24059764.497                    -1833491.569 8  -1833491.541 6                  -1428695.294 6       103.000          22.000          28.000                  
G24  21683303.357    21683302.680    21683305.686                    -8206517.328 8  -8206517.332 8                  -6394692.744 9       255.000         161.000         792.000                  
G28  25645477.326    25645476.416    25645481.060                     3298944.216 7   3298944.236 6                   2570612.658 6        61.000          20.000          16.000                  
G32  20693249.041    20693248.701    20693251.115                   -22066653.970 9 -22066653.972 9                 -17194791.605 9       841.000        1782.000        1509.000                  
> 2024 10 31 03 33 40.0000000  0 11
G02  21676537.322    21676536.023    21676534.044                   -18615085.523 8 -18615085.527 8                 -14505261.916 8       468.000         182.000         173.000                  
G10  20908755.104    20908754.696    20908757.195                   -20757857.260 9 -20757857.261 9                 -16174954.158 9       658.000        1056.000         954.000                  
G12  24457303.867    24457303.638    24457303.372                    -2188442.231 8  -2188442.237 6                  -1705280.745 7       135.000          50.000          68.000                  
G14  24492096.732    24492094.987    24492096.877                     -189277.553 7   -189277.566 6                   -147479.497 6        69.000          21.000          16.000                  
G17  23134893.312    23134892.226    23134892.450                    -9491817.651 8  -9491817.651 8                  -7396223.372 8       233.000         126.000         239.000                  
G21  21437597.116    21437595.753    21437595.952                   -18228020.295 9 -18228020.295 8                 -14203652.013 8       533.000         268.000         154.000                  
G22  23626451.112    23626449.841    23626450.246                    -4862275.679 8  -4862275.698 6                  -3788788.663 6       190.000          35.000          43.000                  
G23  24045538.828    24045539.437    24045540.529                    -1908235.897 8  -1908235.881 6                  -1486937.647 6       105.000          28.000          29.000                  
G24  21627418.825    21627418.594    21627421.487                    -8500190.789 8  -8500190.791 8                  -6623529.215 9       265.000         179.000         847.000                  
G28  25677994.093    25677994.549    25677999.009                     3469827.744 7   3469827.741 6                   2703824.120 6        56.000          19.000          18.000                  
G32  20720336.783    20720336.544    20720339.036                   -21924306.117 9 -21924306.118 9                 -17083871.227 9       808.000        1649.000        1548.000                  
> 2024 10 31 03 33 50.0000000  0 11
G02  21708032.221    21708031.320    21708029.152                   -18449578.188 8 -18449578.191 8                 -14376295.227 8       470.000         182.000         184.000                  
G10  20917452.869    20917452.292    20917454.882                   -20712151.242 9 -20712151.242 9                 -16139339.113 9       680.000        1111.000         975.000                  
G12  24390147.208    24390146.474    24390146.865                    -2541352.982 8  -2541352.993 7                  -1980276.064 7       149.000          52.000          72.000                  
G14  24489576.589    24489572.394    24489576.566                     -202528.592 7   -202528.608 6                   -157805.018 6        65.000          22.000          19.000                  
G17  23096119.394    23096118.777    23096118.504                    -9695574.936 8  -9695574.937 8                  -7554995.274 8       241.000         131.000         234.000                  
G21  21487154.977    21487153.843    21487153.986                   -17967592.103 9 -17967592.106 8                 -14000720.993 8       525.000         262.000         146.000                  
G22  23602129.778    23602127.398    23602128.523                    -4990089.053 8  -4990089.062 6                  -3888383.518 6       193.000          38.000          36.000                  
G23  24031564.059    24031563.116    24031564.879                    -1981678.173 8  -1981678.186 6                  -1544165.460 6       114.000          27.000          24.000                  
G24  21571948.020    21571947.541    21571950.439                    -8791693.286 8  -8791693.290 8                  -6850674.020 9       284.000         200.000         867.000                  
G28  25710558.199    25710559.223    25710562.290                     3640952.082 7   3640952.077 6                   2837223.608 6        57.000          19.000          14.000                  
G32  20748024.989    20748024.689    20748027.259                   -21778803.484 9 -21778803.485 9                 -16970492.588 9       786.000        1556.000        1491.000                  
> 2024 10 31 03 34  0.0000000  0 12
G02  21740390.962    21740389.668    21740387.755                   -18279533.225 8 -18279533.226 8                 -14243792.732 8       465.000         178.000         179.000                  
G10  20926805.346    20926804.873    20926807.361                   -20663003.299 9 -20663003.299 9                 -16101042.040 9       686.000        1141.000        1017.000                  
G12  24323101.800    24323101.060    24323101.383                    -2893678.817 8  -2893678.822 7                  -2254815.609 7       156.000          55.000          82.000                  
G14  24487550.071    24487546.721    24487551.207                     -213173.996 7   -213173.987 6                   -166100.327 6        68.000          23.000          21.000                  
G17  23058027.781    23058027.339    23058027.280                    -9895746.354 8  -9895746.356 8                  -7710972.992 8       252.000         134.000         257.000                  
G19  24698277.850    24698276.930    24698292.595                     -341384.857 8   -341384.855 6                   -266015.464 6       116.000          24.000          16.000                  
G21  21537502.518    21537501.513    21537501.625                   -17703013.585 9 -17703013.585 8                 -13794555.944 8       522.000         257.000         150.000                  
G22  23578451.800    23578450.100    23578450.812                    -5114514.883 8  -5114514.889 6                  -3985338.698 6       192.000          34.000          50.000                  
G23  24017829.802    24017829.341    24017831.515                    -2053853.967 8  -2053853.957 6                  -1600406.350 6       115.000          24.000          28.000                  
G24  21516891.593    21516891.249    21516894.012                    -9081016.438 8  -9081016.438 8                  -7076120.632 9       304.000         229.000         942.000                  
G28  25743162.362    25743159.914    25743161.420                     3812270.922 7   3812270.924 6                   2970775.675 6        59.000          20.000          14.000                  
G32  20776302.147    20776301.846    20776304.413                   -21630206.439 9 -21630206.440 9                 -16854702.720 9       807.000        1629.000        1487.000                  
> 2024 10 31 03 34 10.0000000  0 12
G02  21773612.408    21773611.326    21773609.318                   -18104953.313 8 -18104953.312 8                 -14107756.503 8       456.000         165.000         174.000                  
G10  20936816.087    20936815.570    20936818.078                   -20610396.637 9 -20610396.636 9                 -16060049.862 9       689.000        1155.000        1034.000                  
G12  24256183.005    24256183.288    24256183.504                    -3245336.270 8  -3245336.276 7                  -2528834.356 7       169.000          63.000          92.000                  
G14  24486025.845    24486022.475    24486026.622                     -221185.055 7   -221185.054 6                   -172342.601 6        67.000          19.000          15.000                  
G17  23020633.383    23020633.050    23020633.009                   -10092254.019 8 -10092254.021 8                  -7864095.816 8       256.000         140.000         268.000                  
G19  24631637.154    24631636.138    24631642.937                     -691581.290 8   -691581.276 6                   -538893.890 6       124.000          25.000          19.000                  
G21  21588635.452    21588634.121    21588634.291                   -17434309.524 9 -17434309.524 8                 -13585176.196 8       518.000         249.000         136.000                  
G22  23555429.342    23555427.562    23555428.200                    -5235500.416 8  -5235500.430 6                  -4079613.124 6       196.000          32.000          44.000                  
G23  24004342.583    24004341.928    24004343.387                    -2124730.273 8  -2124730.270 6                  -1655634.623 6       117.000          27.000          30.000                  
G24  21462264.607    21462264.525    21462267.190                    -9368083.019 8  -9368083.021 8                  -7299808.881 9       323.000         245.000        1022.000                  
G28  25775802.189    25775802.723    25775803.765                     3983807.101 7   3983807.070 6                   3104486.230 6        58.000          20.000          19.000                  
G32  20805169.583    20805169.374    20805171.855                   -21478506.947 9 -21478506.948 9                 -16736495.336 9       828.000        1742.000        1449.000                  
> 2024 10 31 03 34 20.0000000  0 12
G02  21807684.136    21807683.062    21807681.037                   -17925905.172 8 -17925905.177 8                 -13968238.522 8       459.000         172.000         185.000                  
G10  20947476.140    20947475.572    20947478.154                   -20554377.956 9 -20554377.956 9                 -16016398.967 9       696.000        1170.000        1050.000                  
G12  24189396.229    24189395.797    24189396.052                    -3596304.445 8  -3596304.445 7                  -2802315.975 8       178.000          74.000         104.000                  
G14  24484996.574    24484992.464    24484997.493                     -226597.559 7   -226597.560 6                   -176560.065 6        71.000          20.000          25.000                  
G17  22983939.194    22983938.592    22983938.647                   -10285084.077 8 -10285084.081 8                  -8014353.017 8       269.000         157.000         286.000                  
G19  24565282.706    24565281.909    24565303.192                    -1040272.825 8  -1040272.835 6                   -810603.397 6       129.000          21.000          17.000                  
G21  21640536.104    21640535.064    21640535.495                   -17161568.157 9 -17161568.157 8                 -13372650.508 8       515.000         246.000         137.000                  
G22  23533058.839    23533057.294    23533058.108                    -5353056.731 8  -5353056.728 6                  -4171215.421 6       200.000          38.000          49.000                  
G23  23991097.128    23991095.986    23991097.918                    -2194337.293 8  -2194337.284 6                  -1709873.890 6       122.000          31.000          27.000                  
G24  21408069.331    21408069.576    21408072.339                    -9652878.761 8  -9652878.761 8                  -7521727.645 9       319.000         263.000        1106.000                  
G28  25808479.082    25808478.729    25808480.949                     4155520.696 7   4155520.696 6                   3238333.812 6        61.000          18.000          19.000                  
G32  20834616.886    20834616.686    20834619.054                   -21323760.426 9 -21323760.427 9                 -16615913.670 9       839.000        1790.000        1406.000                  
> 2024 10 31 03 34 30.0000000  0 12
G02  21842602.709    21842601.419    21842599.763                   -17742407.838 8 -17742407.840 8                 -13825253.652 8       462.000         167.000         194.000                  
G10  20958785.519    20958785.106    20958787.696                   -20494945.930 9 -20494945.929 9                 -15970088.314 9       694.000        1164.000        1064.000                  
G12  24122754.015    24122753.302    24122753.306                    -3946513.450 8  -3946513.452 7                  -3075206.048 8       190.000          87.000         111.000                  
G14  24484462.456    24484459.453    24484463.811                     -229398.619 7   -229398.625 6                   -178742.708 6        73.000          24.000          25.000                  
G17  22947956.639    22947955.997    22947955.986                   -10474174.517 8 -10474174.519 8                  -8161696.224 8       280.000         166.000         302.000                  
G19  24499231.404    24499229.542    24499233.851                    -1387382.735 8  -1387382.715 6                  -1081076.329 6       131.000          21.000          19.000                  
G21  21693198.263    21693196.869    21693196.932                   -16884829.031 9 -16884829.032 8                 -13157009.676 8       508.000         240.000         126.000                  
G22  23511347.826    23511346.656    23511346.938                    -5467146.790 8  -5467146.804 6                  -4260116.729 6       200.000          39.000          42.000                  
G23  23978095.610    23978095.033    23978096.833                    -2262656.579 8  -2262656.564 6                  -1763109.661 6       126.000          26.000          31.000                  
G24  21354318.913    21354318.791    21354321.663                    -9935340.683 8  -9935340.685 8                  -7741827.850 9       315.000         251.000        1177.000                  
G28  25841191.397    25841189.400    25841190.198                     4327420.518 7   4327420.547 6                   3372325.030 6        58.000          20.000          17.000                  
G32  20864642.820    20864642.572    20864644.797                   -21165973.844 9 -21165973.846 9                 -16492963.119 9       873.000        1911.000        1345.000                  
> 2024 10 31 03 34 40.0000000  0 12
G02  21878359.970    21878358.795    21878356.953                   -17554501.658 8 -17554501.659 8                 -13678833.302 8       453.000         164.000         203.000                  
G10  20970740.837    20970740.434    20970743.084                   -20432120.367 9 -20432120.368 9                 -15921133.353 9       684.000        1139.000        1034.000                  
G12  24056264.751    24056264.490    24056264.682                    -4295913.484 8  -4295913.492 7                  -3347465.748 8       201.000          95.000         117.000                  
G14  24484424.674    24484422.715    24484425.578                     -229596.480 7   -229596.490 6                   -178896.836 6        81.000          24.000          22.000                  
G17  22912693.083    22912692.610    22912692.543                   -10659484.288 8 -10659484.289 8                  -8306093.426 8       283.000         175.000         305.000                  
G19  24433489.212    24433488.188    24433487.195                    -1732855.160 8  -1732855.161 6                  -1350275.710 6       134.000          24.000          26.000                  
G21  21746609.158    21746607.813    21746607.898                   -16604153.209 8 -16604153.210 8                 -12938301.301 8       492.000         229.000         126.000                  
G22  23490300.107    23490298.461    23490298.162                    -5577755.177 8  -5577755.169 6                  -4346305.095 6       207.000          43.000          40.000                  
G23  23965339.728    23965339.357    23965340.411                    -2329690.391 8  -2329690.410 6                  -1815343.818 6       128.000          26.000          27.000                  
G24  21301020.631    21301020.260    21301023.172                   -10215426.345 8 -10215426.345 8                  -7960076.424 9       320.000         253.000        1170.000                  
G28  25873937.734    25873934.142    25873938.416                     4499494.862 7   4499494.845 6                   3506445.063 6        57.000          21.000          19.000                  
G32  20895241.912    20895241.587    20895243.820                   -21005175.168 9 -21005175.169 9                 -16367665.485 9       892.000        2000.000        1272.000                  
> 2024 10 31 03 34 50.0000000  0 12
G02  21914947.114    21914946.074    21914944.397                   -17362234.844 8 -17362234.846 8                 -13529015.077 8       446.000         163.000         216.000                  
G10  20983336.797    20983336.286    20983338.919                   -20365928.580 9 -20365928.580 9                 -15869555.353 9       669.000        1081.000        1059.000                  
G12  23989938.425    23989937.847    23989938.158                    -4644461.472 8  -4644461.471 8                  -3619061.511 8       212.000         110.000         138.000                  
G14  24484879.524    24484877.949    24484880.081                     -227207.057 7   -227207.053 6                   -177035.024 6        83.000          15.000          26.000                  
G17  22878156.186    22878155.239    22878155.106                   -10840980.084 8 -10840980.086 8                  -8447518.692 8       290.000         186.000         320.000                  
G19  24368069.010    24368067.472    24368066.639                    -2076640.895 8  -2076640.908 6                  -1618160.711 6       136.000          28.000          26.000                  
G21  21800756.131    21800754.612    21800754.868                   -16319608.986 8 -16319608.989 8                 -12716578.583 8       467.000         206.000         125.000                  
G22  23469915.777    23469914.990    23469914.488                    -5684873.564 8  -5684873.560 6                  -4429773.970 6       208.000          33.000          49.000                  
G23  23952826.401    23952826.334    23952827.188                    -2395448.213 8  -2395448.204 6                  -1866583.709 6       131.000          33.000          29.000                  
G24  21248180.931    21248180.775    21248183.582                   -10493100.207 8 -10493100.210 8                  -8176445.674 9       319.000         260.000        1212.000                  
G28  25906709.567    25906709.093    25906715.057                     4671725.116 7   4671725.113 6                   3640673.104 6        59.000          23.000          16.000                  
G32  20926407.192    20926407.030    20926409.265                   -20841399.576 9 -20841399.577 9                 -16240048.176 9       888.000        1994.000        1285.000                  
> 2024 10 31 03 35  0.0000000  0 12
G02  21952359.880    21952358.618    21952357.454                   -17165630.275 8 -17165630.278 8                 -13375816.734 8       430.000         153.000         238.000                  
G10  20996572.750    20996572.313    20996575.053                   -20296372.443 9 -20296372.443 9                 -15815355.784 9       652.000        1029.000        1110.000                  
G12  23923786.600    23923786.795    23923787.496                    -4992087.798 8  -4992087.800 8                  -3889939.108 8       226.000         118.000         160.000                  
G14  24485830.070    24485827.287    24485830.561                     -222220.441 7   -222220.413 6                   -173149.328 6        88.000          25.000          28.000                  
G17  22844355.079    22844354.541    22844354.509                   -11018603.552 8 -11018603.555 8                  -8585926.592 8       291.000         183.000         354.000                  
G19  24302984.169    24302982.927    24302981.991                    -2418664.290 8  -2418664.278 6                  -1884672.284 6       142.000          28.000          33.000                  
G21  21855630.923    21855629.709    21855629.880                   -16031238.957 8 -16031238.953 8                 -12491874.694 8       446.000         189.000         134.000                  
G22  23450202.584    23450201.013    23450201.703                    -5788468.725 8  -5788468.729 6                  -4510497.403 6       216.000          43.000          49.000                  
G23  23940559.064    23940558.959    23940560.283                    -2459913.316 8  -2459913.313 6                  -1916816.253 6       135.000          29.000          39.000                  
G24  21195811.839    21195811.633    21195814.656                   -10768300.750 8 -10768300.751 8                  -8390887.665 9       323.000         253.000        1296.000                  
G28  25939516.915    25939514.243    25939519.384                     4844118.737 7   4844118.731 6                   3775042.736 6        59.000          20.000          19.000                  
G32  20958137.509    20958137.167    20958139.490                   -20674656.577 9 -20674656.579 9                 -16110118.596 9       892.000        2005.000        1354.000                  
> 2024 10 31 03 35 10.0000000  0 12
G02  21990585.056    21990584.005    21990582.987                   -16964754.817 8 -16964754.821 8                 -13219290.465 8       428.000         140.000         269.000                  
G10  21010440.379    21010440.049    21010442.657                   -20223497.233 9 -20223497.232 9                 -15758569.924 9       631.000         969.000        1095.000                  
G12  23857816.698    23857816.302    23857816.517                    -5338765.208 8  -5338765.204 8                  -4160077.296 8       234.000         126.000         175.000                  
G14  24487266.840    24487265.003    24487265.761                     -214670.496 7   -214670.534 6                   -167266.345 6        92.000          19.000          30.000                  
G17  22811294.487    22811293.685    22811293.649                   -11192339.679 8 -11192339.679 8                  -8721305.439 8       298.000         193.000         356.000                  
G19  24238240.048    24238238.946    24238239.055                    -2758893.515 8  -2758893.519 6                  -2149786.118 6       140.000          30.000          36.000                  
G21  21911217.464    21911216.311    21911216.842                   -15739129.028 8 -15739129.029 8                 -12264256.594 8       430.000         172.000         135.000                  
G22  23431157.079    23431156.140    23431156.703                    -5888550.951 8  -5888550.957 6                  -4588483.538 7       228.000          46.000          56.000                  
G23  23928532.502    23928532.305    23928533.696                    -2523112.144 8  -2523112.152 6                  -1966062.125 6       138.000          30.000          32.000                  
G24  21143917.323    21143916.760    21143919.847                   -11041009.216 8 -11041009.218 8                  -8603387.773 9       327.000         257.000        1287.000                  
G28  25972347.588    25972343.774    25972347.526                     5016640.503 7   5016640.492 6                   3909513.133 6        58.000          20.000          19.000                  
G32  20990422.281    20990421.979    20990424.312                   -20504998.816 9 -20504998.817 9                 -15977917.769 9       889.000        2006.000        1366.000                  
> 2024 10 31 03 35 20.0000000  0 12
G02  22029619.383    22029618.305    22029616.969                   -16759628.709 8 -16759628.713 8                 -13059451.989 8       416.000         145.000         283.000                  
G10  21024939.971    21024939.549    21024942.256                   -20147301.583 9 -20147301.583 9                 -15699196.707 9       618.000         936.000        1120.000                  
G12  23792040.827    23792040.701    23792040.625                    -5684419.051 8  -5684419.051 8                  -4429417.903 8       245.000         150.000         184.000                  
G14  24489192.472    24489192.124    24489192.957                     -204543.909 7   -204543.913 6                   -159375.430 6        98.000          23.000          28.000                  
G17  22778984.859    22778984.312    22778984.081                   -11362126.834 8 -11362126.837 8                  -8853607.125 8       302.000         199.000         356.000                  
G19  24173852.836    24173851.912    24173852.326                    -3097247.870 8  -3097247.849 6                  -2413438.991 6       144.000          25.000          42.000                  
G21  21967508.592    21967507.275    21967507.767                   -15443318.178 8 -15443318.180 8                 -12033754.686 8       406.000         157.000         155.000                  
G22  23412787.798    23412786.376    23412787.196                    -5985084.122 8  -5985084.117 6                  -4663704.201 7       231.000          45.000          57.000                  
G23  23916751.297    23916750.572    23916752.263                    -2585024.019 8  -2585024.014 6                  -2014305.173 6       142.000          34.000          35.000                  
G24  21092509.343    21092508.824    21092511.821                   -11311159.764 8 -11311159.765 8                  -8813894.690 9       339.000         277.000        1283.000                  
G28  26005202.749    26005201.462    26005205.878                     5189302.348 7   5189302.342 6                   4044088.106 6        56.000          22.000          21.000                  
G32  21023260.536    21023260.396    21023262.713                   -20332432.075 9 -20332432.076 9                 -15843450.195 9       895.000        2004.000        1389.000                  
> 2024 10 31 03 35 30.0000000  0 12
G02  22069452.217    22069451.049    22069450.042                   -16550305.043 8 -16550305.045 8                 -12896342.698 8       399.000         136.000         272.000                  
G10  21040065.730    21040065.052    21040067.757                   -20067816.665 9 -20067816.664 9                 -15637260.435 9       613.000         910.000        1109.000                  
G12  23726468.152    23726467.716    23726467.815                    -6029006.283 8  -6029006.282 8                  -4697927.400 8       256.000         160.000         197.000                  
G14  24491605.495    24491605.136    24491606.802                     -191860.657 8   -191860.671 6                   -149492.397 6       102.000          25.000          33.000                  
G17  22747432.713    22747431.773    22747431.474                   -11527936.413 8 -11527936.415 8                  -8982809.437 8       307.000         203.000         355.000                  
G19  24109833.101    24109831.773    24109831.793                    -3433679.120 8  -3433679.112 6                  -2675593.264 6       145.000          34.000          40.000                  
G21  22024490.026    22024488.716    22024489.508                   -15143877.664 8 -15143877.663 8                 -11800424.445 8       388.000         143.000         150.000                  
G22  23395094.086    23395092.906    23395093.073                    -6078064.929 8  -6078064.944 6                  -4736156.797 7       234.000          46.000          60.000                  
G23  23905212.276    23905211.573    23905213.890                    -2645660.477 8  -2645660.502 6                  -2061554.354 6       145.000          32.000          39.000                  
G24  21041594.698    21041594.282    21041597.006                   -11578718.657 8 -11578718.659 8                  -9022382.138 9       361.000         310.000        1248.000                  
G28  26038083.249    26038080.567    26038085.538                     5362084.290 7   5362084.281 6                   4178753.481 6        55.000          22.000          16.000                  
G32  21056645.503    21056645.157    21056647.431                   -20156994.462 9 -20156994.463 9                 -15706745.593 9       901.000        2038.000        1407.000                  
> 2024 10 31 03 35 40.0000000  0 12
G02  22110075.603    22110074.319    22110072.998                   -16336828.710 8 -16336828.712 8                 -12729997.583 8       390.000         126.000         267.000                  
G10  21055812.493    21055812.179    21055814.726                   -19985065.298 9 -19985065.298 9                 -15572778.873 9       608.000         903.000        1063.000                  
G12  23661107.961    23661107.843    23661107.991                    -6372474.608 8  -6372474.610 8                  -4965565.001 8       270.000         168.000         215.000                  
G14  24494504.705    24494502.791    24494504.522                     -176631.891 8   -176631.905 6                   -137625.924 6       109.000          23.000          36.000                  
G17  22716643.695    22716643.287    22716643.061                   -11689731.486 8 -11689731.487 8                  -9108883.530 8       306.000         202.000         355.000                  
G19  24046189.240    24046187.778    24046186.361                    -3768130.036 8  -3768130.050 6                  -2936204.376 6       152.000          31.000          44.000                  
G21  22082150.928    22082149.243    22082149.881                   -14840870.213 8 -14840870.215 8                 -11564314.772 8       380.000         132.000         145.000                  
G22  23378078.667    23378077.146    23378077.967                    -6167481.782 8  -6167481.790 7                  -4805832.352 7       239.000          51.000          62.000                  
G23  23893916.123    23893915.105    23893918.102                    -2705024.197 8  -2705024.198 6                  -2107811.845 6       152.000          28.000          39.000                  
G24  20991181.165    20991180.912    20991183.612                   -11843643.190 8 -11843643.191 8                  -9228816.828 9       386.000         359.000        1186.000                  
G28  26070982.760    26070981.689    26070985.404                     5534975.302 7   5534975.287 6                   4313489.575 6        55.000          17.000          18.000                  
G32  21090570.846    21090570.521    21090572.858                   -19978715.430 9 -19978715.430 9                 -15567826.911 9       878.000        1927.000        1442.000                  
> 2024 10 31 03 35 50.0000000  0 12
G02  22151484.230    22151483.034    22151481.966                   -16119224.401 8 -16119224.403 8                 -12560435.904 8       391.000         124.000         257.000                  
G10  21072180.848    21072180.342    21072183.079                   -19899049.779 9 -19899049.779 9                 -15505753.815 9       610.000         893.000        1001.000                  
G12  23595975.202    23595974.842    23595974.992                    -6714750.320 8  -6714750.325 8                  -5232273.289 8       278.000         185.000         229.000                  
G14  24497889.141    24497887.223    24497889.975                     -158848.108 8   -158848.112 6                   -123768.449 6       116.000          28.000          37.000                  
G17  22686629.685    22686629.645    22686629.220                   -11847455.091 8 -11847455.092 8                  -9231785.041 8       311.000         208.000         342.000                  
G19  23982937.182    23982936.028    23982934.715                    -4100522.292 8  -4100522.309 6                  -3195211.275 6       161.000          30.000          41.000                  
G21  22140481.807    22140480.628    22140481.168                   -14534337.621 8 -14534337.623 8                 -11325458.249 8       378.000         140.000         139.000                  
G22  23361747.702    23361746.396    23361746.547                    -6253302.807 8  -6253302.808 6                  -4872705.902 7       247.000          49.000          64.000                  
G23  23882865.725    23882864.842    23882866.551                    -2763096.944 8  -2763096.945 6                  -2153063.345 6       155.000          32.000          36.000                  
G24  20941281.021    20941280.984    20941283.565                   -12105869.776 8 -12105869.778 8                  -9433149.215 9       419.000         428.000        1127.000                  
G28  26103906.050    26103904.074    26103904.058                     5707985.546 7   5707985.548 6                   4448307.169 6        55.000          21.000          21.000                  
G32  21125035.186    21125034.863    21125037.332                   -19797603.601 9 -19797603.603 9                 -15426700.832 9       827.000        1718.000        1407.000                  
> 2024 10 31 03 36  0.0000000  0 12
G02  22193664.346    22193663.226    22193662.124                   -15897567.456 8 -15897567.461 8                 -12387716.260 8       394.000         123.000         243.000                  
G10  21089160.020    21089159.621    21089162.289                   -19809823.194 9 -19809823.193 9                 -15436226.629 9       609.000         896.000         926.000                  
G12  23531073.675    23531073.379    23531073.544                    -7055809.684 8  -7055809.686 8                  -5498033.772 8       290.000         194.000         226.000                  
G14  24501750.464    24501749.753    24501752.021                     -138550.802 8   -138550.822 6                   -107952.405 6       122.000          23.000          30.000                  
G17  22657392.258    22657391.572    22657391.395                   -12001101.277 8 -12001101.279 8                  -9351509.354 8       310.000         212.000         315.000                  
G19  23920082.257    23920080.978    23920080.372                    -4430827.982 8  -4430827.980 6                  -3452592.316 6       165.000          30.000          44.000                  
G21  22199466.485    22199464.852    22199465.681                   -14224372.231 8 -14224372.230 8                 -11083926.815 8       370.000         131.000         126.000                  
G22  23346096.992    23346095.428    23346096.402                    -6335547.363 8  -6335547.347 7                  -4936792.576 7       251.000          53.000          68.000                  
G23  23872054.033    23872053.373    23872055.497                    -2819910.902 8  -2819910.904 6                  -2197333.950 6       156.000          33.000          40.000                  
G24  20891896.963    20891896.906    20891899.370                   -12365385.110 8 -12365385.112 8                  -9635368.937 9       451.000         500.000        1037.000                  
G28  26136842.955    26136841.974    26136842.370                     5881074.907 7   5881074.886 6                   4583182.240 6        58.000          22.000          19.000                  
G32  21160027.279    21160027.065    21160029.585                   -19613718.236 9 -19613718.237 9                 -15283413.559 9       785.000        1556.000        1303.000                  
> 2024 10 31 03 36 10.0000000  0 12
G02  22236612.313    22236611.030    22236610.080                   -15671874.059 8 -15671874.060 8                 -12211851.301 8       388.000         119.000         245.000                  
G10  21106751.719    21106751.211    21106753.948                   -19717378.969 9 -19717378.968 9                 -15364192.187 9       600.000         886.000         911.000                  
G12  23466419.640    23466419.273    23466419.611                    -7395568.474 8  -7395568.476 8                  -5762780.839 8       295.000         206.000         241.000                  
G14  24506095.440    24506094.210    24506095.646                     -115721.983 8   -115721.988 6                    -90163.754 6       127.000          27.000          28.000                  
G17  22628942.163    22628941.984    22628941.768                   -12150604.820 8 -12150604.819 8                  -9468005.639 8       312.000         209.000         313.000                  
G19  23857641.028    23857638.973    23857638.994                    -4758958.647 8  -4758958.650 6                  -3708278.548 6       171.000          35.000          38.000                  
G21  22259097.992    22259096.805    22259097.599                   -13911006.434 8 -13911006.434 8                 -10839745.732 8       357.000         121.000         109.000                  
G22  23331134.423    23331132.784    23331133.703                    -6414175.493 8  -6414175.497 7                  -4998061.298 7       248.000          53.000          57.000                  
G23  23861487.615    23861486.771    23861488.382                    -2875438.360 8  -2875438.349 6                  -2240602.167 6       159.000          35.000          34.000                  
G24  20843043.091    20843042.642    20843045.079                   -12622115.934 8 -12622115.937 9                  -9835418.915 9       478.000         557.000        1008.000                  
G28  26169802.651    26169798.336    26169802.305                     6054263.475 7   6054263.503 6                   4718134.710 6        55.000          19.000          19.000                  
G32  21195547.464    21195547.156    21195549.702                   -19427058.700 9 -19427058.701 9                 -15137964.590 9       760.000        1447.000        1236.000                  
> 2024 10 31 03 36 20.0000000  0 12
G02  22280313.826    22280312.627    22280311.578                   -15442221.334 8 -15442221.334 8                 -12032901.170 8       386.000         122.000         228.000                  
G10  21124945.286    21124944.812    21124947.577                   -19621771.307 9 -19621771.307 9                 -15289692.731 9       595.000         869.000         894.000                  
G12  23402017.768    23402017.568    23402017.482                    -7734002.413 8  -7734002.415 8                  -6026495.559 8       296.000         207.000         250.000                  
G14  24510913.417    24510912.771    24510913.277                      -90404.187 8    -90404.192 6                    -70435.654 6       121.000          24.000          27.000                  
G17  22601281.708    22601281.414    22601281.433                   -12295961.743 8 -12295961.743 8                  -9581270.849 8       308.000         206.000         320.000                  
G19  23795619.402    23795617.467    23795617.564                    -5084886.124 8  -5084886.093 6                  -3962248.054 6       178.000          35.000          43.000                  
G21  22319359.310    22319357.801    22319358.165                   -13594333.071 8 -13594333.075 8                 -10592987.324 7       340.000         107.000          98.000                  
G22  23316856.100    23316854.966    23316855.350                    -6489208.102 8  -6489208.101 6                  -5056528.295 7       236.000          50.000          52.000                  
G23  23851160.086    23851159.254    23851160.924                    -2929711.671 8  -2929711.670 6                  -2282893.068 6       156.000          35.000          32.000                  
G24  20794721.086    20794720.835    20794723.136                   -12876049.298 8 -12876049.300 9                 -10033289.057 9       500.000         615.000         988.000                  
G28  26202767.533    26202766.860    26202769.836                     6227511.153 7   6227511.162 6                   4853133.567 6        55.000          23.000          21.000                  
G32  21231584.181    21231583.859    21231586.389                   -19237684.796 9 -19237684.797 9                 -14990400.525 9       735.000        1355.000        1165.000                  
> 2024 10 31 03 36 30.0000000  0 11
G02  22324764.808    22324763.426    22324762.421                   -15208630.582 8 -15208630.587 8                 -11850882.450 8       389.000         128.000         227.000                  
G10  21143741.054    21143740.560    21143743.393                   -19522998.539 9 -19522998.538 9                 -15212726.952 9       599.000         854.000         880.000                  
G12  23337883.404    23337883.018    23337883.292                    -8071030.499 8  -8071030.501 8                  -6289114.800 8       296.000         210.000         259.000                  
G14  24516207.151    24516206.421    24516207.727                      -62584.136 8    -62584.129 6                    -48757.682 6       125.000          28.000          24.000                  
G17  22574422.215    22574421.313    22574421.554                   -12437112.101 8 -12437112.102 8                  -9691258.159 8       305.000         196.000         324.000                  
G19  23734031.720    23734031.037    23734030.091                    -5408525.669 8  -5408525.652 6                  -4214434.674 6       185.000          39.000          43.000                  
G21  22380242.362    22380241.580    22380241.703                   -13274388.814 8 -13274388.813 8                 -10343680.178 7       324.000         101.000          88.000                  
G22  23303269.207    23303267.237    23303267.772                    -6560610.816 8  -6560610.814 6                  -5112166.892 7       236.000          42.000          58.000                  
G23  23841075.128    23841074.531    23841076.011                    -2982707.235 8  -2982707.243 6                  -2324188.331 6       155.000          35.000          33.000                  
G24  20746944.517    20746944.386    20746946.699                   -13127116.009 9 -13127116.012 9                 -10228925.443 9       530.000         668.000        1011.000                  
G32  21268136.513    21268136.415    21268138.924                   -19045600.287 9 -19045600.287 9                 -14840724.318 9       723.000        1326.000        1131.000                  
> 2024 10 31 03 36 40.0000000  0 11
G02  22369954.296    22369953.140    22369952.285                   -14971158.004 8 -14971158.003 8                 -11665838.923 8       390.000         125.000         238.000                  
G10  21163132.937    21163132.429    21163135.146                   -19421093.773 9 -19421093.772 9                 -15133320.665 9       592.000         853.000         876.000                  
G12  23274025.462    23274025.338    23274025.410                    -8406605.750 8  -8406605.754 8                  -6550601.963 8       305.000         218.000         295.000                  
G14  24521973.646    24521972.618    24521973.270                      -32283.767 8    -32283.774 6                    -25147.012 6       122.000          30.000          22.000                  
G17  22548366.970    22548366.368    22548366.680                   -12574031.663 8 -12574031.664 8                  -9797948.761 8       308.000         212.000         346.000                  
G19  23672890.703    23672889.205    23672889.504                    -5729826.774 8  -5729826.768 6                  -4464798.979 6       195.000          39.000          41.000                  
G21  22441734.567    22441733.373    22441733.633                   -12951244.780 8 -12951244.785 7                 -10091879.728 7       303.000          86.000          79.000                  
G22  23290371.823    23290370.955    23290372.006                    -6628383.773 8  -6628383.771 6                  -5164977.000 7       241.000          50.000          57.000                  
G23  23831230.504    23831231.228    23831232.677                    -3034435.722 8  -3034435.751 6                  -2364496.215 6       154.000          33.000          29.000                  
G24  20699720.208    20699720.117    20699722.496                   -13375281.406 9 -13375281.408 9                 -10422301.068 9       553.000         745.000        1111.000                  
G32  21305197.842    21305197.546    21305199.974                   -18850843.367 9 -18850843.367 9                 -14688965.702 9       731.000        1336.000        1094.000                  
> 2024 10 31 03 36 50.0000000  0 11
G02  22415871.019    22415870.049    22415869.478                   -14729862.148 8 -14729862.151 8                 -11477816.184 8       392.000         123.000         270.000                  
G10  21183114.040    21183113.565    21183116.217                   -19316092.332 9 -19316092.332 9                 -15051501.379 9       588.000         842.000         920.000                  
G12  23210452.933    23210452.365    23210452.711                    -8740682.682 8  -8740682.682 8                  -6810921.603 8       316.000         244.000         326.000                  
G14  24528207.716    24528205.968    24528206.896                         473.258 8       473.272 6                       377.900 6       118.000          27.000          24.000                  
G17  22523121.301    22523120.693    22523121.102                   -12706698.887 8 -12706698.889 8                  -9901325.870 8       312.000         208.000         392.000                  
G19  23612203.855    23612201.934    23612201.054                    -6048740.738 8  -6048740.756 6                  -4713302.916 6       204.000          50.000          50.000                  
G21  22503821.855    22503820.445    22503821.104                   -12624973.884 8 -12624973.881 7                  -9837642.750 7       280.000          78.000          82.000                  
G22  23278165.896    23278164.207    23278164.597                    -6692530.520 8  -6692530.533 6                  -5214961.558 7       239.000          49.000          61.000                  
G23  23821625.937    23821626.485    23821627.689                    -3084909.852 8  -3084909.846 6                  -2403826.676 6       152.000          34.000          33.000                  
G24  20653054.263    20653054.171    20653056.609                   -13620512.657 9 -13620512.659 9                 -10613390.347 9       590.000         833.000        1249.000                  
G32  21342759.618    21342759.469    21342761.783                   -18653454.329 9 -18653454.331 9                 -14535156.091 9       730.000        1350.000        1082.000                  
> 2024 10 31 03 37  0.0000000  0 11
G02  22462511.451    22462510.300    22462509.371                   -14484766.889 8 -14484766.888 8                 -11286832.877 8       386.000         127.000         273.000                  
G10  21203684.274    21203683.854    21203686.506                   -19207994.730 9 -19207994.729 9                 -14967269.495 9       583.000         826.000         941.000                  
G12  23147180.597    23147180.363    23147180.420                    -9073180.344 8  -9073180.345 8                  -7070010.660 8       327.000         260.000         356.000                  
G14  24534910.464    24534908.268    24534909.654                       35697.416 8     35697.417 6                     27825.097 6       109.000          23.000          20.000                  
G17  22498695.713    22498695.098    22498695.406                   -12835057.773 8 -12835057.774 8                 -10001345.889 8       320.000         220.000         414.000                  
G19  23551985.937    23551984.397    23551983.417                    -6365184.568 8  -6365184.548 6                  -4959882.223 7       211.000          45.000          58.000                  
G21  22566497.272    22566495.701    22566495.974                   -12295613.904 8 -12295613.909 7                  -9580998.661 7       265.000          69.000          80.000                  
G22  23266654.545    23266653.518    23266653.987                    -6753019.651 8  -6753019.684 6                  -5262096.054 7       236.000          44.000          61.000                  
G23  23812264.474    23812263.746    23812265.145                    -3134107.040 8  -3134107.058 6                  -2442162.099 6       153.000          30.000          31.000                  
G24  20606959.831    20606959.364    20606961.953                   -13862741.953 9 -13862741.956 9                 -10802140.451 9       615.000         905.000        1342.000                  
G32  21380821.281    21380821.262    21380823.442                   -18453438.321 9 -18453438.322 9                 -14379299.486 9       723.000        1310.000        1009.000                  
> 2024 10 31 03 37 10.0000000  0 11
G02  22509859.296    22509857.910    22509857.426                   -14235953.218 8 -14235953.219 8                 -11092952.139 8       377.000         120.000         274.000                  
G10  21224832.815    21224832.472    21224835.036                   -19096858.435 9 -19096858.435 9                 -14880669.800 9       576.000         804.000         962.000                  
G12  23084213.663    23084213.365    23084213.571                    -9404073.854 8  -9404073.854 8                  -7327849.739 8       337.000         269.000         380.000                  
G14  24542072.594    24542072.819    24542073.204                       73342.874 8     73342.849 6                     57159.061 6       104.000          21.000          19.000                  
G17  22475089.355    22475088.931    22475089.027                   -12959109.689 8 -12959109.691 8                 -10098009.832 8       335.000         238.000         430.000                  
G19  23492244.458    23492242.350    23492241.592                    -6679130.908 8  -6679130.906 6                  -5204515.570 7       217.000          50.000          63.000                  
G21  22629742.510    22629740.926    22629740.981                   -11963259.274 8 -11963259.275 7                  -9322021.110 7       257.000          67.000          80.000                  
G22  23255835.269    23255833.783    23255834.144                    -6809877.288 8  -6809877.277 6                  -5306400.821 7       235.000          47.000          62.000                  
G23  23803138.798    23803138.340    23803139.672                    -3182061.644 8  -3182061.637 6                  -2479529.350 6       153.000          36.000          39.000                  
G24  20561438.320    20561438.044    20561440.634                   -14101958.088 9 -14101958.089 9                 -10988542.643 9       631.000         969.000        1432.000                  
G32  21419371.411    21419371.104    21419373.284                   -18250857.206 9 -18250857.209 9                 -14221444.097 9       709.000        1259.000         970.000                  
> 2024 10 31 03 37 20.0000000  0 11
G02  22557909.756    22557908.651    22557908.232                   -13983443.912 8 -13983443.912 8                 -10896191.589 8       366.000         114.000         280.000                  
G10  21246559.896    21246559.359    21246561.996                   -18982682.889 9 -18982682.888 9                 -14791701.862 9       575.000         791.000         959.000                  
G12  23021567.846    23021567.643    23021567.830                    -9733279.508 8  -9733279.507 8                  -7584373.588 8       346.000         284.000         399.000                  
G14  24549699.540    24549699.084    24549700.765                      113421.573 8    113421.595 6                     88389.069 6       102.000          19.000          20.000                  
G17  22452313.413    22452313.029    22452313.197                   -13078798.522 8 -13078798.523 8                 -10191273.906 8       337.000         252.000         442.000                  
G19  23432993.429    23432991.506    23432990.763                    -6990493.820 8  -6990493.827 7                  -5447135.839 7       225.000          59.000          69.000                  
G21  22693550.480    22693548.862    22693550.248                   -11627945.783 8 -11627945.777 7                  -9060737.982 7       249.000          65.000          80.000                  
G22  23245712.666    23245711.298    23245712.452                    -6863071.677 8  -6863071.663 7                  -5347851.097 7       233.000          53.000          68.000                  
G23  23794254.483    23794254.053    23794255.324                    -3228749.305 8  -3228749.290 6                  -2515909.363 6       152.000          40.000          36.000                  
G24  20516503.494    20516503.236    20516505.965                   -14338091.640 9 -14338091.641 9                 -11172542.821 9       646.000        1027.000        1512.000                  
G32  21458408.759    21458408.474    21458410.642                   -18045714.602 9 -18045714.603 9                 -14061592.748 9       687.000        1181.000         931.000                  
> 2024 10 31 03 37 30.0000000  0 11
G02  22606652.169    22606650.409    22606650.180                   -13727301.940 8 -13727301.939 8                 -10696600.350 8       358.000         110.000         270.000                  
G10  21268857.698    21268857.216    21268859.821                   -18865507.376 9 -18865507.376 9                 -14700396.286 9       570.000         781.000         969.000                  
G12  22959251.955    22959251.463    22959251.602                   -10060753.005 8 -10060753.005 8                  -7839547.719 8       353.000         294.000         428.000                  
G14  24557785.363    24557783.703    24557784.946                      155905.232 7    155905.228 6                    121493.005 6        97.000          22.000          25.000                  
G17  22430370.745    22430370.137    22430370.421                   -13194108.839 8 -13194108.843 8                 -10281126.130 8       346.000         259.000         441.000                  
G19  23374243.175    23374241.441    23374240.739                    -7299227.415 8  -7299227.419 6                  -5687707.471 7       227.000          49.000          75.000                  
G21  22757907.207    22757905.506    22757906.842                   -11289748.656 8 -11289748.653 7                  -8797207.793 7       242.000          57.000          87.000                  
G22  23236285.496    23236284.369    23236285.110                    -6912611.528 8  -6912611.518 6                  -5386453.658 7       230.000          46.000          70.000                  
G23  23785608.464    23785608.196    23785609.174                    -3274185.280 8  -3274185.272 6                  -2551314.023 6       153.000          29.000          38.000                  
G24  20472160.995    20472160.796    20472163.478                   -14571112.886 9 -14571112.888 9                 -11354117.824 9       672.000        1106.000        1564.000                  
G32  21497925.326    21497924.967    21497927.208                   -17838053.761 9 -17838053.762 9                 -13899779.142 9       661.000        1100.000         892.000                  
> 2024 10 31 03 37 40.0000000  0 11
G02  22656075.633    22656074.248    22656073.431                   -13467580.620 8 -13467580.619 8                 -10494220.099 8       353.000         106.000         244.000                  
G10  21291720.982    21291720.257    21291722.852                   -18745361.401 9 -18745361.402 9                 -14606776.064 9       561.000         746.000         969.000                  
G12  22897275.964    22897275.301    22897275.478                   -10386439.403 8 -10386439.403 8                  -8093329.300 8       359.000         298.000         432.000                  
G14  24566324.438    24566322.985    24566324.656                      200775.577 7    200775.600 6                    156456.743 6        92.000          23.000          17.000                  
G17  22409265.687    22409265.185    22409265.322                   -13305015.817 8 -13305015.818 8                 -10367547.118 8       354.000         258.000         415.000                  
G19  23316004.067    23316002.401    23316001.954                    -7605274.969 8  -7605274.969 7                  -5926186.079 7       228.000          54.000          80.000                  
G21  22822800.121    22822798.971    22822799.831                   -10948733.290 8 -10948733.291 7                  -8531481.588 7       243.000          60.000          79.000                  
G22  23227554.566    23227552.873    23227553.242                    -6958495.992 8  -6958495.999 7                  -5422207.803 7       225.000          51.000          73.000                  
G23  23777199.158    23777198.890    23777200.235                    -3318374.833 8  -3318374.823 6                  -2585747.441 6       151.000          31.000          35.000                  
G24  20428418.386    20428418.252    20428420.802                   -14800982.097 9 -14800982.098 9                 -11533236.692 9       708.000        1212.000        1561.000                  
G32  21537914.615    21537914.543    21537916.715                   -17627907.768 9 -17627907.769 9                 -13736029.058 9       657.000        1079.000         876.000                  
> 2024 10 31 03 37 50.0000000  0 11
G02  22706174.243    22706173.060    22706172.356                   -13204308.591 8 -13204308.585 8                 -10289073.075 8       358.000         104.000         243.000                  
G10  21315148.052    21315147.532    21315150.254                   -18622249.934 9 -18622249.935 9                 -14510845.067 9       546.000         712.000        1005.000                  
G12  22835655.204    22835654.520    22835654.545                   -10710258.865 8 -10710258.864 8                  -8345656.114 8       360.000         307.000         446.000                  
G14  24575316.790    24575317.255    24575317.804                      248038.904 7    248038.920 6                    193285.290 6        89.000          20.000          22.000                  
G17  22389007.807    22389007.328    22389007.468                   -13411470.972 8 -13411470.975 8                 -10450499.103 8       356.000         273.000         444.000                  
G19  23258291.385    23258290.186    23258289.549                    -7908555.566 8  -7908555.568 7                  -6162508.656 7       227.000          57.000          98.000                  
G21  22888222.002    22888220.842    22888221.374                   -10604940.010 8 -10604940.007 7                  -8263590.787 7       237.000          58.000          88.000                  
G22  23219522.560    23219521.174    23219521.966                    -7000700.304 8  -7000700.292 6                  -5455094.194 7       227.000          42.000          82.000                  
G23  23769030.893    23769031.161    23769032.820                    -3361298.597 8  -3361298.601 6                  -2619194.574 6       147.000          36.000          36.000                  
G24  20385287.818    20385287.671    20385290.034                   -15027634.978 9 -15027634.979 9                 -11709849.328 9       734.000        1308.000        1576.000                  
G32  21578375.550    21578375.341    21578377.597                   -17415285.185 9 -17415285.188 9                 -13570349.158 9       658.000        1101.000         923.000                  
> 2024 10 31 03 38  0.0000000  0 11
G02  22756932.667    22756931.811    22756930.365                   -12937572.473 8 -12937572.476 8                 -10081226.795 8       362.000         104.000         230.000                  
G10  21339127.624    21339127.174    21339129.994                   -18496235.817 9 -18496235.817 9                 -14412652.266 9       529.000         689.000         997.000                  
G12  22774393.875    22774393.253    22774393.140                   -11032188.653 8 -11032188.654 8                  -8596510.476 8       362.000         310.000         455.000                  
G14  24584756.159    24584756.020    24584755.397                      297643.116 7    297643.134 6                    231937.859 6        88.000          20.000          16.000                  
G17  22369595.233    22369594.953    22369594.977                   -13513484.542 8 -13513484.545 8                 -10529990.173 8       357.000         278.000         426.000                  
G19  23201110.569    23201108.678    23201108.185                    -8209045.413 8  -8209045.414 7                  -6396656.583 8       230.000          54.000         108.000                  
G21  22954154.229    22954152.811    22954153.441                   -10258466.505 8 -10258466.515 7                  -7993611.492 7       233.000          51.000          77.000                  
G22  23212185.701    23212184.264    23212184.781                    -7039258.278 8  -7039258.287 6                  -5485139.308 7       229.000          45.000          79.000                  
G23  23761096.560    23761096.478    23761096.692                    -3402994.219 8  -3402994.208 6                  -2651684.574 6       145.000          30.000          37.000                  
G24  20342770.446    20342770.281    20342772.667                   -15251064.931 9 -15251064.933 9                 -11883950.588 9       753.000        1368.000        1572.000                  
G32  21619295.008    21619294.807    21619297.196                   -17200252.052 9 -17200252.053 9                 -13402790.901 9       652.000        1070.000         896.000                  
> 2024 10 31 03 38 10.0000000  0 11
G02  22808346.615    22808345.335    22808344.492                   -12667391.156 8 -12667391.157 8                  -9870695.961 8       367.000         109.000         221.000                  
G10  21363660.871    21363660.215    21363663.083                   -18367314.218 9 -18367314.217 9                 -14312193.895 9       523.000         669.000        1017.000                  
G12  22713509.134    22713508.805    22713508.997                   -11352137.654 8 -11352137.654 8                  -8845821.345 8       358.000         308.000         467.000                  
G14  24594645.776    24594643.537    24594645.767                      349603.759 7    349603.752 6                    272426.473 6        90.000          18.000          18.000                  
G17  22351038.551    22351038.266    22351038.343                   -13610999.253 8 -13610999.254 8                 -10605975.647 8       357.000         271.000         428.000                  
G19  23144477.330    23144475.538    23144475.573                    -8506653.179 8  -8506653.179 7                  -6628558.773 8       233.000          52.000         121.000                  
G21  23020589.303    23020588.864    23020589.593                    -9909342.478 8  -9909342.490 7                  -7721566.874 7       230.000          52.000          77.000                  
G22  23205548.131    23205547.032    23205548.119                    -7074136.206 8  -7074136.197 6                  -5512316.861 7       232.000          47.000          80.000                  
G23  23753401.337    23753401.511    23753402.332                    -3443432.453 8  -3443432.434 6                  -2683194.930 6       143.000          31.000          34.000                  
G24  20300880.821    20300880.460    20300882.883                   -15471197.610 9 -15471197.611 9                 -12055482.537 9       772.000        1448.000        1729.000                  
G32  21660673.642    21660673.223    21660675.608                   -16982806.500 9 -16982806.503 9                 -13233352.840 9       624.000         979.000         862.000                  
> 2024 10 31 03 38 20.0000000  0 11
G02  22860400.014    22860398.539    22860397.547                   -12393850.691 8 -12393850.696 8                  -9657547.583 8       368.000         114.000         215.000                  
G10  21388735.096    21388734.588    21388737.457                   -18235547.519 9 -18235547.519 9                 -14209518.566 9       521.000         651.000         975.000                  
G12  22653006.524    22653006.067    22653006.363                   -11670081.505 8 -11670081.507 8                  -9093569.752 8       355.000         298.000         491.000                  
G14  24604971.249    24604969.676    24604972.324                      403869.484 7    403869.487 6                    314711.502 6        90.000          23.000          17.000                  
G17  22333336.241    22333336.108    22333336.050                   -13704026.024 8 -13704026.028 8                 -10678464.057 8       354.000         274.000         433.000                  
G19  23088398.215    23088395.919    23088395.588                    -8801354.288 8  -8801354.286 7                  -6858196.011 8       240.000          57.000         124.000                  
G21  23087512.119    23087510.813    23087511.505                    -9557664.188 8  -9557664.190 6                  -7447531.919 7       229.000          49.000          80.000                  
G22  23199605.342    23199603.439    23199604.779                    -7105368.242 8  -7105368.242 6                  -5536653.544 7       234.000          40.000          85.000                  
G23  23745938.691    23745938.129    23745939.577                    -3482649.785 8  -3482649.785 6                  -2713753.862 6       147.000          28.000          38.000                  
G24  20259619.643    20259619.408    20259621.855                   -15688025.823 9 -15688025.824 9                 -12224439.573 9       786.000        1490.000        1808.000                  
G32  21702498.536    21702498.307    21702500.805                   -16763013.654 9 -16763013.656 9                 -13062085.711 9       600.000         899.000         787.000                  
> 2024 10 31 03 38 30.0000000  0 11
G02  22913088.545    22913087.513    22913086.102                   -12116969.098 8 -12116969.099 8                  -9441795.747 8       362.000         108.000         202.000                  
G10  21414352.052    21414351.485    21414354.285                   -18100929.901 9 -18100929.901 9                 -14104621.738 9       513.000         642.000         973.000                  
G12  22592903.105    22592902.747    22592902.940                   -11985927.083 8 -11985927.083 8                  -9339683.142 9       356.000         307.000         550.000                  
G14  24615738.576    24615737.373    24615739.790                      460456.452 7    460456.449 6                    358805.236 6        90.000          21.000          20.000                  
G17  22316498.921    22316498.201    22316498.473                   -13792508.257 8 -13792508.259 8                 -10747411.268 8       353.000         268.000         463.000                  
G19  23032889.012    23032887.199    23032886.786                    -9093056.007 8  -9093056.010 7                  -7085496.064 8       249.000          57.000         148.000                  
G21  23154915.769    23154913.846    23154915.239                    -9203459.476 8  -9203459.482 7                  -7171528.353 7       229.000          52.000          81.000                  
G22  23194362.509    23194360.823    23194361.364                    -7132920.467 8  -7132920.471 6                  -5558122.792 7       242.000          49.000          93.000                  
G23  23738713.373    23738713.760    23738715.386                    -3520615.281 8  -3520615.269 6                  -2743337.412 6       145.000          25.000          36.000                  
G24  20219001.640    20219001.553    20219003.943                   -15901474.225 9 -15901474.228 9                 -12390762.990 9       782.000        1489.000        2024.000                  
G32  21744770.949    21744770.857    21744773.226                   -16540870.268 9 -16540870.269 9                 -12888986.988 9       586.000         873.000         784.000                  
> 2024 10 31 03 38 40.0000000  0 11
G02  22966397.873    22966396.699    22966395.489                   -11836827.302 8 -11836827.302 8                  -9223503.501 8       352.000         102.000         199.000                  
G10  21440500.446    21440499.930    21440502.739                   -17963518.486 9 -17963518.485 9                 -13997547.926 9       507.000         615.000         948.000                  
G12  22533204.280    22533204.023    22533204.635                   -12299643.730 8 -12299643.732 8                  -9584137.626 9       360.000         303.000         576.000                  
G14  24626941.102    24626939.019    24626942.808                      519318.279 7    519318.279 6                    404671.467 6        92.000          20.000          13.000                  
G17  22300524.699    22300524.030    22300524.410                   -13876453.250 8 -13876453.254 8                 -10812823.044 8       356.000         272.000         468.000                  
G19  22977956.457    22977954.838    22977954.643                    -9381728.251 8  -9381728.261 7                  -7310435.476 8       258.000          65.000         157.000                  
G21  23222782.006    23222781.175    23222781.264                    -8846818.649 8  -8846818.640 6                  -6893626.496 7       226.000          45.000          79.000                  
G22  23189813.769    23189812.530    23189812.898                    -7156822.969 8  -7156822.964 7                  -5576748.206 7       247.000          55.000          87.000                  
G23  23731721.750    23731721.635    23731723.308                    -3557360.011 8  -3557360.000 6                  -2771969.628 6       145.000          33.000          33.000                  
G24  20179029.240    20179029.111    20179031.542                   -16111530.364 9 -16111530.366 9                 -12554443.085 9       766.000        1418.000        2173.000                  
G32  21787479.707    21787479.409    21787481.944                   -16316435.742 9 -16316435.744 9                 -12714102.961 9       576.000         827.000         800.000                  
> 2024 10 31 03 38 50.0000000  0 11
G02  23020321.926    23020320.300    23020319.138                   -11553455.914 8 -11553455.922 8                  -9002694.676 8       347.000         103.000         191.000                  
G10  21467179.408    21467178.793    21467181.724                   -17823320.189 8 -17823320.189 9                 -13888302.518 9       495.000         590.000         928.000                  
G12  22473926.787    22473926.505    22473926.810                   -12611150.075 8 -12611150.077 8                  -9826869.810 9       362.000         313.000         572.000                  
G14  24638574.916    24638574.184    24638575.558                      580458.655 7    580458.647 6                    452312.302 6        95.000          23.000          21.000                  
G17  22285421.998    22285421.333    22285421.794                   -13955818.588 8 -13955818.589 8                 -10874666.196 8       354.000         279.000         482.000                  
G19  22923615.986    22923613.924    22923613.454                    -9667290.652 8  -9667290.653 7                  -7532951.613 8       268.000          73.000         155.000                  
G21  23291105.045    23291102.691    23291104.538                    -8487781.205 8  -8487781.189 6                  -6613857.139 7       216.000          45.000          62.000                  
G22  23185963.905    23185962.098    23185963.220                    -7177055.670 8  -7177055.688 7                  -5592514.080 7       253.000          54.000          88.000                  
G23  23724965.550    23724964.929    23724967.398                    -3592865.029 8  -3592865.018 6                  -2799635.858 6       145.000          33.000          37.000                  
G24  20139714.266    20139714.121    20139716.657                   -16318131.686 9 -16318131.687 9                 -12715431.115 9       748.000        1342.000        2269.000                  
G32  21830622.366    21830622.157    21830624.899                   -16089719.095 9 -16089719.096 9                 -12537440.656 9       550.000         761.000         793.000                  
> 2024 10 31 03 39  0.0000000  0 11
G02  23074847.687    23074846.203    23074845.165                   -11266920.543 8 -11266920.545 7                  -8779420.384 8       339.000          96.000         193.000                  
G10  21494380.670    21494380.076    21494382.986                   -17680376.862 8 -17680376.863 9                 -13776918.125 9       485.000         570.000         897.000                  
G12  22415078.289    22415078.214    22415078.495                   -12920399.187 8 -12920399.190 8                 -10067843.115 9       370.000         323.000         554.000                  
G14  24650636.495    24650637.120    24650637.640                      643845.769 7    643845.738 6                    501704.847 6        97.000          26.000          19.000                  
G17  22271191.917    22271191.326    22271191.746                   -14030597.588 8 -14030597.591 8                 -10932935.419 8       349.000         269.000         496.000                  
G19  22869875.955    22869873.581    22869873.348                    -9949697.886 8  -9949697.882 7                  -7753009.189 8       280.000          76.000         156.000                  
G21  23359868.634    23359867.534    23359868.505                    -8126421.242 8  -8126421.238 6                  -6332278.010 7       206.000          42.000          54.000                  
G22  23182809.148    23182807.634    23182808.191                    -7193633.824 8  -7193633.826 7                  -5605432.109 7       261.000          54.000          88.000                  
G23  23718441.642    23718441.047    23718443.627                    -3627146.072 8  -3627146.073 6                  -2826348.307 6       147.000          35.000          30.000                  
G24  20101062.036    20101061.779    20101064.480                   -16521250.588 9 -16521250.589 9                 -12873705.570 9       730.000        1292.000        2376.000                  
G32  21874190.899    21874190.794    21874193.636                   -15860764.052 9 -15860764.055 9                 -12359034.150 9       521.000         679.000         751.000                  
> 2024 10 31 03 39 10.0000000  0 11
G02  23129964.654    23129963.499    23129962.710                   -10977277.778 8 -10977277.775 7                  -8553724.715 8       329.000          84.000         178.000                  
G10  21522097.866    21522097.345    21522100.343                   -17534721.292 8 -17534721.292 9                 -13663420.294 9       477.000         552.000         878.000                  
G12  22356670.765    22356670.362    22356670.657                   -13227334.626 8 -13227334.628 8                 -10307013.559 9       379.000         341.000         537.000                  
G14  24663122.476    24663122.540    24663121.277                      709457.170 7    709457.152 6                    552830.478 6       100.000          24.000          17.000                  
G17  22257837.380    22257836.624    22257837.091                   -14100776.011 8 -14100776.014 8                 -10987619.786 9       353.000         265.000         517.000                  
G19  22816746.121    22816744.013    22816743.310                   -10228895.202 8 -10228895.208 7                  -7970565.528 8       286.000          78.000         154.000                  
G21  23429063.775    23429061.902    23429062.797                    -7762803.390 8  -7762803.399 6                  -6048939.495 7       194.000          38.000          53.000                  
G22  23180348.200    23180347.259    23180348.009                    -7206564.627 8  -7206564.619 7                  -5615508.017 7       270.000          58.000          82.000                  
G23  23712149.734    23712149.367    23712152.020                    -3660209.568 8  -3660209.554 6                  -2852112.101 6       145.000          28.000          27.000                  
G24  20063079.206    20063079.045    20063081.921                   -16720850.568 9 -16720850.570 9                 -13029238.014 9       718.000        1246.000        2582.000                  
G32  21918179.130    21918178.740    21918181.702                   -15629605.064 8 -15629605.064 9                 -12178910.282 9       499.000         628.000         713.000                  
> 2024 10 31 03 39 20.0000000  0 11
G02  23185665.969    23185664.637    23185664.266                   -10684565.061 8 -10684565.062 7                  -8325636.918 8       315.000          90.000         181.000                  
G10  21550328.715    21550328.259    21550331.121                   -17386367.250 8 -17386367.250 9                 -13547819.760 9       466.000         533.000         858.000                  
G12  22298717.758    22298717.282    22298717.508                   -13531880.369 8 -13531880.369 8                 -10544321.914 9       388.000         355.000         556.000                  
G14  24676030.045    24676030.169    24676032.893                      777289.421 8    777289.418 6                    605686.892 6       101.000          29.000          20.000                  
G17  22245364.350    22245364.001    22245364.263                   -14166321.084 8 -14166321.084 8                 -11038693.818 9       354.000         276.000         552.000                  
G19  22764241.371    22764239.853    22764238.730                   -10504808.975 8 -10504808.975 7                  -8185563.252 8       290.000          85.000         167.000                  
G21  23498678.290    23498676.830    23498677.551                    -7396972.869 8  -7396972.881 6                  -5763876.782 6       183.000          34.000          44.000                  
G22  23178583.560    23178582.792    23178582.992                    -7215836.526 8  -7215836.536 7                  -5622732.756 7       275.000          58.000          76.000                  
G23  23706093.015    23706091.853    23706093.532                    -3692042.573 8  -3692042.568 6                  -2876917.040 6       143.000          33.000          38.000                  
G24  20025776.979    20025776.692    20025779.502                   -16916876.199 9 -16916876.200 9                 -13181985.251 9       723.000        1261.000        2815.000                  
G32  21962583.603    21962583.443    21962586.282                   -15396257.319 8 -15396257.321 9                 -11997080.884 9       478.000         572.000         693.000                  
> 2024 10 31 03 39 30.0000000  0 11
G02  23241936.896    23241935.586    23241935.057                   -10388859.897 8 -10388859.897 7                  -8095217.307 8       309.000          77.000         171.000                  
G10  21579062.894    21579062.224    21579065.140                   -17235368.742 8 -17235368.741 9                 -13430158.602 9       453.000         501.000         841.000                  
G12  22241225.812    22241225.684    22241225.890                   -13834000.731 8 -13834000.729 8                 -10779740.376 9       394.000         368.000         558.000                  
G14  24689353.434    24689352.382    24689352.473                      847298.267 8    847298.280 6                    660239.288 6       107.000          21.000          18.000                  
G17  22233772.022    22233771.203    22233771.626                   -14227241.154 8 -14227241.159 8                 -11086163.997 9       356.000         274.000         598.000                  
G19  22712367.961    22712366.228    22712365.432                   -10777405.761 8 -10777405.761 7                  -8397976.301 8       292.000          85.000         165.000                  
G21  23568698.893    23568697.096    23568696.663                    -7029014.604 8  -7029014.605 6                  -5477156.101 6       164.000          34.000          39.000                  
G22  23177510.287    23177508.819    23177509.339                    -7221479.107 8  -7221479.108 7                  -5627129.534 7       280.000          63.000          77.000                  
G23  23700263.478    23700263.643    23700265.724                    -3722672.307 8  -3722672.311 6                  -2900784.295 6       143.000          32.000          32.000                  
G24  19989157.500    19989157.295    19989160.111                   -17109312.503 9 -17109312.505 9                 -13331935.609 9       728.000        1282.000        2979.000                  
G32  22007394.251    22007394.015    22007396.939                   -15160776.090 8 -15160776.091 9                 -11813589.033 9       455.000         519.000         690.000                  
> 2024 10 31 03 39 40.0000000  0 11
G02  23298772.099    23298770.828    23298770.074                   -10090189.082 8 -10090189.089 7                  -7862486.792 8       303.000          81.000         158.000                  
G10  21608299.378    21608299.009    21608301.866                   -17081728.928 8 -17081728.928 8                 -13310439.282 9       440.000         480.000         848.000                  
G12  22184212.516    22184212.098    22184212.382                   -14133608.408 8 -14133608.409 8                 -11013200.885 9       401.000         384.000         564.000                  
G14  24703091.056    24703089.966    24703091.266                      919490.512 8    919490.516 6                    716493.183 6       109.000          21.000          21.000                  
G17  22223067.269    22223066.591    22223066.919                   -14283494.440 8 -14283494.443 8                 -11129997.676 9       358.000         281.000         607.000                  
G19  22661141.320    22661140.320    22661139.257                   -11046601.520 8 -11046601.521 7                  -8607739.190 8       296.000          88.000         171.000                  
G21  23639117.244    23639115.399    23639116.928                    -6658962.102 8  -6658962.096 6                  -5188803.541 6       154.000          30.000          34.000                  
G22  23177131.118    23177129.843    23177130.214                    -7223471.342 8  -7223471.352 7                  -5628681.920 7       277.000          63.000          77.000                  
G23  23694669.194    23694667.930    23694670.584                    -3752075.373 8  -3752075.360 6                  -2923695.811 6       146.000          31.000          35.000                  
G24  19953233.553    19953233.345    19953236.200                   -17298093.828 9 -17298093.830 9                 -13479037.935 9       740.000        1329.000        3111.000                  
G32  22052610.196    22052609.697    22052612.795                   -14923165.575 8 -14923165.576 9                 -11628437.996 9       444.000         510.000         710.000                  
> 2024 10 31 03 39 50.0000000  0 11
G02  23356155.663    23356153.836    23356153.265                    -9788638.731 8  -9788638.728 7                  -7627512.500 8       296.000          77.000         146.000                  
G10  21638026.905    21638026.378    21638029.322                   -16925510.394 8 -16925510.393 8                 -13188710.572 9       437.000         462.000         837.000                  
G12  22127682.616    22127682.161    22127682.437                   -14430675.281 8 -14430675.283 8                 -11244681.552 9       409.000         395.000         543.000                  
G14  24717234.846    24717232.811    24717233.384                      993812.578 8    993812.592 6                    774406.354 6       108.000          28.000          22.000                  
G17  22213246.694    22213246.367    22213246.622                   -14335099.749 8 -14335099.752 8                 -11170209.524 9       361.000         285.000         595.000                  
G19  22610567.178    22610565.390    22610565.027                   -11312371.617 8 -11312371.624 7                  -8814832.743 8       297.000          89.000         178.000                  
G21  23709916.883    23709915.298    23709916.653                    -6286907.998 8  -6286907.996 6                  -4898891.316 6       146.000          22.000          33.000                  
G22  23177438.760    23177437.870    23177437.914                    -7221852.168 8  -7221852.174 7                  -5627420.181 7       277.000          55.000          70.000                  
G23  23689299.979    23689299.926    23689301.025                    -3780286.964 8  -3780286.962 6                  -2945678.860 6       146.000          33.000          37.000                  
G24  19918006.403    19918006.177    19918008.915                   -17483214.141 9 -17483214.144 9                 -13623287.518 9       769.000        1426.000        3025.000                  
G32  22098218.981    22098218.735    22098221.686                   -14683489.193 8 -14683489.194 9                 -11441677.190 9       445.000         501.000         692.000                  
> 2024 10 31 03 40  0.0000000  0 11
G02  23414080.595    23414079.784    23414078.970                    -9484236.910 8  -9484236.909 7                  -7390316.292 8       293.000          66.000         133.000                  
G10  21668244.298    21668243.653    21668246.518                   -16766717.854 8 -16766717.856 8                 -13064976.143 9       427.000         448.000         855.000                  
G12  22071652.890    22071652.206    22071652.327                   -14725114.977 8 -14725114.980 8                 -11474115.059 9       414.000         403.000         559.000                  
G14  24731784.093    24731782.342    24731783.932                     1070269.943 8   1070269.941 6                    833983.527 6       105.000          25.000          21.000                  
G17  22204318.467    22204317.778    22204318.068                   -14382019.048 8 -14382019.050 8                 -11206769.939 9       360.000         281.000         626.000                  
G19  22560660.466    22560658.406    22560658.022                   -11574633.674 8 -11574633.670 7                  -9019192.756 8       292.000          84.000         181.000                  
G21  23781091.591    23781089.270    23781089.550                    -5912886.440 8  -5912886.436 6                  -4607445.965 6       141.000          24.000          33.000                  
G22  23178437.934    23178436.653    23178436.870                    -7216603.229 8  -7216603.232 7                  -5623329.969 7       275.000          68.000          77.000                  
G23  23684162.833    23684161.910    23684164.041                    -3807284.797 8  -3807284.816 6                  -2966716.200 6       148.000          33.000          41.000                  
G24  19883488.234    19883487.826    19883490.469                   -17664609.901 9 -17664609.903 9                 -13764634.855 9       789.000        1515.000        3106.000                  
G32  22144220.241    22144219.867    22144222.566                   -14441752.305 8 -14441752.306 8                 -11253310.802 9       431.000         470.000         678.000                  
> 2024 10 31 03 40 10.0000000  0 11
G02  23472536.798    23472535.163    23472534.768                    -9177050.537 8  -9177050.540 7                  -7150950.332 8       288.000          66.000         119.000                  
G10  21698942.724    21698942.345    21698945.344                   -16605394.853 8 -16605394.852 8                 -12939269.926 9       422.000         427.000         879.000                  
G12  22016131.516    22016131.201    22016131.369                   -15016879.776 8 -15016879.779 8                 -11701464.225 9       418.000         419.000         602.000                  
G14  24746732.742    24746731.405    24746733.141                     1148828.178 8   1148828.189 6                    895197.768 6       101.000          24.000          21.000                  
G17  22196281.308    22196280.633    22196281.015                   -14424254.047 8 -14424254.048 8                 -11239680.306 9       363.000         285.000         628.000                  
G19  22511429.102    22511427.354    22511426.789                   -11833344.419 8 -11833344.424 7                  -9220785.513 8       291.000          77.000         193.000                  
G21  23852626.115    23852623.847    23852625.118                    -5536970.208 8  -5536970.210 6                  -4314524.263 6       134.000          23.000          28.000                  
G22  23180123.204    23180121.702    23180122.721                    -7207745.847 8  -7207745.852 7                  -5616428.014 7       270.000          58.000          68.000                  
G23  23679253.271    23679252.198    23679254.442                    -3833085.004 8  -3833084.982 6                  -2986820.316 6       147.000          36.000          40.000                  
G24  19849682.927    19849682.720    19849685.396                   -17842256.573 9 -17842256.574 9                 -13903060.822 9       809.000        1574.000        3123.000                  
G32  22190604.994    22190604.625    22190607.254                   -14197998.885 8 -14197998.886 8                 -11063373.094 9       400.000         401.000         656.000                  
> 2024 10 31 03 40 20.0000000  0 11
G02  23531510.716    23531509.845    23531508.988                    -8867138.334 8  -8867138.336 7                  -6909460.347 8       285.000          68.000         103.000                  
G10  21730116.413    21730115.858    21730118.896                   -16441577.021 8 -16441577.021 8                 -12811619.687 9       416.000         419.000         873.000                  
G12  21961130.204    21961129.830    21961130.048                   -15305913.763 8 -15305913.763 8                 -11926685.463 9       427.000         422.000         617.000                  
G14  24762075.737    24762076.089    24762075.644                     1229460.937 7   1229460.941 6                    958028.314 6       100.000          24.000          25.000                  
G17  22189136.694    22189136.274    22189136.302                   -14461799.564 8 -14461799.567 8                 -11268936.550 9       370.000         294.000         614.000                  
G19  22462883.317    22462882.049    22462881.612                   -12088452.798 8 -12088452.800 7                  -9419571.236 8       295.000          93.000         202.000                  
G21  23924509.055    23924506.492    23924507.211                    -5159223.593 8  -5159223.598 6                  -4020176.347 6       126.000          24.000          26.000                  
G22  23182492.662    23182491.402    23182491.729                    -7195294.049 8  -7195294.045 7                  -5606725.286 7       274.000          61.000          66.000                  
G23  23674570.081    23674568.980    23674571.222                    -3857695.633 8  -3857695.622 6                  -3005997.487 6       152.000          30.000          34.000                  
G24  19816597.300    19816597.107    19816599.922                   -18016122.117 9 -18016122.118 9                 -14038540.455 9       814.000        1633.000        3028.000                  
G32  22237366.433    22237366.126    22237368.790                   -13952264.845 8 -13952264.846 8                 -10871892.058 9       371.000         334.000         631.000                  
> 2024 10 31 03 40 30.0000000  0 11
G02  23590998.181    23590996.608    23590995.738                    -8554532.370 8  -8554532.359 7                  -6665871.329 7       278.000          62.000          97.000                  
G10  21761762.793    21761762.514    21761765.595                   -16275273.069 8 -16275273.067 8                 -12682032.211 9       411.000         410.000         884.000                  
G12  21906664.242    21906663.840    21906664.097                   -15592133.876 8 -15592133.877 8                 -12149714.072 9       428.000         437.000         649.000                  
G14  24777815.849    24777814.448    24777815.138                     1312169.158 7   1312169.176 6                   1022476.437 6        93.000          22.000          21.000                  
G17  22182890.223    22182889.820    22182889.916                   -14494624.311 8 -14494624.314 8                 -11294514.271 9       365.000         290.000         610.000                  
G19  22415038.649    22415036.954    22415036.334                   -12339880.962 8 -12339880.960 7                  -9615489.262 8       301.000          86.000         214.000                  
G21  23996731.721    23996730.653    23996731.884                    -4779683.305 8  -4779683.320 6                  -3724430.680 6       128.000          21.000          26.000                  
G22  23185548.711    23185547.546    23185547.762                    -7179235.171 8  -7179235.169 7                  -5594211.888 7       271.000          53.000          64.000                  
G23  23670116.567    23670115.979    23670117.867                    -3881097.780 8  -3881097.769 6                  -3024232.922 6       150.000          32.000          40.000                  
G24  19784242.365    19784242.316    19784245.079                   -18186147.857 9 -18186147.858 9                 -14171028.036 9       831.000        1681.000        2965.000                  
G32  22284503.318    22284503.059    22284505.702                   -13704558.949 8 -13704558.951 8                 -10678874.512 9       348.000         314.000         613.000                  
> 2024 10 31 03 40 40.0000000  0 11
G02  23650980.664    23650979.468    23650977.492                    -8239322.594 8  -8239322.605 7                  -6420253.380 7       269.000          63.000          80.000                  
G10  21793869.914    21793869.434    21793872.515                   -16106549.894 8 -16106549.893 8                 -12550559.627 9       408.000         408.000         872.000                  
G12  21852738.737    21852737.946    21852738.420                   -15875515.250 8 -15875515.251 8                 -12370530.689 9       423.000         433.000         662.000                  
G14  24793938.114    24793936.594    24793938.157                     1396894.795 7   1396894.827 6                   1088496.695 6        94.000          19.000          23.000                  
G17  22177536.722    22177536.438    22177536.645                   -14522756.348 8 -14522756.350 8                 -11316435.316 9       360.000         280.000         592.000                  
G19  22367897.461    22367895.416    22367895.078                   -12587609.632 8 -12587609.634 7                  -9808524.576 8       306.000          88.000         203.000                  
G21  24069280.251    24069277.743    24069278.796                    -4398444.186 8  -4398444.170 6                  -3427361.301 6       121.000          26.000          21.000                  
G22  23189282.014    23189281.135    23189281.432                    -7159615.451 8  -7159615.454 7                  -5578923.769 7       270.000          56.000          66.000                  
G23  23665885.596    23665885.186    23665886.964                    -3903330.714 8  -3903330.709 6                  -3041557.297 6       154.000          30.000          37.000                  
G24  19752618.288    19752618.146    19752620.910                   -18352333.740 9 -18352333.742 9                 -14300523.520 9       845.000        1740.000        2899.000                  
G32  22332002.998    22332002.448    22332005.168                   -13454947.996 8 -13454947.999 8                 -10484372.503 9       339.000         297.000         593.000                  
> 2024 10 31 03 40 50.0000000  0 11
G02  23711454.568    23711452.947    23711451.721                    -7921530.542 8  -7921530.551 7                  -6172623.274 7       260.000          62.000          73.000                  
G10  21826437.308    21826437.127    21826440.093                   -15935406.112 8 -15935406.111 8                 -12417200.849 9       407.000         400.000         907.000                  
G12  21799370.941    21799370.383    21799370.660                   -16155964.451 8 -16155964.453 8                 -12589062.495 9       423.000         420.000         728.000                  
G14  24810444.758    24810443.591    24810446.695                     1483647.148 7   1483647.147 6                   1156096.049 6        86.000          23.000          22.000                  
G17  22173083.863    22173083.361    22173083.553                   -14546156.595 8 -14546156.597 8                 -11334669.249 9       359.000         279.000         586.000                  
G19  22321476.769    22321475.021    22321474.427                   -12831551.497 8 -12831551.501 7                  -9998609.122 8       318.000          97.000         222.000                  
G21  24142145.493    24142143.764    24142143.926                    -4015532.125 8  -4015532.121 6                  -3128988.367 6       121.000          24.000          24.000                  
G22  23193697.138    23193695.923    23193696.110                    -7136413.570 8  -7136413.564 7                  -5560844.346 7       267.000          61.000          69.000                  
G23  23661882.764    23661883.218    23661884.678                    -3924365.286 8  -3924365.282 6                  -3057947.890 6       157.000          37.000          39.000                  
G24  19721737.998    19721737.686    19721740.362                   -18514611.819 9 -18514611.820 9                 -14426973.965 9       874.000        1856.000        2894.000                  
G32  22379864.775    22379864.657    22379867.440                   -13203430.323 8 -13203430.323 8                 -10288384.731 9       327.000         271.000         598.000                  
> 2024 10 31 03 41  0.0000000  0 11
G02  23772402.824    23772401.395    23772400.490                    -7601244.488 8  -7601244.488 7                  -5923049.776 7       247.000          54.000          67.000                  
G10  21859453.096    21859452.880    21859455.901                   -15761907.197 8 -15761907.197 8                 -12282006.902 9       400.000         390.000         914.000                  
G12  21746566.128    21746565.754    21746566.088                   -16433454.773 8 -16433454.774 8                 -12805288.706 9       426.000         426.000         784.000                  
G14  24827329.222    24827327.661    24827328.828                     1572369.645 7   1572369.661 6                   1225230.373 6        80.000          23.000          24.000                  
G17  22169526.258    22169525.436    22169525.654                   -14564853.974 8 -14564853.976 8                 -11349238.640 9       350.000         275.000         581.000                  
G19  22275780.661    22275778.616    22275778.227                   -13071686.582 8 -13071686.585 8                 -10185727.339 8       318.000         101.000         218.000                  
G21  24215313.573    24215310.494    24215311.255                    -3631039.151 8  -3631039.165 6                  -2829383.529 6       117.000          29.000          22.000                  
G22  23198785.203    23198783.989    23198784.458                    -7109675.656 8  -7109675.646 7                  -5540009.593 7       264.000          58.000          77.000                  
G23  23658101.170    23658101.689    23658102.658                    -3944238.896 8  -3944238.891 6                  -3073433.749 6       157.000          38.000          33.000                  
G24  19691601.111    19691601.002    19691603.614                   -18672981.469 9 -18672981.470 9                 -14550378.879 9       904.000        1969.000        2865.000                  
G32  22428077.752    22428077.411    22428080.079                   -12950070.963 8 -12950070.963 8                 -10090961.883 9       315.000         250.000         575.000                  
> 2024 10 31 03 41 10.0000000  0 12
G02  23833819.686    23833818.276    23833816.759                    -7278497.465 8  -7278497.439 6                  -5671558.651 7       242.000          49.000          65.000                  
G10  21892915.370    21892914.822    21892917.888                   -15586063.446 8 -15586063.443 8                 -12144985.809 9       399.000         386.000         914.000                  
G12  21694339.693    21694339.756    21694340.179                   -16707904.172 8 -16707904.175 8                 -13019145.386 9       418.000         413.000         801.000                  
G14  24844587.017    24844586.384    24844587.449                     1663060.803 7   1663060.819 6                   1295898.865 6        79.000          23.000          19.000                  
G15  24408138.256    24408137.010    24408150.174                     -433593.790 7   -433593.816 6                   -337868.088 6        90.000          23.000          24.000                  
G17  22166867.756    22166867.330    22166867.376                   -14578822.970 8 -14578822.973 8                 -11360123.579 9       358.000         271.000         596.000                  
G19  22230822.876    22230821.066    22230820.520                   -13307940.083 8 -13307940.089 8                 -10369820.960 8       326.000         107.000         218.000                  
G21  24288772.973    24288771.499    24288771.676                    -3245001.962 8  -3245001.959 6                  -2528575.335 6       111.000          20.000          22.000                  
G22  23204547.703    23204546.305    23204547.009                    -7079393.218 8  -7079393.224 7                  -5516412.888 7       268.000          59.000          72.000                  
G23  23654543.230    23654543.616    23654545.416                    -3962933.940 8  -3962933.938 6                  -3088001.194 6       159.000          36.000          36.000                  
G24  19662218.735    19662218.546    19662221.169                   -18827387.323 9 -18827387.324 9                 -14670695.123 9       930.000        2101.000        2877.000                  
G32  22476638.440    22476638.549    22476641.426                   -12694879.556 8 -12694879.559 8                  -9892111.469 9       306.000         243.000         572.000                  
> 2024 10 31 03 41 20.0000000  0 12
G02  23895693.127    23895691.360    23895690.795                    -6953350.957 8  -6953350.962 6                  -5418197.796 7       228.000          45.000          59.000                  
G10  21926815.761    21926815.531    21926818.571                   -15407913.867 8 -15407913.866 8                 -12006167.970 9       388.000         376.000         908.000                  
G12  21642703.012    21642702.520    21642702.941                   -16979259.207 8 -16979259.208 8                 -13230590.828 9       410.000         400.000         802.000                  
G14  24862213.077    24862213.798    24862213.192                     1755689.827 7   1755689.823 6                   1368077.392 6        73.000          22.000          21.000                  
G15  24347549.421    24347549.648    24347550.795                     -751983.592 7   -751983.608 6                   -585964.406 7        95.000          22.000          78.000                  
G17  22165108.653    22165108.058    22165108.295                   -14588068.048 8 -14588068.049 8                 -11367327.540 9       361.000         287.000         610.000                  
G19  22186612.779    22186610.950    22186610.349                   -13540266.267 8 -13540266.261 8                 -10550854.331 8       332.000         109.000         223.000                  
G21  24362515.790    24362513.578    24362514.700                    -2857485.553 8  -2857485.572 6                  -2226614.584 6       108.000          20.000          23.000                  
G22  23210981.005    23210979.764    23210980.253                    -7045587.233 8  -7045587.232 7                  -5490070.567 7       271.000          65.000          69.000                  
G23  23651207.807    23651207.641    23651209.463                    -3980461.513 8  -3980461.513 6                  -3101658.996 6       159.000          38.000          42.000                  
G24  19633595.587    19633595.393    19633597.958                   -18977803.241 9 -18977803.242 9                 -14787902.327 9       961.000        2243.000        2896.000                  
G32  22525541.620    22525541.256    22525544.143                   -12437894.319 8 -12437894.319 8                  -9691863.259 9       308.000         239.000         584.000                  
> 2024 10 31 03 41 30.0000000  0 12
G02  23958012.356    23958010.534    23958010.454                    -6625862.111 8  -6625862.115 6                  -5163011.724 7       219.000          45.000          54.000                  
G10  21961148.378    21961148.348    21961151.606                   -15227493.035 8 -15227493.034 8                 -11865580.322 9       380.000         356.000         883.000                  
G12  21591665.459    21591665.157    21591665.627                   -17247462.271 8 -17247462.273 8                 -13439580.220 9       415.000         409.000         778.000                  
G14  24880204.359    24880203.142    24880205.577                     1850230.107 7   1850230.119 6                   1441745.123 6        74.000          25.000          18.000                  
G15  24287048.753    24287047.979    24287049.873                    -1069918.742 7  -1069918.748 6                   -833705.983 7        91.000          27.000          85.000                  
G17  22164248.097    22164247.431    22164247.692                   -14592590.359 8 -14592590.363 8                 -11370851.420 9       361.000         276.000         615.000                  
G19  22143159.276    22143157.345    22143157.051                   -13768615.484 8 -13768615.482 8                 -10728788.759 8       329.000         106.000         205.000                  
G21  24436527.738    24436525.812    24436526.244                    -2468550.077 7  -2468550.066 6                  -1923548.031 6       100.000          21.000          27.000                  
G22  23218081.766    23218080.224    23218080.298                    -7008274.656 8  -7008274.655 7                  -5460995.840 7       271.000          62.000          74.000                  
G23  23648093.633    23648093.167    23648094.959                    -3996828.121 8  -3996828.131 6                  -3114412.131 6       160.000          38.000          31.000                  
G24  19605737.339    19605737.200    19605739.726                   -19124199.244 9 -19124199.245 9                 -14901977.130 9       983.000        2348.000        2880.000                  
G32  22574779.478    22574779.073    22574781.801                   -12179148.919 8 -12179148.920 8                  -9490243.499 9       307.000         239.000         593.000                  
> 2024 10 31 03 41 40.0000000  0 12
G02  24020767.828    24020766.444    24020766.245                    -6296076.438 8  -6296076.456 6                  -4906035.926 7       211.000          38.000          57.000                  
G10  21995909.759    21995908.986    21995912.385                   -15044824.210 8 -15044824.210 8                 -11723240.996 9       376.000         343.000         881.000                  
G12  21541241.089    21541240.672    21541241.222                   -17512444.185 8 -17512444.186 8                 -13646059.611 9       425.000         432.000         812.000                  
G14  24898555.866    24898554.247    24898555.124                     1946666.477 7   1946666.492 6                   1516890.236 6        67.000          18.000          21.000                  
G15  24226639.572    24226641.014    24226642.844                    -1387360.526 7  -1387360.506 6                  -1081063.118 7        92.000          29.000          94.000                  
G17  22164287.949    22164287.255    22164287.533                   -14592380.890 8 -14592380.894 8                 -11370688.197 9       355.000         273.000         656.000                  
G19  22100473.993    22100472.389    22100471.941                   -13992927.318 8 -13992927.318 8                 -10903577.183 8       325.000         106.000         211.000                  
G21  24510800.664    24510798.957    24510799.836                    -2078243.735 7  -2078243.722 6                  -1619413.345 6        92.000          23.000          24.000                  
G22  23225847.976    23225846.293    23225846.696                    -6967461.877 8  -6967461.877 7                  -5429193.695 7       273.000          57.000          77.000                  
G23  23645201.068    23645200.893    23645202.388                    -4012028.799 8  -4012028.800 6                  -3126256.782 6       163.000          37.000          39.000                  
G24  19578651.798    19578651.636    19578654.181                   -19266534.494 9 -19266534.495 9                 -15012887.708 9       993.000        2393.000        2906.000                  
G32  22624348.183    22624347.273    22624350.207                   -11918665.481 8 -11918665.484 8                  -9287269.419 9       304.000         233.000         622.000                  
> 2024 10 31 03 41 50.0000000  0 12
G02  24083946.999    24083946.158    24083945.614                    -5964066.307 8  -5964066.318 6                  -4647326.803 7       204.000          37.000          52.000                  
G10  22031088.503    22031088.048    22031091.180                   -14859957.584 8 -14859957.583 8                 -11579189.096 9       379.000         338.000         855.000                  
G12  21491437.756    21491437.197    21491437.760                   -17774162.891 8 -17774162.891 8                 -13849996.255 9       433.000         451.000         782.000                  
G14  24917260.072    24917257.775    24917258.945                     2044956.335 7   2044956.334 6                   1593479.718 6        64.000          18.000          22.000                  
G15  24166330.102    24166330.034    24166331.699                    -1704296.596 7  -1704296.588 6                  -1328026.186 7        93.000          28.000          88.000                  
G17  22165224.419    22165223.887    22165224.294                   -14587458.634 8 -14587458.636 8                 -11366852.677 9       354.000         272.000         658.000                  
G19  22058563.534    22058561.738    22058561.017                   -14213168.617 8 -14213168.615 8                 -11075193.763 8       324.000         103.000         198.000                  
G21  24585320.734    24585318.184    24585318.675                    -1686641.303 7  -1686641.294 6                  -1314268.648 6        81.000          22.000          21.000                  
G22  23234273.839    23234272.689    23234272.979                    -6923182.791 8  -6923182.781 7                  -5394690.521 7       272.000          59.000          72.000                  
G23  23642525.742    23642526.465    23642527.943                    -4026085.443 8  -4026085.423 6                  -3137209.945 6       164.000          40.000          34.000                  
G24  19552341.591    19552341.378    19552343.938                   -19404795.742 9 -19404795.743 9                 -15120623.741 9       991.000        2396.000        2839.000                  
G32  22674237.188    22674237.136    22674240.001                   -11656492.929 8 -11656492.931 8                  -9082979.147 9       299.000         230.000         628.000                  
> 2024 10 31 03 42  0.0000000  0 12
G02  24147544.057    24147543.227    24147541.991                    -5629863.684 8  -5629863.685 6                  -4386909.208 6       198.000          41.000          46.000                  
G10  22066683.813    22066683.537    22066686.616                   -14672903.083 8 -14672903.083 8                 -11433432.360 9       381.000         352.000         852.000                  
G12  21442270.722    21442270.418    21442270.970                   -18032536.117 8 -18032536.119 8                 -14051326.026 9       440.000         461.000         773.000                  
G14  24936314.397    24936313.895    24936317.226                     2145097.662 7   2145097.680 6                   1671511.923 6        60.000          23.000          18.000                  
G15  24106126.244    24106125.270    24106126.455                    -2020674.183 7  -2020674.170 6                  -1574554.080 7        96.000          30.000          96.000                  
G17  22167061.989    22167061.270    22167061.574                   -14577803.463 8 -14577803.466 8                 -11359329.174 9       360.000         277.000         676.000                  
G19  22017441.630    22017439.691    22017438.885                   -14429266.788 8 -14429266.787 8                 -11243581.928 8       320.000         105.000         189.000                  
G21  24660079.042    24660076.518    24660077.571                    -1293776.936 7  -1293776.935 6                  -1008140.596 6        75.000          22.000          23.000                  
G22  23243360.498    23243359.560    23243359.903                    -6875431.724 8  -6875431.711 7                  -5357481.909 7       270.000          54.000          76.000                  
G23  23640072.241    23640072.001    23640073.705                    -4038979.822 8  -4038979.807 6                  -3147257.508 6       163.000          38.000          34.000                  
G24  19526816.662    19526816.460    19526819.029                   -19538930.090 9 -19538930.091 9                 -15225144.005 9       980.000        2326.000        2860.000                  
G32  22724446.736    22724446.636    22724449.603                   -11392639.825 8 -11392639.826 8                  -8877379.352 9       296.000         224.000         629.000                  
> 2024 10 31 03 42 10.0000000  0 12
G02  24211542.817    24211541.158    24211540.910                    -5293550.617 8  -5293550.622 6                  -4124847.145 6       192.000          33.000          39.000                  
G10  22102684.151    22102683.672    22102686.729                   -14483720.848 8 -14483720.847 8                 -11286017.648 9       382.000         349.000         834.000                  
G12  21393746.908    21393746.377    21393746.749                   -18287531.865 8 -18287531.869 9                 -14250023.988 9       460.000         503.000         738.000                  
G14  24955714.903    24955711.603    24955715.931                     2247037.612 7   2247037.627 6                   1750947.633 6        59.000          18.000          22.000                  
G15  24046027.629    24046026.976    24046028.443                    -2336490.371 8  -2336490.386 6                  -1820644.522 7       101.000          25.000          87.000                  
G17  22169793.935    22169793.350    22169793.608                   -14563446.535 8 -14563446.537 8                 -11348141.966 9       360.000         277.000         668.000                  
G19  21977111.668    21977109.880    21977109.240                   -14641199.917 8 -14641199.918 7                 -11408724.616 8       317.000          93.000         183.000                  
G21  24735062.008    24735060.580    24735063.400                     -899734.456 7   -899734.452 6                   -701094.627 6        65.000          22.000          19.000                  
G22  23253099.270    23253098.091    23253098.487                    -6824253.827 8  -6824253.819 7                  -5317603.037 7       265.000          60.000          72.000                  
G23  23637833.815    23637833.333    23637834.963                    -4050743.934 8  -4050743.941 6                  -3156424.365 6       165.000          45.000          37.000                  
G24  19502077.431    19502077.225    19502079.823                   -19668935.490 9 -19668935.491 9                 -15326446.906 9       962.000        2251.000        2890.000                  
G32  22774965.254    22774964.839    22774967.777                   -11127164.739 8 -11127164.739 8                  -8670515.676 9       299.000         216.000         615.000                  
> 2024 10 31 03 42 20.0000000  0 12
G02  24275935.648    24275935.286    24275934.631                    -4955157.610 8  -4955157.622 6                  -3861164.308 6       181.000          32.000          47.000                  
G10  22139087.454    22139087.130    22139090.200                   -14292419.577 8 -14292419.577 8                 -11136951.740 9       379.000         355.000         837.000                  
G12  21345881.044    21345880.921    21345881.224                   -18539066.902 8 -18539066.903 9                 -14446025.307 9       479.000         546.000         721.000                  
G14  24975453.602    24975451.716    24975453.140                     2350775.727 7   2350775.712 6                   1831781.781 6        57.000          21.000          19.000                  
G15  23986046.152    23986046.867    23986047.603                    -2651690.454 8  -2651690.458 6                  -2066254.906 7       109.000          28.000          87.000                  
G17  22173424.250    22173423.791    22173423.921                   -14544368.806 8 -14544368.809 8                 -11333276.207 9       357.000         269.000         694.000                  
G19  21937588.796    21937586.608    21937586.506                   -14848895.252 8 -14848895.254 8                 -11570565.121 8       316.000         103.000         188.000                  
G21  24810264.275    24810262.419    24810262.829                     -504545.980 7   -504545.995 6                   -393155.693 6        57.000          18.000          19.000                  
G22  23263491.216    23263489.785    23263490.532                    -6769643.502 8  -6769643.504 7                  -5275049.550 7       263.000          58.000          75.000                  
G23  23635813.953    23635813.615    23635815.645                    -4061358.003 8  -4061357.983 6                  -3164695.132 6       168.000          43.000          34.000                  
G24  19478133.927    19478133.741    19478136.412                   -19794759.101 9 -19794759.102 9                 -15424491.271 9       955.000        2204.000        2921.000                  
G32  22825790.703    22825790.590    22825793.425                   -10860074.677 8 -10860074.677 8                  -8462393.571 9       296.000         228.000         636.000                  
> 2024 10 31 03 42 30.0000000  0 12
G02  24340716.690    24340715.426    24340714.486                    -4614737.428 8  -4614737.424 6                  -3595901.885 6       173.000          34.000          33.000                  
G10  22175888.384    22175887.929    22175890.957                   -14099030.466 8 -14099030.464 8                 -10986258.949 9       380.000         366.000         827.000                  
G12  21298685.965    21298685.443    21298685.679                   -18787080.710 9 -18787080.712 9                 -14639282.820 9       507.000         616.000         671.000                  
G14  24995531.571    24995530.498    24995533.050                     2456285.819 7   2456285.847 6                   1913997.350 6        58.000          21.000          16.000                  
G15  23926190.196    23926189.173    23926190.751                    -2966242.071 8  -2966242.072 6                  -2311359.981 7       118.000          35.000          87.000                  
G17  22177951.799    22177951.589    22177951.868                   -14520574.789 8 -14520574.794 8                 -11314735.424 9       360.000         280.000         687.000                  
G19  21898880.907    21898879.483    21898879.139                   -15052303.349 8 -15052303.350 7                 -11729064.916 8       315.000          99.000         187.000                  
G21  24885673.325    24885672.639    24885672.628                     -108265.615 7   -108265.619 6                    -84365.810 6        53.000          19.000          20.000                  
G22  23274533.187    23274532.063    23274532.240                    -6711618.143 8  -6711618.151 7                  -5229834.995 7       254.000          51.000          72.000                  
G23  23634012.620    23634012.339    23634014.246                    -4070825.010 8  -4070825.000 6                  -3172072.093 6       170.000          40.000          32.000                  
G24  19454991.927    19454991.659    19454994.275                   -19916371.328 9 -19916371.329 9                 -15519254.039 9       938.000        2141.000        2863.000                  
G32  22876918.005    22876917.844    22876920.662                   -10591399.038 8 -10591399.037 8                  -8253035.954 9       304.000         236.000         635.000                  
> 2024 10 31 03 42 40.0000000  0 11
G02  24405865.431    24405863.983    24405863.062                    -4272380.384 8  -4272380.380 6                  -3329130.202 6       170.000          32.000          33.000                  
G10  22213073.262    22213072.950    22213075.862                   -13903622.355 8 -13903622.353 8                 -10833992.911 9       382.000         366.000         846.000                  
G12  21252164.890    21252164.524    21252164.513                   -19031550.440 9 -19031550.443 9                 -14829778.673 9       534.000         682.000         669.000                  
G14  25015937.548    25015934.031    25015936.949                     2563507.064 7   2563507.063 6                   1997546.334 6        59.000          26.000          18.000                  
G15  23866455.084    23866454.753    23866455.752                    -3280150.217 8  -3280150.207 6                  -2555963.665 7       131.000          47.000          86.000                  
G17  22183369.259    22183368.601    22183368.939                   -14492107.895 8 -14492107.898 8                 -11292553.434 9       356.000         270.000         691.000                  
G19  21860991.602    21860989.963    21860989.660                   -15251413.081 8 -15251413.081 7                 -11884215.343 8       319.000          99.000         191.000                  
G22  23286214.207    23286213.199    23286213.080                    -6650233.573 8  -6650233.571 7                  -5182002.886 7       249.000          52.000          55.000                  
G23  23632422.208    23632421.157    23632422.744                    -4079185.224 8  -4079185.220 6                  -3178586.532 6       167.000          37.000          37.000                  
G24  19432649.506    19432649.377    19432651.967                   -20033780.917 9 -20033780.919 9                 -15610742.026 9       931.000        2114.000        2921.000                  
G32  22928333.949    22928334.208    22928337.086                   -10321204.714 8 -10321204.714 8                  -8042494.950 9       309.000         245.000         655.000                  
> 2024 10 31 03 42 50.0000000  0 11
G02  24471381.021    24471378.884    24471378.739                    -3928093.841 8  -3928093.844 6                  -3060855.052 6       166.000          30.000          35.000                  
G10  22250645.420    22250644.806    22250647.775                   -13706181.313 8 -13706181.310 8                 -10680142.769 9       380.000         351.000         827.000                  
G12  21206338.592    21206337.923    21206337.734                   -19272370.916 9 -19272370.917 9                 -15017430.958 9       565.000         758.000         657.000                  
G14  25036669.378    25036666.503    25036668.336                     2672460.056 7   2672460.041 6                   2082453.140 6        56.000          20.000          22.000                  
G15  23806857.932    23806857.289    23806858.556                    -3593336.812 8  -3593336.835 7                  -2800005.110 7       140.000          52.000         100.000                  
G17  22189682.809    22189682.388    22189682.378                   -14458929.949 8 -14458929.951 8                 -11266700.492 9       360.000         275.000         653.000                  
G19  21823938.319    21823936.788    21823935.841                   -15446131.317 8 -15446131.320 8                 -12035943.823 8       329.000         107.000         182.000                  
G22  23298540.014    23298538.471    23298538.950                    -6585463.328 8  -6585463.354 6                  -5131532.551 7       237.000          45.000          62.000                  
G23  23631049.249    23631048.994    23631050.750                    -4086396.628 8  -4086396.611 6                  -3184205.827 6       168.000          38.000          35.000                  
G24  19411120.903    19411120.721    19411123.336                   -20146914.605 9 -20146914.607 9                 -15698898.138 9       938.000        2141.000        2911.000                  
G32  22980042.877    22980042.736    22980045.547                   -10049475.699 8 -10049475.699 8                  -7830758.086 9       323.000         273.000         648.000                  
> 2024 10 31 03 43  0.0000000  0 11
G02  24537245.784    24537243.731    24537243.109                    -3581973.997 8  -3581974.015 6                  -2791151.333 6       158.000          29.000          28.000                  
G10  22288589.574    22288589.110    22288592.137                   -13506782.409 8 -13506782.407 8                 -10524767.027 9       374.000         342.000         823.000                  
G12  21161209.184    21161208.782    21161208.520                   -19509526.377 9 -19509526.378 9                 -15202227.421 9       595.000         847.000         647.000                  
G14  25057718.320    25057716.812    25057717.785                     2783076.148 7   2783076.161 6                   2168655.931 6        57.000          16.000          19.000                  
G15  23747395.922    23747395.355    23747395.932                    -3905812.577 8  -3905812.567 7                  -3043492.645 7       147.000          54.000          98.000                  
G17  22196883.184    22196882.480    22196882.588                   -14421092.941 8 -14421092.941 8                 -11237217.113 9       360.000         279.000         633.000                  
G19  21787721.266    21787719.334    21787718.494                   -15636454.666 8 -15636454.661 8                 -12184247.713 8       333.000         112.000         180.000                  
G22  23311497.048    23311495.862    23311496.306                    -6517370.668 8  -6517370.677 6                  -5078473.343 7       230.000          48.000          52.000                  
G23  23629886.895    23629886.552    23629888.422                    -4092506.040 8  -4092506.018 6                  -3188966.479 6       163.000          35.000          34.000                  
G24  19390402.886    19390402.619    19390405.284                   -20255788.942 9 -20255788.944 9                 -15783735.271 9       949.000        2175.000        3015.000                  
G32  23032029.559    23032029.365    23032031.996                    -9776284.853 8  -9776284.852 8                  -7617882.135 9       336.000         285.000         643.000                  
> 2024 10 31 03 43 10.0000000  0 12
G02  24603453.754    24603452.421    24603452.476                    -3234046.406 8  -3234046.394 6                  -2520038.967 6       151.000          31.000          31.000                  
G10  22326905.638    22326905.171    22326908.132                   -13305430.281 8 -13305430.280 8                 -10367869.296 9       368.000         338.000         834.000                  
G12  21116793.806    21116793.412    21116793.347                   -19742930.717 9 -19742930.719 9                 -15384100.955 9       600.000         858.000         685.000                  
G14  25079084.493    25079082.527    25079085.047                     2895357.103 7   2895357.110 6                   2256148.134 6        51.000          21.000          16.000                  
G15  23688080.107    23688079.594    23688080.726                    -4217517.549 8  -4217517.547 7                  -3286379.578 8       156.000          58.000         116.000                  
G17  22204973.115    22204972.482    22204972.661                   -14378579.407 8 -14378579.407 8                 -11204089.688 9       352.000         267.000         639.000                  
G19  21752353.605    21752352.152    21752351.584                   -15822310.179 8 -15822310.186 8                 -12329070.168 8       340.000         114.000         181.000                  
G22  23325088.466    23325087.185    23325086.897                    -6445948.982 8  -6445948.976 6                  -5022820.101 7       223.000          44.000          52.000                  
G23  23628939.503    23628938.542    23628940.274                    -4097489.692 8  -4097489.687 6                  -3192849.927 6       165.000          43.000          34.000                  
G24  19370505.305    19370505.178    19370507.855                   -20360350.767 9 -20360350.769 9                 -15865212.009 9       955.000        2225.000        3203.000                  
G25  24242320.390    24242316.341    24242329.205                     -318279.256 7   -318279.246 6                   -248014.251 7        90.000          30.000          54.000                  
G32  23084293.956    23084293.629    23084296.219                    -9501634.505 8  -9501634.506 8                  -7403868.907 9       344.000         299.000         638.000                  
> 2024 10 31 03 43 20.0000000  0 12
G02  24669992.848    24669990.745    24669990.806                    -2884382.310 8  -2884382.334 6                  -2247573.507 6       149.000          25.000          23.000                  
G10  22365583.816    22365583.503    22365586.278                   -13102175.348 8 -13102175.346 8                 -10209488.858 9       366.000         323.000         812.000                  
G12  21073099.709    21073099.351    21073099.336                   -19972544.000 9 -19972544.002 9                 -15563020.390 9       596.000         843.000         753.000                  
G14  25100761.667    25100757.507    25100758.729                     3009258.688 7   3009258.695 6                   2344897.516 6        53.000          20.000          19.000                  
G15  23628914.703    23628913.650    23628914.716                    -4528437.373 8  -4528437.382 7                  -3528654.715 8       154.000          55.000         124.000                  
G17  22213947.269    22213946.886    22213947.008                   -14331418.993 8 -14331418.992 8                 -11167341.314 9       342.000         252.000         599.000                  
G19  21717841.881    21717840.060    21717839.329                   -16003671.611 8 -16003671.610 8                 -12470390.752 8       343.000         116.000         169.000                  
G22  23339305.494    23339303.893    23339303.977                    -6371238.102 8  -6371238.115 6                  -4964603.844 6       223.000          42.000          47.000                  
G23  23628200.371    23628200.075    23628201.104                    -4101369.758 8  -4101369.765 6                  -3195873.454 6       166.000          42.000          32.000                  
G24  19351429.928    19351429.640    19351432.297                   -20460593.633 9 -20460593.635 9                 -15943323.325 9       966.000        2263.000        3296.000                  
G25  24206504.058    24206501.157    24206506.269                     -506499.275 7   -506499.282 6                   -394678.857 7        91.000          32.000          92.000                  
G32  23136827.007    23136826.430    23136829.214                    -9225572.656 8  -9225572.659 8                  -7188755.808 9       347.000         310.000         605.000                  
> 2024 10 31 03 43 30.0000000  0 12
G02  24736852.222    24736851.157    24736849.566                    -2533031.798 8  -2533031.809 6                  -1973793.938 6       142.000          27.000          24.000                  
G10  22404618.571    22404618.038    22404620.952                   -12897046.998 8 -12897046.996 8                 -10049648.622 9       357.000         308.000         797.000                  
G12  21030138.757    21030138.382    21030138.382                   -20198305.611 9 -20198305.612 9                 -15738938.492 9       595.000         835.000         862.000                  
G14  25122735.666    25122735.979    25122735.071                     3124756.373 7   3124756.380 6                   2434882.165 6        56.000          18.000          23.000                  
G15  23569903.883    23569903.690    23569904.799                    -4838536.290 8  -4838536.298 7                  -3770290.183 8       154.000          52.000         150.000                  
G17  22223804.087    22223803.408    22223803.685                   -14279621.444 8 -14279621.448 8                 -11126979.594 9       331.000         242.000         579.000                  
G19  21684193.979    21684192.307    21684191.390                   -16180492.544 8 -16180492.550 8                 -12608173.306 8       344.000         113.000         166.000                  
G22  23354144.751    23354142.913    23354143.514                    -6293257.482 8  -6293257.498 6                  -4903839.729 6       223.000          42.000          47.000                  
G23  23627671.619    23627671.091    23627673.211                    -4104147.326 8  -4104147.313 6                  -3198037.841 6       166.000          35.000          31.000                  
G24  19333181.168    19333180.976    19333183.657                   -20556490.843 9 -20556490.844 9                 -16018048.414 9       967.000        2255.000        3354.000                  
G25  24170939.925    24170938.669    24170942.948                     -693383.954 7   -693383.943 6                   -540303.186 7        89.000          21.000          95.000                  
G32  23189622.900    23189622.751    23189625.462                    -8948126.166 8  -8948126.168 8                  -6972563.770 9       343.000         302.000         566.000                  
> 2024 10 31 03 43 40.0000000  0 12
G02  24804024.726    24804022.899    24804020.349                    -2180040.795 8  -2180040.797 6                  -1698736.117 6       136.000          26.000          24.000                  
G10  22444004.987    22444004.295    22444007.219                   -12690070.697 8 -12690070.695 8                  -9888368.432 9       349.000         301.000         790.000                  
G12  20987923.149    20987922.408    20987922.525                   -20420151.609 9 -20420151.610 9                 -15911805.495 9       593.000         814.000         925.000                  
G14  25145019.228    25145015.179    25145014.884                     3241832.573 7   3241832.595 6                   2526123.754 6        52.000          23.000          18.000                  
G15  23511057.536    23511057.193    23511058.941                    -5147774.493 8  -5147774.499 7                  -4011254.959 8       154.000          59.000         160.000                  
G17  22234541.839    22234541.268    22234541.571                   -14223193.723 8 -14223193.723 8                 -11083009.946 9       326.000         237.000         564.000                  
G19  21651419.541    21651417.972    21651416.724                   -16352723.597 8 -16352723.597 8                 -12742379.359 8       344.000         118.000         159.000                  
G22  23369602.457    23369602.293    23369601.578                    -6212023.247 8  -6212023.247 6                  -4840540.327 6       222.000          39.000          46.000                  
G23  23627354.404    23627353.578    23627355.606                    -4105819.548 8  -4105819.546 6                  -3199340.873 6       164.000          47.000          31.000                  
G24  19315765.116    19315764.965    19315767.594                   -20648012.722 9 -20648012.723 9                 -16089364.185 9       968.000        2280.000        3343.000                  
G25  24135639.329    24135637.430    24135642.360                     -878888.219 7   -878888.216 6                   -684851.951 8        92.000          31.000         104.000                  
G32  23242678.629    23242678.251    23242680.978                    -8669317.826 8  -8669317.829 8                  -6755310.546 9       340.000         295.000         542.000                  
> 2024 10 31 03 43 50.0000000  0 12
G02  24871493.648    24871492.452    24871490.986                    -1825487.049 8  -1825487.041 6                  -1422460.513 6       134.000          26.000          22.000                  
G10  22483731.764    22483731.405    22483734.278                   -12481303.898 8 -12481303.896 8                  -9725693.061 9       342.000         286.000         796.000                  
G12  20946458.060    20946457.703    20946457.725                   -20638050.444 9 -20638050.445 9                 -16081596.800 9       599.000         841.000         977.000                  
G14  25167584.955    25167584.895    25167583.154                     3360434.376 7   3360434.383 6                   2618564.604 6        53.000          21.000          19.000                  
G15  23452376.891    23452376.669    23452378.046                    -5456144.144 8  -5456144.141 7                  -4251542.920 8       161.000          66.000         192.000                  
G17  22246152.980    22246152.619    22246152.869                   -14162176.067 8 -14162176.067 8                 -11035463.729 9       325.000         217.000         568.000                  
G19  21619521.500    21619519.661    21619519.594                   -16520348.257 8 -16520348.258 8                 -12872996.003 8       340.000         113.000         170.000                  
G22  23385670.150    23385670.181    23385670.223                    -6127584.168 8  -6127584.164 6                  -4774743.656 6       223.000          44.000          47.000                  
G23  23627240.002    23627239.574    23627241.215                    -4106415.866 8  -4106415.850 6                  -3199805.521 6       166.000          39.000          30.000                  
G24  19299181.130    19299180.914    19299183.563                   -20735162.386 9 -20735162.387 9                 -16157273.035 9       958.000        2239.000        3439.000                  
G25  24100603.502    24100602.870    24100607.949                    -1062998.681 7  -1062998.704 6                   -828314.602 8        93.000          26.000         104.000                  
G32  23295982.973    23295982.544    23295985.218                    -8389202.372 8  -8389202.377 8                  -6537038.801 9       331.000         280.000         537.000                  
> 2024 10 31 03 44  0.0000000  0 11
G02  24939257.927    24939255.639    24939256.689                    -1469383.787 8  -1469383.776 6                  -1144977.535 6       129.000          24.000          19.000                  
G10  22523800.693    22523800.485    22523803.407                   -12270739.785 8 -12270739.784 8                  -9561617.203 9       342.000         281.000         799.000                  
G12  20905762.408    20905762.060    20905762.335                   -20851906.748 9 -20851906.750 9                 -16248238.068 9       593.000         832.000        1049.000                  
G15  23393875.334    23393875.474    23393876.408                    -5763572.689 8  -5763572.682 7                  -4491097.569 8       174.000          75.000         200.000                  
G17  22258642.290    22258641.745    22258641.897                   -14096545.510 8 -14096545.510 8                 -10984323.054 9       326.000         235.000         543.000                  
G19  21588515.567    21588513.746    21588513.289                   -16683286.718 8 -16683286.721 8                 -12999961.063 8       346.000         117.000         165.000                  
G22  23402352.258    23402351.216    23402351.225                    -6039925.217 8  -6039925.215 6                  -4706438.013 6       227.000          42.000          47.000                  
G23  23627337.852    23627337.081    23627339.642                    -4105901.282 8  -4105901.296 6                  -3199404.539 6       165.000          41.000          37.000                  
G24  19283440.700    19283440.348    19283443.109                   -20817879.766 9 -20817879.767 9                 -16221728.209 9       959.000        2217.000        3552.000                  
G25  24065847.149    24065847.727    24065852.311                    -1245637.830 7  -1245637.828 6                   -970630.776 8        95.000          31.000         107.000                  
G32  23349537.583    23349537.200    23349540.094                    -8107770.137 8  -8107770.138 8                  -6317740.991 9       328.000         270.000         509.000                  
> 2024 10 31 03 44 10.0000000  0 11
G02  25007296.746    25007294.803    25007293.785                    -1111834.954 8  -1111834.932 6                   -866368.164 6       122.000          23.000          14.000                  
G10  22564195.866    22564195.470    22564198.585                   -12058462.230 8 -12058462.229 8                  -9396206.197 9       333.000         270.000         812.000                  
G12  20865837.109    20865836.525    20865836.939                   -21061716.298 9 -21061716.299 9                 -16411726.010 9       594.000         842.000        1118.000                  
G15  23335548.728    23335549.166    23335549.832                    -6070078.329 8  -6070078.325 7                  -4729933.072 8       188.000          78.000         218.000                  
G17  22271996.051    22271995.601    22271995.680                   -14026370.869 8 -14026370.870 8                 -10929641.526 9       324.000         223.000         563.000                  
G19  21558398.707    21558397.145    21558396.109                   -16841551.040 8 -16841551.042 8                 -13123283.929 8       352.000         121.000         167.000                  
G22  23419630.882    23419630.026    23419630.391                    -5949122.914 8  -5949122.925 6                  -4635683.006 7       225.000          40.000          54.000                  
G23  23627637.443    23627636.105    23627637.416                    -4104331.802 8  -4104331.775 6                  -3198181.565 6       163.000          35.000          32.000                  
G24  19268537.447    19268537.234    19268539.999                   -20896196.143 9 -20896196.144 9                 -16282753.984 9       963.000        2242.000        3749.000                  
G25  24031371.244    24031369.617    24031374.735                    -1426818.896 7  -1426818.880 6                  -1111810.793 8        96.000          27.000         113.000                  
G32  23403327.331    23403327.304    23403330.037                    -7825102.104 8  -7825102.103 8                  -6097480.224 9       318.000         262.000         503.000                  
> 2024 10 31 03 44 20.0000000  0 11
G02  25075608.942    25075607.808    25075606.746                     -752851.945 8   -752851.974 6                   -586641.204 6       121.000          19.000          17.000                  
G10  22604918.846    22604918.223    22604921.403                   -11844463.018 8 -11844463.016 8                  -9229453.655 9       329.000         255.000         807.000                  
G12  20826699.594    20826699.409    20826699.747                   -21267383.657 9 -21267383.658 9                 -16571986.272 9       613.000         890.000        1173.000                  
G15  23277413.418    23277412.731    23277413.596                    -6375586.911 8  -6375586.909 7                  -4967991.649 8       200.000          90.000         218.000                  
G17  22286218.561    22286218.174    22286218.491                   -13951630.070 8 -13951630.070 8                 -10871401.972 9       314.000         216.000         569.000                  
G19  21529186.591    21529184.915    21529184.277                   -16995062.171 8 -16995062.170 8                 -13242903.003 8       365.000         134.000         175.000                  
G22  23437511.834    23437510.389    23437510.460                    -5855162.066 8  -5855162.060 6                  -4562466.796 7       219.000          42.000          52.000                  
G23  23628143.016    23628142.062    23628143.864                    -4101671.037 8  -4101671.033 6                  -3196108.277 6       161.000          39.000          29.000                  
G24  19254483.187    19254483.010    19254485.676                   -20970051.782 9 -20970051.783 9                 -16340303.803 9       977.000        2306.000        3793.000                  
G25  23997186.254    23997184.965    23997189.499                    -1606462.985 7  -1606462.999 6                  -1251793.148 8        96.000          28.000         122.000                  
G32  23457354.749    23457354.532    23457357.333                    -7541186.978 8  -7541186.977 8                  -5876247.700 8       308.000         233.000         473.000                  
> 2024 10 31 03 44 30.0000000  0 11
G02  25144181.812    25144180.130    25144177.908                     -392504.457 8   -392504.462 6                   -305851.174 6       118.000          21.000          18.000                  
G10  22645959.417    22645959.014    22645962.348                   -11628791.981 8 -11628791.982 8                  -9061398.377 9       323.000         251.000         812.000                  
G12  20788357.858    20788357.397    20788357.770                   -21468872.210 9 -21468872.212 9                 -16728990.326 9       631.000         948.000        1235.000                  
G15  23219469.798    23219469.043    23219469.925                    -6680082.268 8  -6680082.271 7                  -5205260.708 8       211.000          99.000         220.000                  
G17  22301303.219    22301302.676    22301302.981                   -13872360.378 8 -13872360.380 8                 -10809633.415 9       313.000         214.000         571.000                  
G19  21500882.874    21500881.038    21500880.424                   -17143800.288 8 -17143800.289 8                 -13358802.846 8       367.000         134.000         181.000                  
G22  23455984.727    23455983.319    23455984.348                    -5758086.253 8  -5758086.266 6                  -4486823.335 7       218.000          34.000          54.000                  
G23  23628852.995    23628851.920    23628853.643                    -4097941.066 8  -4097941.048 6                  -3193201.826 6       161.000          39.000          35.000                  
G24  19241277.876    19241277.669    19241280.394                   -21039446.384 9 -21039446.386 9                 -16394377.548 9       992.000        2384.000        3791.000                  
G25  23963297.614    23963296.360    23963301.192                    -1784549.484 8  -1784549.502 6                  -1390561.789 8       101.000          29.000         112.000                  
G32  23511610.460    23511610.225    23511613.012                    -7256071.596 8  -7256071.598 8                  -5654079.916 8       297.000         224.000         437.000                  
> 2024 10 31 03 44 40.0000000  0 11
G02  25213005.307    25213003.595    25213000.769                      -30834.356 8    -30834.377 6                    -24030.277 6       115.000          26.000          21.000                  
G10  22687314.358    22687313.829    22687317.052                   -11411471.586 8 -11411471.588 8                  -8892057.876 9       315.000         243.000         806.000                  
G12  20750823.325    20750823.043    20750823.051                   -21666118.274 9 -21666118.275 9                 -16882688.538 9       688.000        1104.000        1258.000                  
G15  23161727.145    23161726.417    23161727.264                    -6983520.666 8  -6983520.667 8                  -5441706.170 8       222.000         114.000         224.000                  
G17  22317247.491    22317247.094    22317247.288                   -13788572.771 8 -13788572.776 8                 -10744344.403 9       312.000         211.000         598.000                  
G19  21473495.687    21473494.067    21473493.588                   -17287719.262 8 -17287719.262 8                 -13470947.506 8       363.000         130.000         195.000                  
G22  23475047.049    23475045.302    23475046.649                    -5657912.308 8  -5657912.309 6                  -4408765.743 7       214.000          39.000          57.000                  
G23  23629766.643    23629766.161    23629768.536                    -4093136.466 8  -4093136.461 6                  -3189457.991 6       157.000          40.000          27.000                  
G24  19228926.687    19228926.423    19228929.083                   -21104352.822 9 -21104352.823 9                 -16444954.025 9      1014.000        2474.000        3771.000                  
G25  23929714.790    23929712.474    23929717.980                    -1961030.362 7  -1961030.357 6                  -1528079.287 8        98.000          27.000         117.000                  
G32  23566090.870    23566090.767    23566093.478                    -6969775.231 8  -6969775.230 8                  -5430991.887 8       285.000         202.000         404.000                  
> 2024 10 31 03 44 50.0000000  0 11
G02  25282065.884    25282064.506    25282062.893                      332084.457 8    332084.437 6                    258763.496 6       116.000          17.000          17.000                  
G10  22728972.637    22728972.183    22728975.297                   -11192556.407 8 -11192556.403 8                  -8721474.680 9       314.000         241.000         785.000                  
G12  20714101.858    20714101.534    20714101.442                   -21859090.989 9 -21859090.990 9                 -17033056.875 9       720.000        1228.000        1244.000                  
G15  23104187.556    23104186.999    23104188.134                    -7285890.324 8  -7285890.322 8                  -5677318.849 8       225.000         117.000         220.000                  
G17  22334043.093    22334042.592    22334042.979                   -13700311.395 8 -13700311.398 8                 -10675569.333 9       303.000         201.000         581.000                  
G19  21447028.378    21447026.914    21447026.390                   -17426806.276 8 -17426806.274 8                 -13579327.002 8       373.000         131.000         204.000                  
G22  23494689.267    23494687.679    23494688.836                    -5554689.721 8  -5554689.712 6                  -4328332.588 6       207.000          38.000          50.000                  
G23  23630880.980    23630880.238    23630882.173                    -4087283.983 8  -4087283.985 6                  -3184897.621 6       152.000          37.000          34.000                  
G24  19217428.369    19217428.085    19217430.736                   -21164777.141 9 -21164777.143 9                 -16492037.912 9      1034.000        2591.000        3735.000                  
G25  23896439.865    23896438.042    23896442.689                    -2135889.853 7  -2135889.863 6                  -1664333.381 8        98.000          30.000         108.000                  
G32  23620786.587    23620786.088    23620788.610                    -6682349.168 8  -6682349.171 8                  -5207023.571 8       275.000         195.000         365.000                  
> 2024 10 31 03 45  0.0000000  0 11
G02  25351357.877    25351356.484    25351354.460                      696216.127 8    696216.167 6                    542507.584 6       112.000          19.000          19.000                  
G10  22770930.992    22770930.558    22770933.731                   -10972063.193 8 -10972063.191 8                  -8549661.850 9       313.000         241.000         773.000                  
G12  20678206.729    20678206.154    20678206.005                   -22047722.460 9 -22047722.462 9                 -17180042.417 9       725.000        1249.000        1295.000                  
G15  23046861.082    23046861.041    23046862.005                    -7587141.547 8  -7587141.546 8                  -5912060.026 8       226.000         116.000         240.000                  
G17  22351688.595    22351687.909    22351688.343                   -13607583.798 8 -13607583.799 8                 -10603314.084 9       296.000         196.000         573.000                  
G19  21421490.288    21421488.454    21421487.834                   -17561011.981 8 -17561011.981 8                 -13683902.873 8       381.000         144.000         212.000                  
G22  23514909.836    23514908.586    23514908.674                    -5448430.717 8  -5448430.716 6                  -4245533.378 6       199.000          36.000          49.000                  
G23  23632195.945    23632195.053    23632197.511                    -4080372.739 8  -4080372.764 6                  -3179512.273 6       153.000          39.000          32.000                  
G24  19206788.626    19206788.550    19206791.141                   -21220688.769 9 -21220688.769 9                 -16535605.426 9      1062.000        2719.000        3816.000                  
G25  23863483.299    23863482.470    23863487.177                    -2309074.493 8  -2309074.486 6                  -1799282.427 8       102.000          34.000         122.000                  
G32  23675694.188    23675693.906    23675696.538                    -6393806.851 8  -6393806.853 8                  -4982185.449 8       268.000         188.000         341.000                  
> 2024 10 31 03 45 10.0000000  0 11
G02  25420868.729    25420866.857    25420865.570                     1061493.132 8   1061493.136 6                    827124.879 6       112.000          24.000          17.000                  
G10  22813180.741    22813180.134    22813183.297                   -10750040.532 8 -10750040.530 8                  -8376657.227 9       312.000         244.000         764.000                  
G12  20643143.918    20643143.601    20643143.485                   -22231977.408 9 -22231977.409 9                 -17323617.674 9       730.000        1261.000        1287.000                  
G15  22989751.404    22989751.009    22989752.093                    -7887256.340 8  -7887256.342 8                  -6145915.676 8       227.000         126.000         249.000                  
G17  22370176.298    22370175.679    22370176.116                   -13510430.312 8 -13510430.310 8                 -10527610.088 9       287.000         175.000         570.000                  
G19  21396883.745    21396881.839    21396881.195                   -17690319.889 8 -17690319.893 8                 -13784662.279 8       385.000         145.000         206.000                  
G22  23535699.352    23535697.905    23535698.822                    -5339179.849 8  -5339179.833 6                  -4160402.854 7       192.000          30.000          56.000                  
G23  23633708.617    23633707.694    23633709.378                    -4072423.735 8  -4072423.728 6                  -3173318.241 6       149.000          32.000          33.000                  
G24  19197007.370    19197007.187    19197009.864                   -21272089.945 9 -21272089.946 9                 -16575658.293 9      1073.000        2792.000        3928.000                  
G25  23830850.992    23830849.531    23830853.798                    -2480562.650 8  -2480562.649 6                  -1932909.525 8       102.000          34.000         125.000                  
G32  23730805.787    23730805.421    23730808.125                    -6104193.499 8  -6104193.501 8                  -4756512.758 8       261.000         177.000         309.000                  
> 2024 10 31 03 45 20.0000000  0 11
G02  25490591.836    25490588.864    25490589.998                     1427885.068 8   1427885.067 6                   1112623.778 6       115.000          24.000          15.000                  
G10  22855718.667    22855718.721    22855721.788                   -10526500.141 8 -10526500.143 8                  -8202469.967 9       314.000         240.000         746.000                  
G12  20608927.817    20608927.324    20608927.202                   -22411784.487 9 -22411784.487 9                 -17463727.068 9       722.000        1227.000        1203.000                  
G15  22932868.281    22932867.792    22932869.019                    -8186179.712 8  -8186179.710 8                  -6378842.938 8       231.000         130.000         295.000                  
G17  22389505.256    22389504.676    22389505.185                   -13408855.680 8 -13408855.680 8                 -10448461.043 9       286.000         170.000         554.000                  
G19  21373218.669    21373217.226    21373216.292                   -17814678.007 8 -17814678.008 8                 -13881564.697 8       386.000         140.000         215.000                  
G22  23557057.364    23557055.736    23557057.112                    -5226945.574 8  -5226945.576 6                  -4072947.589 7       188.000          36.000          51.000                  
G23  23635421.173    23635421.088    23635423.193                    -4063421.142 8  -4063421.124 6                  -3166303.289 6       148.000          34.000          33.000                  
G24  19188090.863    19188090.519    19188093.274                   -21318947.092 9 -21318947.093 9                 -16612170.363 9      1075.000        2811.000        3917.000                  
G25  23798551.417    23798549.766    23798554.889                    -2650296.077 8  -2650296.084 6                  -2065169.298 8       109.000          34.000         121.000                  
G32  23786119.166    23786119.223    23786121.877                    -5813517.331 8  -5813517.331 8                  -4530011.903 8       254.000         167.000         288.000                  
> 2024 10 31 03 45 30.0000000  0 11
G02  25560514.666    25560511.902    25560513.219                     1795332.771 8   1795332.760 6                   1398946.515 6       110.000          24.000          23.000                  
G10  22898538.983    22898538.000    22898541.164                   -10301482.563 8 -10301482.562 8                  -8027131.641 9       318.000         242.000         747.000                  
G12  20575565.980    20575565.527    20575565.328                   -22587102.114 9 -22587102.115 9                 -17600338.190 9       721.000        1228.000        1238.000                  
G15  22876217.023    22876216.535    22876217.445                    -8483885.406 8  -8483885.406 8                  -6610821.360 8       238.000         132.000         328.000                  
G17  22409669.395    22409668.569    22409668.823                   -13302894.462 8 -13302894.464 8                 -10365893.872 9       282.000         172.000         537.000                  
G19  21350500.274    21350498.787    21350498.208                   -17934064.427 8 -17934064.425 8                 -13974593.063 8       394.000         151.000         210.000                  
G22  23578974.505    23578973.512    23578974.681                    -5111765.671 8  -5111765.669 6                  -3983197.029 7       182.000          35.000          52.000                  
G23  23637333.022    23637332.212    23637334.785                    -4053378.156 8  -4053378.138 6                  -3158477.616 6       148.000          31.000          30.000                  
G24  19180039.589    19180039.309    19180042.017                   -21361256.578 9 -21361256.579 9                 -16645138.789 9      1069.000        2781.000        3863.000                  
G25  23766592.240    23766590.233    23766595.084                    -2818245.527 8  -2818245.534 6                  -2196038.982 8       109.000          30.000         130.000                  
G32  23841628.657    23841628.571    23841630.992                    -5521815.391 8  -5521815.392 8                  -4302711.741 8       249.000         161.000         264.000                  
