     3.03           OBSERVATION DATA    M (MIXED)           RINEX VERSION / TYPE
BJPP                CNES                20241104 092248 UTC PGM / RUN BY / DATE 
MARKER                                                      MARKER NAME         
SPACECRAFT                                                  MARKER TYPE         
OBSERVER            CNES                                    OBSERVER / AGENCY   
RECNUM              BLACKJACK           RECVERS             REC # / TYPE / VERS 
ANTNUM              BLACKJACK                               ANT # / TYPE        
        0.0000        0.0000        0.0000                  ANTENNA: DELTA H/E/N
G   12 C1C C1W C2W C2X L1C L1W L2X L2W S1C S1W S2W S2X      SYS / # / OBS TYPES 
DBHZ                                                        SIGNAL STRENGTH UNIT
This rinex produced from the following file(s):             COMMENT             
/tmp/mesos_work/slaves/d197f515-9ebc-49f2-8adc-fe7a9d3e6458-COMMENT             
S45/frameworks/8c1b9f46-52ed-4aff-9edf-38d17bf6761e-6286/exeCOMMENT             
cutors/toil-18249/runs/448d661f-39d6-4ede-9ac8-ce1a5eeea2cf/COMMENT             
c84a857710ae5eaca98ae5941fa7fde0/4dac/274b/tmpholxuo7qwjwjniCOMMENT             
74/stg369cd2ac-9be4-4e5d-89b9-31a69ac18319/SWOT_IVK_20241031COMMENT             
T222307_20241031T211409_20241031T222149_O_APID1280.PTM_0    COMMENT             
  2024    10    31    21    13   40.0000000                 TIME OF FIRST OBS   
G L1C                                                       SYS / PHASE SHIFT   
G L1W -0.25000                                              SYS / PHASE SHIFT   
G L2W                                                       SYS / PHASE SHIFT   
G L2X  0.25000                                              SYS / PHASE SHIFT   
                                                            END OF HEADER       
> 2024 10 31 21 13 40.0000000  0  2
G16  23263782.496    23263779.645    23263783.678                    -4237450.865 7  -4237450.857 6                  -3301925.673 6        88.000          23.000          20.000                  
G28  22893567.697    22893566.811    22893570.166                   -11144413.875 8 -11144413.872 7                  -8683968.757 7       219.000          65.000          95.000                  
> 2024 10 31 21 13 50.0000000  0 12
G02  23526404.704    23526403.709    23526405.758                    -5590599.962 8  -5590599.961 6                  -4356304.946 7       201.000          37.000          67.000                  
G03  23214189.896    23214189.955    23214195.576                    -7275542.368 8  -7275542.375 7                  -5669261.442 8       198.000          93.000         211.000                  
G04  23716841.636    23716841.288    23716845.961                    -4504615.285 8  -4504615.273 6                  -3510711.685 6       153.000          42.000          39.000                  
G08  19498731.416    19498730.910    19498735.702                   -25638980.061 9 -25638980.065 9                 -19978427.288 9       884.000        1863.000        2459.000                  
G10  24756888.626    24756884.902    24756894.781                     -425378.596 8   -425378.610 6                   -331467.230 6       119.000          39.000          34.000                  
G16  23338502.929    23338501.341    23338506.790                    -3844788.659 7  -3844788.653 6                  -2995955.432 6        79.000          19.000          21.000                  
G21  22036218.332    22036216.806    22036219.238                   -10904676.765 8 -10904676.773 7                  -8497146.202 7       287.000          82.000          86.000                  
G26  24865376.124    24865375.571    24865384.153                     1439800.688 7   1439800.685 6                   1121895.432 6        77.000          29.000          47.000                  
G27  19459057.269    19459056.879    19459060.986                   -25780651.095 9 -25780651.095 9                 -20088822.270 9       964.000        2537.000        2418.000                  
G28  22900656.367    22900656.154    22900659.580                   -11107159.091 8 -11107159.093 7                  -8654938.947 7       218.000          65.000          97.000                  
G31  22782741.989    22782741.924    22782744.090                   -10637588.822 8 -10637588.820 8                  -8289041.624 9       288.000         193.000         570.000                  
G32  22044174.544    22044174.071    22044179.062                   -13405688.242 8 -13405688.243 8                 -10445987.551 9       261.000         168.000         669.000                  
> 2024 10 31 21 14  0.0000000  0 12
G02  23466150.458    23466149.559    23466151.699                    -5907234.924 8  -5907234.920 6                  -4603032.962 7       206.000          39.000          68.000                  
G03  23215747.706    23215747.587    23215753.200                    -7267355.973 8  -7267355.975 7                  -5662882.294 8       194.000          98.000         211.000                  
G04  23774093.138    23774091.971    23774095.987                    -4203761.891 8  -4203761.899 6                  -3276280.706 6       144.000          33.000          33.000                  
G08  19492217.400    19492216.822    19492221.505                   -25673211.536 9 -25673211.539 9                 -20005101.080 9       881.000        1857.000        2426.000                  
G10  24701227.901    24701226.407    24701232.890                     -717872.153 8   -717872.147 6                   -559382.866 7       126.000          45.000          59.000                  
G16  23413451.423    23413450.522    23413454.929                    -3450927.830 7  -3450927.808 6                  -2689051.153 6        74.000          22.000          20.000                  
G21  21973109.651    21973108.454    21973111.026                   -11236310.982 8 -11236310.984 7                  -8755562.171 7       295.000          85.000          91.000                  
G26  24930976.083    24930975.143    24930984.513                     1784526.497 7   1784526.499 6                   1390512.191 6        72.000          23.000          41.000                  
G27  19491411.401    19491410.989    19491415.038                   -25610628.932 9 -25610628.933 9                 -19956337.447 9       950.000        2451.000        2425.000                  
G28  22908061.777    22908060.959    22908064.594                   -11068244.204 8 -11068244.201 7                  -8624615.535 8       223.000          64.000         102.000                  
G31  22824937.697    22824937.225    22824939.830                   -10415849.830 8 -10415849.828 8                  -8116258.017 9       295.000         190.000         586.000                  
G32  21995512.793    21995512.607    21995517.369                   -13661405.600 8 -13661405.598 8                 -10645247.569 9       272.000         184.000         669.000                  
> 2024 10 31 21 14 10.0000000  0 12
G02  23406153.296    23406152.443    23406154.226                    -6222519.976 8  -6222519.991 6                  -4848709.121 7       215.000          42.000          77.000                  
G03  23217599.639    23217599.473    23217604.916                    -7257623.445 8  -7257623.448 7                  -5655298.351 8       197.000          99.000         209.000                  
G04  23831512.827    23831512.660    23831517.626                    -3902016.092 8  -3902016.097 6                  -3041154.353 6       136.000          33.000          34.000                  
G08  19486890.042    19486889.459    19486894.233                   -25701206.292 9 -25701206.296 9                 -20026915.082 9       860.000        1766.000        2396.000                  
G10  24645782.746    24645781.923    24645788.466                    -1009230.990 8  -1009230.989 6                   -786414.972 7       133.000          48.000          62.000                  
G16  23488623.766    23488620.306    23488626.633                    -3055901.905 7  -3055901.933 6                  -2381239.079 6        77.000          21.000          21.000                  
G21  21910446.678    21910445.047    21910447.392                   -11565609.050 8 -11565609.045 7                  -9012157.755 7       303.000          87.000          91.000                  
G26  24996590.632    24996591.658    24996600.878                     2129341.985 7   2129341.975 6                   1659198.845 6        69.000          21.000          38.000                  
G27  19524891.358    19524890.757    19524894.854                   -25434691.445 9 -25434691.446 9                 -19819243.277 9       935.000        2374.000        2517.000                  
G28  22915786.166    22915785.394    22915788.683                   -11027652.904 8 -11027652.895 7                  -8592985.809 7       229.000          64.000          91.000                  
G31  22867419.576    22867419.444    22867421.763                   -10192605.488 8 -10192605.490 8                  -7942301.389 9       301.000         198.000         578.000                  
G32  21947228.905    21947228.492    21947233.389                   -13915138.568 8 -13915138.570 8                 -10842961.319 9       276.000         191.000         674.000                  
> 2024 10 31 21 14 20.0000000  0 12
G02  23346419.395    23346418.355    23346420.309                    -6536423.040 8  -6536423.048 6                  -5093308.427 7       219.000          47.000          72.000                  
G03  23219742.538    23219742.345    23219747.927                    -7246361.233 8  -7246361.239 8                  -5646522.432 8       195.000         103.000         207.000                  
G04  23889093.018    23889093.520    23889098.848                    -3599428.436 8  -3599428.423 6                  -2805372.004 6       128.000          33.000          31.000                  
G08  19482747.547    19482746.969    19482751.676                   -25722974.905 9 -25722974.908 9                 -20043877.548 9       862.000        1763.000        2306.000                  
G10  24590557.268    24590555.707    24590561.434                    -1299445.177 8  -1299445.172 7                  -1012555.169 7       136.000          53.000          61.000                  
G16  23564000.384    23563996.628    23564002.363                    -2659791.421 7  -2659791.453 6                  -2072581.853 6        78.000          19.000          19.000                  
G21  21848235.262    21848234.023    21848236.103                   -11892529.550 8 -11892529.555 7                  -9266900.702 7       306.000          85.000          88.000                  
G26  25062214.303    25062213.545    25062222.736                     2474182.114 7   2474182.150 6                   1927904.688 6        70.000          17.000          40.000                  
G27  19559482.219    19559481.776    19559485.818                   -25252914.561 9 -25252914.562 9                 -19677598.923 9       924.000        2317.000        2637.000                  
G28  22923823.499    22923823.347    22923826.225                   -10985416.238 8 -10985416.242 7                  -8560073.968 7       227.000          71.000          97.000                  
G31  22910177.998    22910177.454    22910179.885                    -9967909.539 8  -9967909.538 8                  -7767213.624 9       298.000         194.000         563.000                  
G32  21899323.906    21899324.035    21899328.683                   -14166877.813 8 -14166877.816 8                 -11039121.522 9       287.000         207.000         671.000                  
> 2024 10 31 21 14 30.0000000  0 12
G02  23286960.501    23286959.934    23286961.687                    -6848878.937 8  -6848878.949 6                  -5336780.093 7       229.000          40.000          88.000                  
G03  23222179.928    23222179.568    23222184.811                    -7233553.099 8  -7233553.109 7                  -5636541.876 8       194.000          89.000         196.000                  
G04  23946830.772    23946831.325    23946836.002                    -3296016.547 8  -3296016.573 6                  -2568947.402 6       125.000          30.000          33.000                  
G08  19479793.670    19479793.118    19479797.756                   -25738497.071 9 -25738497.075 9                 -20055972.652 9       865.000        1762.000        2265.000                  
G10  24535556.459    24535555.499    24535560.876                    -1588472.049 8  -1588472.051 6                  -1237770.225 7       141.000          49.000          73.000                  
G16  23639577.824    23639571.946    23639579.253                    -2262643.330 7  -2262643.357 6                  -1763116.005 6        85.000          20.000          22.000                  
G21  21786490.227    21786489.330    21786491.720                   -12216998.088 8 -12216998.090 7                  -9519733.033 7       308.000          89.000          78.000                  
G26  25127833.562    25127833.135    25127843.145                     2819015.154 7   2819015.170 6                   2196604.973 6        63.000          25.000          35.000                  
G27  19595175.847    19595175.456    19595179.487                   -25065342.842 9 -25065342.843 9                 -19531439.112 9       904.000        2215.000        2746.000                  
G28  22932173.843    22932173.736    22932176.212                   -10941532.547 8 -10941532.542 7                  -8525878.723 7       231.000          70.000          97.000                  
G31  22953208.656    22953208.141    22953210.459                    -9741782.772 8  -9741782.771 8                  -7591010.929 9       298.000         193.000         557.000                  
G32  21851807.295    21851807.029    21851811.491                   -14416581.185 8 -14416581.190 8                 -11233695.337 9       297.000         219.000         658.000                  
> 2024 10 31 21 14 40.0000000  0 12
G02  23227788.638    23227786.719    23227788.395                    -7159831.786 8  -7159831.779 6                  -5579080.551 7       239.000          50.000          87.000                  
G03  23224911.644    23224911.977    23224917.590                    -7219192.473 8  -7219192.476 7                  -5625351.587 8       194.000          93.000         195.000                  
G04  24004719.745    24004720.421    24004725.838                    -2991807.460 8  -2991807.454 6                  -2331901.538 6       121.000          28.000          35.000                  
G08  19478030.181    19478029.644    19478034.274                   -25747764.076 9 -25747764.079 9                 -20063193.604 9       868.000        1794.000        2306.000                  
G10  24480787.531    24480787.293    24480792.563                    -1876278.453 8  -1876278.457 7                  -1462034.271 7       146.000          55.000          75.000                  
G16  23715339.257    23715334.189    23715340.682                    -1864513.944 7  -1864513.944 6                  -1452885.610 6        87.000          21.000          19.000                  
G21  21725224.886    21725224.007    21725226.071                   -12538949.751 8 -12538949.757 7                  -9770604.167 7       310.000          94.000          80.000                  
G26  25193446.321    25193443.769    25193454.809                     3163800.080 7   3163800.096 6                   2465267.735 6        60.000          20.000          37.000                  
G27  19631961.639    19631961.262    19631965.342                   -24872031.798 9 -24872031.799 9                 -19380807.093 9       882.000        2138.000        2837.000                  
G28  22940836.225    22940835.869    22940838.808                   -10896009.863 8 -10896009.854 7                  -8490406.345 7       227.000          64.000         100.000                  
G31  22996505.391    22996505.058    22996507.424                    -9514255.372 8  -9514255.368 8                  -7413716.814 9       289.000         187.000         545.000                  
G32  21804683.770    21804683.521    21804687.748                   -14664216.170 8 -14664216.171 8                 -11426657.420 9       310.000         235.000         643.000                  
> 2024 10 31 21 14 50.0000000  0 12
G02  23168908.256    23168906.858    23168908.163                    -7469247.007 8  -7469247.012 7                  -5820182.891 7       244.000          56.000          94.000                  
G03  23227937.035    23227937.473    23227942.612                    -7203294.478 8  -7203294.480 7                  -5612963.335 8       193.000          95.000         189.000                  
G04  24062752.424    24062751.670    24062757.303                    -2686849.570 8  -2686849.540 6                  -2094272.191 6       116.000          30.000          28.000                  
G08  19477454.140    19477453.635    19477458.235                   -25750790.568 9 -25750790.573 9                 -20065551.820 9       866.000        1806.000        2353.000                  
G10  24426254.241    24426253.417    24426258.418                    -2162852.719 8  -2162852.715 7                  -1685338.265 7       150.000          61.000          82.000                  
G16  23791273.704    23791269.090    23791275.203                    -1465480.485 7  -1465480.484 6                  -1141950.699 6        86.000          23.000          24.000                  
G21  21664446.574    21664445.660    21664448.239                   -12858340.930 8 -12858340.933 7                 -10019480.139 7       318.000          98.000          78.000                  
G26  25259036.091    25259034.103    25259044.600                     3508474.883 7   3508474.863 6                   2733844.692 6        56.000          23.000          27.000                  
G27  19669824.803    19669824.335    19669828.467                   -24673059.740 9 -24673059.741 9                 -19225763.891 9       860.000        2002.000        2873.000                  
G28  22949805.506    22949804.723    22949807.671                   -10848877.810 8 -10848877.809 7                  -8453679.901 7       227.000          65.000          97.000                  
G31  23040059.117    23040058.450    23040061.168                    -9285379.062 8  -9285379.063 8                  -7235371.596 9       282.000         175.000         531.000                  
G32  21757955.532    21757955.588    21757959.865                   -14909771.786 8 -14909771.789 8                 -11617999.210 9       316.000         261.000         644.000                  
> 2024 10 31 21 15  0.0000000  0 12
G02  23110338.138    23110336.989    23110338.489                    -7777032.650 8  -7777032.635 7                  -6060015.435 7       248.000          52.000          92.000                  
G03  23231263.725    23231263.005    23231268.238                    -7185817.308 8  -7185817.316 7                  -5599344.551 8       193.000          95.000         181.000                  
G04  24120927.664    24120926.979    24120932.320                    -2381134.104 8  -2381134.103 6                  -1856052.521 6       112.000          30.000          24.000                  
G08  19478073.334    19478072.802    19478077.517                   -25747536.166 9 -25747536.170 9                 -20063015.833 9       869.000        1802.000        2501.000                  
G10  24371967.567    24371967.091    24371972.692                    -2448126.020 8  -2448126.019 7                  -1907628.533 7       152.000          57.000          97.000                  
G16  23867373.616    23867372.474    23867375.897                    -1065562.610 7  -1065562.620 6                   -830326.665 6        86.000          22.000          18.000                  
G21  21604174.808    21604173.969    21604175.895                   -13175070.739 8 -13175070.738 7                 -10266282.320 7       319.000          99.000          87.000                  
G26  25324604.135    25324601.905    25324613.900                     3853034.909 7   3853034.926 6                   3002332.159 6        52.000          24.000          35.000                  
G27  19708760.870    19708760.399    19708764.444                   -24468449.228 9 -24468449.228 9                 -19066327.089 9       832.000        1894.000        2818.000                  
G28  22959085.760    22959085.150    22959088.171                   -10800109.092 8 -10800109.098 7                  -8415678.130 7       230.000          71.000          93.000                  
G31  23083870.353    23083870.242    23083872.539                    -9055148.247 8  -9055148.248 8                  -7055970.922 9       276.000         166.000         510.000                  
G32  21711636.492    21711636.246    21711640.439                   -15153180.094 8 -15153180.099 8                 -11807667.790 9       326.000         267.000         664.000                  
> 2024 10 31 21 15 10.0000000  0 11
G02  23052082.308    23052081.275    23052083.007                    -8083166.213 8  -8083166.215 7                  -6298560.684 8       254.000          56.000         102.000                  
G03  23234883.787    23234883.564    23234888.849                    -7166788.886 8  -7166788.890 7                  -5584517.000 8       192.000          99.000         179.000                  
G04  24179236.770    24179236.437    24179241.131                    -2074721.739 8  -2074721.729 6                  -1617289.803 6       108.000          27.000          23.000                  
G08  19479882.048    19479881.445    19479886.005                   -25738032.031 9 -25738032.035 9                 -20055609.930 9       884.000        1877.000        2519.000                  
G10  24317929.184    24317928.408    24317933.876                    -2732099.270 8  -2732099.267 7                  -2128905.823 8       154.000          64.000         102.000                  
G16  23943627.700    23943626.041    23943629.427                     -664849.165 7   -664849.168 6                   -518082.657 6        82.000          21.000          17.000                  
G21  21544415.072    21544414.140    21544416.193                   -13489107.801 8 -13489107.800 7                 -10510986.253 7       313.000          93.000          93.000                  
G27  19748752.108    19748751.641    19748755.681                   -24258293.612 9 -24258293.613 9                 -18902569.430 9       809.000        1776.000        2763.000                  
G28  22968668.999    22968668.878    22968671.106                   -10749746.101 8 -10749746.091 7                  -8376434.070 7       229.000          72.000          97.000                  
G31  23127927.171    23127927.058    23127929.597                    -8823626.880 8  -8823626.879 8                  -6875564.607 8       273.000         160.000         491.000                  
G32  21665725.867    21665725.504    21665729.547                   -15394442.767 8 -15394442.768 8                 -11995664.455 9       334.000         280.000         676.000                  
> 2024 10 31 21 15 20.0000000  0 11
G02  22994154.351    22994153.556    22994154.577                    -8387577.573 8  -8387577.573 7                  -6535763.967 7       256.000          58.000          97.000                  
G03  23238803.363    23238803.456    23238808.649                    -7146189.962 8  -7146189.961 7                  -5568465.684 8       186.000          90.000         165.000                  
G04  24237676.241    24237675.136    24237680.389                    -1767625.712 7  -1767625.753 6                  -1377994.402 6        99.000          23.000          19.000                  
G08  19482882.488    19482881.892    19482886.488                   -25722263.977 9 -25722263.981 9                 -20043323.048 9       878.000        1825.000        2584.000                  
G10  24264145.854    24264145.830    24264150.960                    -3014725.911 8  -3014725.920 7                  -2349133.863 8       157.000          56.000         113.000                  
G16  24020024.547    24020022.591    24020025.771                     -263381.385 7   -263381.369 6                   -205250.861 6        79.000          25.000          20.000                  
G21  21485183.185    21485181.968    21485184.105                   -13800373.387 8 -13800373.389 8                 -10753530.621 7       317.000         103.000          93.000                  
G27  19789789.560    19789789.056    19789793.210                   -24042640.121 9 -24042640.122 9                 -18734527.713 9       786.000        1686.000        2689.000                  
G28  22978556.746    22978556.488    22978559.214                   -10697784.063 8 -10697784.058 7                  -8335943.999 8       225.000          65.000         103.000                  
G31  23172227.116    23172226.279    23172228.849                    -8590831.620 8  -8590831.621 8                  -6694165.658 8       266.000         168.000         458.000                  
G32  21620231.573    21620231.363    21620235.608                   -15633514.253 8 -15633514.252 8                 -12181953.708 9       344.000         301.000         697.000                  
> 2024 10 31 21 15 30.0000000  0 11
G02  22936564.270    22936563.014    22936563.755                    -8690215.420 8  -8690215.426 7                  -6771585.305 8       260.000          57.000         108.000                  
G03  23243022.625    23243022.017    23243026.951                    -7124020.409 8  -7124020.408 7                  -5551190.511 8       180.000          87.000         171.000                  
G04  24296238.124    24296237.470    24296242.590                    -1459878.013 7  -1459878.028 6                  -1138191.163 6        95.000          24.000          23.000                  
G08  19487073.651    19487073.061    19487077.651                   -25700238.747 9 -25700238.751 9                 -20026160.443 9       876.000        1823.000        2648.000                  
G10  24210625.509    24210624.989    24210630.386                    -3295978.393 8  -3295978.398 7                  -2568291.170 8       157.000          64.000         121.000                  
G16  24096553.438    24096551.436    24096554.711                      138781.011 7    138781.006 6                    108119.603 6        78.000          18.000          20.000                  
G21  21426490.030    21426488.720    21426490.801                   -14108807.646 8 -14108807.644 8                 -10993868.766 8       339.000         112.000         104.000                  
G27  19831860.384    19831859.926    19831864.065                   -23821556.063 9 -23821556.063 9                 -18562254.380 9       773.000        1629.000        2607.000                  
G28  22988746.714    22988746.357    22988749.042                   -10644237.255 8 -10644237.260 7                  -8294219.057 7       222.000          70.000         100.000                  
G31  23216761.922    23216761.556    23216764.019                    -8356797.866 8  -8356797.866 8                  -6511801.651 8       265.000         156.000         424.000                  
G32  21575159.693    21575159.324    21575163.570                   -15870368.020 8 -15870368.024 8                 -12366514.878 9       355.000         319.000         731.000                  
> 2024 10 31 21 15 40.0000000  0 11
G02  22879323.418    22879322.329    22879323.648                    -8991015.542 8  -8991015.546 7                  -7005974.672 8       258.000          57.000         104.000                  
G03  23247542.169    23247541.601    23247546.655                    -7100267.547 8  -7100267.545 7                  -5532681.590 8       172.000          81.000         160.000                  
G04  24354920.296    24354919.554    24354925.486                    -1151497.847 7  -1151497.861 6                   -897895.149 6        89.000          22.000          22.000                  
G08  19492456.293    19492455.751    19492460.332                   -25671952.384 9 -25671952.388 9                 -20004119.034 9       841.000        1693.000        2448.000                  
G10  24157373.525    24157372.902    24157378.370                    -3575816.412 8  -3575816.406 7                  -2786346.306 8       147.000          57.000         130.000                  
G16  24173204.417    24173205.090    24173203.567                      541591.612 7    541591.603 6                    421987.468 6        64.000          15.000          18.000                  
G21  21368349.059    21368347.761    21368350.022                   -14414338.011 8 -14414338.015 8                 -11231944.157 7       326.000         104.000          95.000                  
G27  19874954.176    19874953.642    19874957.723                   -23595097.173 9 -23595097.174 9                 -18385792.866 9       728.000        1455.000        2209.000                  
G28  22999237.444    22999237.017    22999239.932                   -10589107.387 8 -10589107.378 7                  -8251260.571 7       206.000          57.000          93.000                  
G31  23261528.388    23261528.228    23261530.387                    -8121548.190 8  -8121548.189 8                  -6328490.177 8       253.000         142.000         359.000                  
G32  21530517.340    21530517.035    21530521.124                   -16104964.973 8 -16104964.976 8                 -12549317.496 9       349.000         306.000         715.000                  
> 2024 10 31 21 15 50.0000000  0 11
G02  22822440.567    22822439.706    22822440.377                    -9289937.552 8  -9289937.562 7                  -7238900.595 7       252.000          51.000          98.000                  
G03  23252360.809    23252360.772    23252365.848                    -7074942.903 8  -7074942.907 7                  -5512947.904 8       157.000          68.000         144.000                  
G04  24413715.840    24413714.740    24413721.305                     -842528.402 7   -842528.401 6                   -657139.796 6        80.000          19.000          22.000                  
G08  19499026.215    19499025.759    19499030.201                   -25637426.907 9 -25637426.910 9                 -19977215.980 9       797.000        1513.000        2181.000                  
G10  24104393.969    24104393.812    24104398.812                    -3854223.763 8  -3854223.764 6                  -3003286.637 8       142.000          48.000         123.000                  
G16  24249967.102    24249966.508    24249966.623                      944980.415 7    944980.413 6                    736282.097 6        58.000          19.000          20.000                  
G21  21310770.358    21310769.315    21310771.288                   -14716915.891 8 -14716915.892 7                 -11467718.894 7       308.000          95.000          97.000                  
G27  19919055.344    19919054.803    19919058.781                   -23363344.236 9 -23363344.236 9                 -18205206.115 9       683.000        1272.000        1879.000                  
G28  23010024.262    23010024.184    23010026.776                   -10532420.259 8 -10532420.259 6                  -8207088.646 7       194.000          43.000          93.000                  
G31  23306517.599    23306517.311    23306519.257                    -7885129.136 8  -7885129.134 8                  -6144267.495 8       240.000         126.000         305.000                  
G32  21486307.136    21486306.826    21486310.969                   -16337290.126 8 -16337290.128 8                 -12730349.877 9       337.000         285.000         672.000                  
> 2024 10 31 21 16  0.0000000  0 11
G02  22765927.126    22765926.253    22765926.847                    -9586913.923 8  -9586913.919 7                  -7470310.441 8       280.000          70.000         115.000                  
G03  23257481.897    23257481.617    23257486.820                    -7048031.060 8  -7048031.055 7                  -5491977.448 8       163.000          74.000         163.000                  
G04  24472620.655    24472619.631    24472624.862                     -532985.541 7   -532985.578 6                   -415937.868 6        81.000          22.000          18.000                  
G08  19506784.004    19506783.472    19506787.927                   -25596659.199 9 -25596659.203 9                 -19945448.853 9       871.000        1812.000        2418.000                  
G10  24051695.109    24051694.906    24051699.939                    -4131157.258 8  -4131157.259 7                  -3219078.542 8       156.000          59.000         160.000                  
G16  24326833.135    24326830.490    24326828.773                     1348904.981 7   1348904.970 6                   1050981.365 6        58.000          20.000          18.000                  
G21  21253767.471    21253766.423    21253768.464                   -15016465.574 8 -15016465.574 8                 -11701134.032 8       341.000         104.000         106.000                  
G27  19964153.292    19964152.867    19964156.820                   -23126351.966 9 -23126351.967 9                 -18020536.776 9       740.000        1513.000        2043.000                  
G28  23021108.198    23021107.573    23021110.355                   -10474174.718 8 -10474174.734 7                  -8161702.354 8       208.000          51.000         104.000                  
G31  23351725.543    23351725.236    23351727.016                    -7647560.044 8  -7647560.044 8                  -5959148.680 8       255.000         149.000         337.000                  
G32  21442537.171    21442536.933    21442541.077                   -16567301.551 8 -16567301.553 8                 -12909579.362 9       377.000         365.000         805.000                  
> 2024 10 31 21 16 10.0000000  0 11
G02  22709797.115    22709796.100    22709796.542                    -9881880.634 8  -9881880.626 7                  -7700154.339 8       281.000          70.000         121.000                  
G03  23262907.334    23262907.073    23262911.836                    -7019520.528 8  -7019520.513 7                  -5469761.264 8       163.000          67.000         154.000                  
G04  24531629.358    24531628.696    24531634.651                     -222888.727 7   -222888.728 6                   -174304.166 6        75.000          20.000          22.000                  
G08  19515729.148    19515728.570    19515733.064                   -25549651.883 9 -25549651.887 9                 -19908819.698 9       861.000        1772.000        2283.000                  
G10  23999283.321    23999283.749    23999288.638                    -4406577.370 8  -4406577.360 7                  -3433691.214 8       159.000          62.000         168.000                  
G16  24403791.103    24403787.381    24403787.358                     1753319.658 7   1753319.666 6                   1366065.184 6        54.000          21.000          20.000                  
G21  21197355.355    21197353.802    21197355.954                   -15312915.185 8 -15312915.191 8                 -11932133.536 8       355.000         113.000         119.000                  
G27  20010237.194    20010236.683    20010240.653                   -22884179.757 9 -22884179.759 9                 -17831831.122 9       747.000        1502.000        1886.000                  
G28  23032487.466    23032487.076    23032490.428                   -10414373.458 8 -10414373.470 7                  -8115103.804 8       204.000          53.000         110.000                  
G31  23397147.861    23397147.638    23397149.498                    -7408863.938 8  -7408863.936 8                  -5773151.676 8       249.000         147.000         311.000                  
G32  21399214.836    21399214.510    21399218.618                   -16794961.180 8 -16794961.180 8                 -13086976.288 9       399.000         399.000         812.000                  
> 2024 10 31 21 16 20.0000000  0 10
G02  22654055.000    22654053.803    22654054.577                   -10174804.696 8 -10174804.696 7                  -7928406.569 8       282.000          66.000         136.000                  
G03  23268632.970    23268632.335    23268637.545                    -6989431.174 8  -6989431.169 7                  -5446314.830 8       155.000          66.000         157.000                  
G04  24590732.835    24590734.389    24590740.314                       87711.431 7     87711.415 6                     67721.744 6        73.000          23.000          20.000                  
G08  19525854.921    19525854.313    19525858.722                   -25496440.708 9 -25496440.712 9                 -19867356.376 9       845.000        1727.000        2364.000                  
G10  23947161.807    23947162.056    23947166.833                    -4680475.888 8  -4680475.881 7                  -3647118.259 8       157.000          58.000         187.000                  
G21  21141540.015    21141538.982    21141540.889                   -15606224.063 8 -15606224.064 8                 -12160685.715 8       359.000         125.000         137.000                  
G27  20057289.250    20057288.859    20057292.762                   -22636919.103 9 -22636919.104 9                 -17639160.453 9       718.000        1406.000        1928.000                  
G28  23044157.339    23044156.322    23044159.230                   -10353050.541 8 -10353050.548 6                  -8067319.554 8       196.000          47.000         102.000                  
G31  23442774.065    23442773.971    23442775.986                    -7169094.887 8  -7169094.883 8                  -5586318.593 8       242.000         127.000         317.000                  
G32  21356341.775    21356341.153    21356345.014                   -17020262.248 8 -17020262.251 8                 -13262535.386 9       409.000         419.000         856.000                  
> 2024 10 31 21 16 30.0000000  0 10
G02  22598715.791    22598715.071    22598715.266                   -10465612.595 8 -10465612.594 7                  -8155009.856 8       286.000          66.000         147.000                  
G03  23274662.824    23274662.211    23274667.522                    -6957742.647 8  -6957742.652 7                  -5421622.293 8       150.000          64.000         154.000                  
G04  24649933.745    24649933.245    24649939.041                      398805.002 7    398804.993 6                    310132.044 6        70.000          21.000          20.000                  
G08  19537161.603    19537161.138    19537165.561                   -25437022.959 9 -25437022.963 9                 -19821056.767 9       865.000        1782.000        2354.000                  
G10  23895340.352    23895339.524    23895344.574                    -4952804.202 8  -4952804.201 7                  -3859321.808 8       163.000          68.000         185.000                  
G21  21086338.583    21086336.977    21086339.146                   -15896311.324 8 -15896311.328 8                 -12386727.551 8       384.000         142.000         138.000                  
G27  20105299.803    20105299.401    20105303.322                   -22384621.942 9 -22384621.943 9                 -17442565.237 9       708.000        1352.000        1820.000                  
G28  23056116.147    23056116.314    23056119.092                   -10290199.727 8 -10290199.725 7                  -8018344.762 8       200.000          55.000         101.000                  
G31  23488601.948    23488601.947    23488604.158                    -6928266.493 8  -6928266.494 8                  -5398660.047 8       243.000         131.000         284.000                  
G32  21313925.593    21313925.312    21313929.160                   -17243157.768 8 -17243157.770 8                 -13436220.043 9       428.000         466.000         860.000                  
> 2024 10 31 21 16 40.0000000  0 10
G02  22543791.128    22543789.933    22543790.593                   -10754243.177 8 -10754243.183 7                  -8379916.541 8       286.000          60.000         141.000                  
G03  23280998.565    23280998.487    23281003.134                    -6924447.086 8  -6924447.082 7                  -5395677.530 8       152.000          64.000         139.000                  
G04  24709223.889    24709222.460    24709228.007                      710369.716 7    710369.724 6                    552912.532 6        67.000          27.000          20.000                  
G08  19549647.190    19549646.732    19549651.107                   -25371410.172 9 -25371410.176 9                 -19769929.859 9       836.000        1663.000        2251.000                  
G10  23843822.980    23843822.732    23843827.396                    -5223526.033 8  -5223526.020 7                  -4070273.565 8       166.000          68.000         182.000                  
G21  21031762.439    21031761.356    21031763.089                   -16183108.337 8 -16183108.338 8                 -12610205.565 8       403.000         153.000         138.000                  
G27  20154256.345    20154255.858    20154259.803                   -22127353.372 9 -22127353.373 9                 -17242096.197 9       660.000        1208.000        1615.000                  
G28  23068366.861    23068365.904    23068368.758                   -10225827.161 8 -10225827.167 7                  -7968184.201 8       192.000          51.000         101.000                  
G31  23534627.191    23534626.795    23534628.846                    -6686404.479 8  -6686404.479 8                  -5210196.094 8       239.000         122.000         267.000                  
G32  21271974.343    21271973.898    21271977.770                   -17463613.230 8 -17463613.232 9                 -13608003.367 9       450.000         505.000         826.000                  
> 2024 10 31 21 16 50.0000000  0 10
G02  22489289.299    22489288.592    22489289.366                   -11040649.821 8 -11040649.821 7                  -8603090.305 8       294.000          70.000         157.000                  
G03  23287638.346    23287638.805    23287643.219                    -6889551.436 8  -6889551.446 7                  -5368485.940 8       157.000          59.000         149.000                  
G04  24768596.225    24768594.460    24768600.567                     1022368.845 7   1022368.845 6                    796028.550 6        65.000          22.000          20.000                  
G08  19563306.476    19563305.850    19563310.322                   -25299630.418 9 -25299630.423 9                 -19713997.522 9       836.000        1690.000        2467.000                  
G10  23792615.693    23792615.655    23792620.047                    -5492619.860 8  -5492619.865 7                  -4279956.747 8       173.000          83.000         202.000                  
G21  20977822.927    20977821.941    20977823.640                   -16466561.409 8 -16466561.410 8                 -12831077.913 8       425.000         168.000         170.000                  
G27  20204143.678    20204143.109    20204147.016                   -21865193.890 9 -21865193.890 9                 -17037816.054 9       660.000        1181.000        1608.000                  
G28  23080901.273    23080901.671    23080904.060                   -10159953.709 8 -10159953.706 6                  -7916854.116 8       193.000          50.000         111.000                  
G31  23580840.721    23580840.564    23580842.635                    -6443549.148 8  -6443549.145 8                  -5020958.140 8       236.000         126.000         272.000                  
G32  21230491.092    21230490.868    21230494.466                   -17681608.891 8 -17681608.894 9                 -13777869.963 9       487.000         596.000         896.000                  
> 2024 10 31 21 17  0.0000000  0 10
G02  22435221.321    22435220.118    22435220.751                   -11324779.697 8 -11324779.694 7                  -8824489.970 8       299.000          71.000         161.000                  
G03  23294582.688    23294583.198    23294588.005                    -6853056.890 8  -6853056.894 7                  -5340048.466 8       157.000          60.000         150.000                  
G04  24828045.183    24828042.979    24828047.177                     1334771.844 7   1334771.844 6                   1039458.210 6        61.000          23.000          19.000                  
G08  19578134.512    19578133.996    19578138.469                   -25221707.725 9 -25221707.728 9                 -19653278.485 9       825.000        1631.000        2556.000                  
G10  23741723.468    23741723.456    23741728.139                    -5760058.236 8  -5760058.233 7                  -4488349.989 8       183.000          83.000         222.000                  
G21  20924531.416    20924530.221    20924531.831                   -16746610.901 8 -16746610.902 8                 -13049298.115 8       440.000         177.000         186.000                  
G27  20254947.341    20254946.835    20254950.618                   -21598218.721 9 -21598218.722 9                 -16829783.439 9       647.000        1146.000        1566.000                  
G28  23093719.210    23093719.044    23093721.659                   -10092594.378 8 -10092594.375 7                  -7864366.198 8       188.000          52.000         101.000                  
G31  23627237.555    23627236.718    23627238.938                    -6199734.689 8  -6199734.689 8                  -4830972.812 8       237.000         122.000         262.000                  
G32  21189480.743    21189480.464    21189483.975                   -17897119.257 9 -17897119.260 9                 -13945799.974 9       514.000         666.000         911.000                  
> 2024 10 31 21 17 10.0000000  0 10
G02  22381600.090    22381599.040    22381599.386                   -11606560.051 8 -11606560.054 7                  -9044058.860 8       302.000          74.000         167.000                  
G03  23301835.785    23301835.367    23301840.788                    -6814944.723 8  -6814944.727 7                  -5310350.520 8       157.000          69.000         163.000                  
G04  24887566.786    24887565.863    24887571.712                     1647568.244 7   1647568.236 6                   1283196.481 6        64.000          21.000          17.000                  
G08  19594130.728    19594130.077    19594134.544                   -25137647.889 9 -25137647.893 9                 -19587777.261 9       827.000        1638.000        2668.000                  
G10  23691156.384    23691155.118    23691160.047                    -6025793.723 8  -6025793.721 7                  -4695416.312 8       186.000          87.000         229.000                  
G21  20871902.661    20871901.238    20871902.684                   -17023177.387 8 -17023177.389 8                 -13264804.307 8       441.000         186.000         185.000                  
G27  20306656.778    20306656.348    20306660.193                   -21326483.701 9 -21326483.702 9                 -16618041.855 9       645.000        1138.000        1542.000                  
G28  23106821.432    23106820.867    23106823.263                   -10023744.243 8 -10023744.244 6                  -7810716.626 8       189.000          45.000         113.000                  
G31  23673813.844    23673813.277    23673815.169                    -5954975.059 8  -5954975.061 8                  -4640251.003 8       231.000         118.000         248.000                  
G32  21148952.096    21148951.677    21148955.142                   -18110098.909 9 -18110098.911 9                 -14111758.006 9       533.000         718.000         929.000                  
> 2024 10 31 21 17 20.0000000  0 10
G02  22328434.909    22328433.656    22328433.901                   -11885944.433 8 -11885944.440 7                  -9261760.749 8       304.000          81.000         183.000                  
G03  23309394.519    23309394.168    23309399.361                    -6775222.867 8  -6775222.868 7                  -5279398.279 8       160.000          65.000         173.000                  
G04  24947157.746    24947156.792    24947162.217                     1960721.277 7   1960721.254 6                   1527215.542 6        57.000          19.000          20.000                  
G08  19611287.911    19611287.378    19611291.915                   -25047485.063 9 -25047485.067 9                 -19517520.461 9       818.000        1602.000        2799.000                  
G10  23640915.799    23640915.426    23640919.946                    -6289805.458 8  -6289805.456 7                  -4901139.474 8       194.000          94.000         239.000                  
G21  20819946.128    20819945.106    20819946.598                   -17296208.031 8 -17296208.030 8                 -13477555.302 8       429.000         173.000         176.000                  
G27  20359256.121    20359255.771    20359259.682                   -21050071.771 9 -21050071.771 9                 -16402655.921 9       645.000        1127.000        1538.000                  
G28  23120202.034    23120202.251    23120204.866                    -9953424.973 8  -9953424.970 7                  -7755922.287 8       188.000          54.000         106.000                  
G31  23720561.879    23720561.289    23720563.385                    -5709310.579 8  -5709310.585 8                  -4448824.119 8       227.000         116.000         246.000                  
G32  21108908.178    21108908.075    21108911.438                   -18320529.138 9 -18320529.140 9                 -14275729.476 9       557.000         773.000         943.000                  
> 2024 10 31 21 17 30.0000000  0 10
G02  22275735.233    22275734.271    22275734.495                   -12162880.628 8 -12162880.631 7                  -9477554.977 8       301.000          74.000         191.000                  
G03  23317258.613    23317258.936    23317263.766                    -6733893.662 8  -6733893.664 7                  -5247193.564 8       158.000          63.000         174.000                  
G04  25006810.332    25006809.409    25006817.886                     2274200.272 7   2274200.313 6                   1771484.480 6        59.000          21.000          23.000                  
G08  19629600.883    19629600.334    19629604.949                   -24951249.405 9 -24951249.410 9                 -19442531.590 9       802.000        1540.000        2822.000                  
G10  23591008.994    23591008.620    23591013.124                    -6552066.822 8  -6552066.823 7                  -5105498.719 8       201.000          98.000         245.000                  
G21  20768674.120    20768672.653    20768674.423                   -17565644.444 8 -17565644.443 8                 -13687505.605 8       443.000         187.000         176.000                  
G27  20412730.786    20412730.402    20412734.253                   -20769060.655 9 -20769060.655 9                 -16183686.212 9       632.000        1099.000        1526.000                  
G28  23133859.877    23133859.228    23133862.041                    -9881652.439 8  -9881652.426 6                  -7699995.544 8       190.000          46.000         104.000                  
G31  23767475.787    23767475.457    23767477.491                    -5462775.601 8  -5462775.607 8                  -4256718.918 8       221.000         112.000         242.000                  
G32  21069354.667    21069354.239    21069357.466                   -18528385.601 9 -18528385.603 9                 -14437695.417 9       573.000         823.000         961.000                  
> 2024 10 31 21 17 40.0000000  0 10
G02  22223515.867    22223514.865    22223514.931                   -12437295.947 8 -12437295.951 7                  -9691384.902 8       301.000          77.000         205.000                  
G03  23325433.305    23325433.076    23325437.742                    -6690939.097 8  -6690939.099 7                  -5213722.346 8       160.000          66.000         179.000                  
G04  25066525.189    25066522.544    25066530.148                     2587994.978 7   2587994.951 6                   2016008.651 6        57.000          24.000          18.000                  
G08  19649067.324    19649066.818    19649071.379                   -24848952.386 9 -24848952.390 9                 -19362819.591 9       789.000        1493.000        2729.000                  
G10  23541444.892    23541443.866    23541448.230                    -6812530.821 8  -6812530.823 8                  -5308457.435 8       208.000         110.000         253.000                  
G21  20718100.746    20718099.430    20718101.102                   -17831408.099 8 -17831408.101 8                 -13894594.023 8       466.000         201.000         171.000                  
G27  20467069.724    20467069.272    20467073.047                   -20483508.135 9 -20483508.137 9                 -15961177.760 9       621.000        1066.000        1484.000                  
G28  23147795.556    23147794.703    23147797.602                    -9808422.183 8  -9808422.169 6                  -7642932.912 8       188.000          46.000         111.000                  
G31  23814552.428    23814552.483    23814554.548                    -5215383.892 8  -5215383.894 8                  -4063946.138 8       212.000         102.000         221.000                  
G32  21030298.808    21030298.669    21030301.849                   -18733623.708 9 -18733623.708 9                 -14597621.090 9       580.000         856.000         975.000                  
> 2024 10 31 21 17 50.0000000  0 10
G02  22171784.915    22171783.666    22171784.174                   -12709142.584 8 -12709142.594 7                  -9903213.264 8       301.000          72.000         206.000                  
G03  23333915.484    23333914.579    23333919.315                    -6646366.371 8  -6646366.378 7                  -5178990.232 8       163.000          69.000         179.000                  
G04  25126292.313    25126289.642    25126295.783                     2902070.267 7   2902070.310 6                   2260762.256 6        55.000          20.000          19.000                  
G08  19669679.950    19669679.467    19669683.907                   -24740632.297 9 -24740632.301 9                 -19278414.293 9       772.000        1421.000        2540.000                  
G10  23492225.979    23492225.150    23492229.685                    -7071175.539 8  -7071175.539 8                  -5509998.543 8       217.000         108.000         258.000                  
G21  20668236.868    20668235.420    20668236.595                   -18093445.768 8 -18093445.772 8                 -14098779.077 8       485.000         222.000         177.000                  
G27  20522257.068    20522256.548    20522260.247                   -20193497.496 9 -20193497.495 9                 -15735195.455 9       612.000        1022.000        1477.000                  
G28  23162004.007    23162003.717    23162005.895                    -9733754.820 8  -9733754.823 6                  -7584750.469 7       190.000          43.000          98.000                  
G31  23861785.669    23861785.263    23861787.472                    -4967174.040 8  -4967174.039 7                  -3870535.851 8       210.000          92.000         213.000                  
G32  20991745.244    20991745.018    20991748.193                   -18936224.054 9 -18936224.056 9                 -14755491.373 9       589.000         886.000         992.000                  
> 2024 10 31 21 18  0.0000000  0 10
G02  22120552.587    22120551.260    22120551.479                   -12978370.304 8 -12978370.297 7                 -10113000.918 8       300.000          77.000         217.000                  
G03  23342703.549    23342703.690    23342708.250                    -6600180.320 8  -6600180.320 7                  -5143000.978 8       156.000          74.000         183.000                  
G04  25186104.923    25186103.543    25186111.216                     3216393.810 7   3216393.836 6                   2505701.500 6        55.000          19.000          20.000                  
G08  19691431.557    19691431.063    19691435.580                   -24626326.568 9 -24626326.572 9                 -19189344.857 9       757.000        1384.000        2425.000                  
G10  23443357.959    23443357.542    23443361.636                    -7327976.653 8  -7327976.651 8                  -5710103.092 8       221.000         121.000         286.000                  
G21  20619091.831    20619090.839    20619092.230                   -18351701.900 9 -18351701.903 8                 -14300017.490 8       511.000         249.000         187.000                  
G27  20578277.110    20578276.557    20578280.323                   -19899109.900 9 -19899109.900 9                 -15505802.544 9       587.000         953.000        1447.000                  
G28  23176482.513    23176482.643    23176484.794                    -9657668.497 8  -9657668.508 6                  -7525462.357 7       188.000          49.000          95.000                  
G31  23909167.756    23909166.984    23909168.958                    -4718182.011 8  -4718182.008 7                  -3676516.087 8       202.000          89.000         216.000                  
G32  20953697.551    20953697.484    20953700.680                   -19136164.934 9 -19136164.936 9                 -14911289.346 9       603.000         910.000        1021.000                  
> 2024 10 31 21 18 10.0000000  0 10
G02  22069832.441    22069831.115    22069831.328                   -13244905.753 8 -13244905.753 7                 -10320690.707 8       302.000          76.000         234.000                  
G03  23351803.765    23351803.120    23351807.233                    -6552362.667 8  -6552362.677 7                  -5105740.356 8       162.000          64.000         192.000                  
G04  25245963.671    25245963.586    25245968.942                     3530956.738 7   3530956.753 6                   2750815.136 6        56.000          20.000          16.000                  
G08  19714319.107    19714318.648    19714323.159                   -24506051.139 9 -24506051.142 9                 -19095623.704 9       739.000        1310.000        2392.000                  
G10  23394849.886    23394849.816    23394853.755                    -7582886.598 8  -7582886.594 8                  -5908734.006 8       223.000         128.000         301.000                  
G21  20570682.008    20570680.845    20570682.084                   -18606098.052 9 -18606098.054 8                 -14498248.117 8       533.000         271.000         198.000                  
G27  20635118.833    20635118.414    20635122.315                   -19600403.610 9 -19600403.611 9                 -15273044.417 9       566.000         868.000        1493.000                  
G28  23191232.678    23191232.185    23191234.637                    -9580158.145 8  -9580158.136 6                  -7465064.632 7       188.000          46.000          92.000                  
G31  23956695.336    23956695.057    23956697.141                    -4468420.205 8  -4468420.210 7                  -3481896.508 8       195.000          91.000         211.000                  
G32  20916164.725    20916164.468    20916167.626                   -19333401.593 9 -19333401.596 9                 -15064980.132 9       610.000         924.000        1083.000                  
> 2024 10 31 21 18 20.0000000  0 10
G02  22019633.861    22019632.277    22019632.430                   -13508702.215 8 -13508702.214 7                 -10526246.217 8       298.000          79.000         239.000                  
G03  23361211.435    23361210.853    23361215.435                    -6502922.197 8  -6502922.198 7                  -5067215.189 8       160.000          66.000         192.000                  
G04  25305865.842    25305861.938    25305864.539                     3845723.306 7   3845723.332 6                   2996062.127 6        55.000          20.000          14.000                  
G08  19738334.634    19738333.918    19738338.265                   -24379850.433 9 -24379850.437 9                 -18997285.458 9       736.000        1303.000        2285.000                  
G10  23346706.064    23346705.715    23346709.632                    -7835884.823 8  -7835884.824 8                  -6105875.284 8       227.000         127.000         310.000                  
G21  20523016.208    20523015.039    20523016.121                   -18856582.968 9 -18856582.969 8                 -14693431.027 8       553.000         287.000         193.000                  
G27  20692766.412    20692765.945    20692769.872                   -19297464.166 9 -19297464.166 9                 -15036987.727 9       537.000         804.000        1522.000                  
G28  23206248.942    23206248.489    23206250.637                    -9501245.623 8  -9501245.625 6                  -7403574.307 7       187.000          44.000          93.000                  
G31  24004362.641    24004362.442    24004364.189                    -4217927.778 8  -4217927.779 7                  -3286707.617 8       190.000          83.000         206.000                  
G32  20879149.732    20879149.427    20879152.610                   -19527916.367 9 -19527916.370 9                 -15216549.967 9       614.000         944.000        1148.000                  
> 2024 10 31 21 18 30.0000000  0 10
G02  21969965.442    21969964.190    21969964.531                   -13769707.793 8 -13769707.793 7                 -10729627.017 8       285.000          72.000         260.000                  
G03  23370927.486    23370927.195    23370931.985                    -6451862.386 8  -6451862.390 7                  -5027428.208 8       158.000          64.000         197.000                  
G04  25365794.184    25365793.190    25365794.648                     4160663.561 6   4160663.558 6                   3241431.424 6        49.000          18.000          15.000                  
G08  19763469.426    19763468.874    19763473.255                   -24247765.098 9 -24247765.102 9                 -18894361.783 9       735.000        1302.000        2192.000                  
G10  23298930.737    23298930.225    23298934.094                    -8086945.403 8  -8086945.401 8                  -6301506.702 8       234.000         127.000         320.000                  
G21  20476105.491    20476104.402    20476105.451                   -19103100.538 9 -19103100.538 8                 -14885522.517 8       580.000         307.000         195.000                  
G27  20751204.117    20751203.650    20751207.601                   -18990371.914 9 -18990371.915 9                 -14797695.084 9       517.000         728.000        1515.000                  
G28  23221529.472    23221528.871    23221531.274                    -9420947.379 8  -9420947.382 6                  -7341004.186 7       189.000          46.000          87.000                  
G31  24052162.854    24052162.283    24052164.026                    -3966738.236 8  -3966738.239 7                  -3090975.529 8       182.000          75.000         205.000                  
G32  20842657.016    20842656.638    20842659.802                   -19719686.386 9 -19719686.388 9                 -15365981.031 9       614.000         953.000        1195.000                  
> 2024 10 31 21 18 40.0000000  0  9
G02  21920842.957    21920841.714    21920842.014                   -14027847.500 8 -14027847.490 7                 -10930774.660 8       272.000          61.000         267.000                  
G03  23380955.392    23380955.497    23380959.864                    -6399163.811 8  -6399163.809 7                  -4986364.268 8       157.000          69.000         195.000                  
G08  19789720.647    19789720.107    19789724.361                   -24109814.298 9 -24109814.302 9                 -18786867.609 9       755.000        1363.000        2137.000                  
G10  23251533.853    23251532.805    23251536.539                    -8336019.427 8  -8336019.431 8                  -6495590.154 8       233.000         132.000         323.000                  
G21  20429964.616    20429963.452    20429964.223                   -19345571.921 9 -19345571.922 8                 -15074461.126 8       599.000         335.000         211.000                  
G27  20810421.202    20810420.645    20810424.636                   -18679184.389 9 -18679184.390 9                 -14555211.311 9       504.000         695.000        1497.000                  
G28  23237074.647    23237073.936    23237076.126                    -9339256.854 8  -9339256.841 6                  -7277349.195 7       186.000          48.000          89.000                  
G31  24100092.203    24100092.738    24100094.753                    -3714861.876 8  -3714861.875 7                  -2894708.269 8       173.000          72.000         195.000                  
G32  20806695.172    20806694.927    20806698.119                   -19908665.936 9 -19908665.939 9                 -15513237.704 9       628.000         994.000        1237.000                  
> 2024 10 31 21 18 50.0000000  0  9
G02  21872273.947    21872273.067    21872273.473                   -14283077.221 8 -14283077.208 7                 -11129654.789 8       269.000          59.000         262.000                  
G03  23391294.024    23391293.281    23391297.725                    -6344837.948 8  -6344837.952 7                  -4944032.312 8       152.000          60.000         196.000                  
G08  19817078.148    19817077.590    19817081.922                   -23966049.494 9 -23966049.497 9                 -18674843.037 9       748.000        1332.000        2169.000                  
G10  23204517.374    23204516.919    23204520.613                    -8583088.907 8  -8583088.908 8                  -6688111.617 8       233.000         129.000         342.000                  
G21  20384603.039    20384601.886    20384602.681                   -19583948.991 9 -19583948.994 8                 -15260209.370 8       629.000         368.000         210.000                  
G27  20870400.538    20870400.159    20870404.148                   -18363990.114 8 -18363990.116 9                 -14309605.392 9       486.000         644.000        1420.000                  
G28  23252879.679    23252879.273    23252881.714                    -9256198.249 8  -9256198.254 6                  -7212628.151 7       185.000          47.000          83.000                  
G31  24148146.157    24148146.004    24148148.047                    -3462339.497 8  -3462339.507 7                  -2697937.628 8       167.000          64.000         182.000                  
G32  20771267.480    20771267.153    20771270.138                   -20094840.328 9 -20094840.331 9                 -15658308.537 9       638.000        1036.000        1276.000                  
> 2024 10 31 21 19  0.0000000  0  9
G02  21824271.509    21824269.955    21824270.254                   -14535333.617 8 -14535333.629 7                 -11326218.040 8       265.000          55.000         265.000                  
G03  23401942.271    23401942.075    23401946.438                    -6288877.081 8  -6288877.088 7                  -4900426.328 8       151.000          59.000         189.000                  
G08  19845535.558    19845535.134    19845539.381                   -23816504.364 9 -23816504.368 9                 -18558314.318 9       749.000        1348.000        2167.000                  
G10  23157890.051    23157889.572    23157893.283                    -8828116.538 8  -8828116.532 8                  -6879042.038 8       231.000         135.000         364.000                  
G21  20340033.162    20340031.872    20340032.741                   -19818165.232 9 -19818165.233 8                 -15442715.422 8       612.000         350.000         204.000                  
G27  20931129.185    20931128.837    20931132.834                   -18044858.470 8 -18044858.471 9                 -14060931.395 9       469.000         599.000        1330.000                  
G28  23268945.274    23268944.359    23268946.522                    -9171776.451 8  -9171776.450 6                  -7146844.863 7       182.000          46.000          82.000                  
G31  24196318.639    24196318.478    24196320.338                    -3209192.326 8  -3209192.336 7                  -2500680.140 8       161.000          58.000         176.000                  
G32  20736379.664    20736379.396    20736382.602                   -20278175.732 9 -20278175.732 9                 -15801167.177 9       646.000        1043.000        1311.000                  
> 2024 10 31 21 19 10.0000000  0  9
G02  21776842.440    21776841.517    21776842.104                   -14784570.914 8 -14784570.926 7                 -11520428.753 8       262.000          57.000         253.000                  
G03  23412900.801    23412900.167    23412904.667                    -6231291.082 8  -6231291.080 7                  -4855554.003 8       146.000          56.000         175.000                  
G08  19875083.066    19875082.432    19875086.820                   -23661231.502 9 -23661231.505 9                 -18437322.435 9       738.000        1280.000        2117.000                  
G10  23111654.775    23111654.155    23111658.251                    -9071082.640 8  -9071082.643 8                  -7068366.079 8       227.000         127.000         374.000                  
G21  20296264.004    20296262.586    20296263.679                   -20048172.209 9 -20048172.209 8                 -15621941.523 8       577.000         303.000         208.000                  
G27  20992590.921    20992590.261    20992594.283                   -17721876.347 8 -17721876.349 9                 -13809257.026 9       451.000         559.000        1208.000                  
G28  23285263.986    23285264.321    23285266.861                    -9086013.825 8  -9086013.847 6                  -7080016.777 7       180.000          45.000          81.000                  
G31  24244601.974    24244602.007    24244604.310                    -2955458.869 8  -2955458.864 7                  -2302965.814 8       155.000          55.000         164.000                  
G32  20702035.463    20702035.100    20702038.220                   -20458656.023 9 -20458656.024 9                 -15941801.058 9       656.000        1079.000        1308.000                  
> 2024 10 31 21 19 20.0000000  0  9
G02  21730001.957    21730000.396    21730000.854                   -15030721.077 8 -15030721.081 7                 -11712233.911 8       272.000          52.000         262.000                  
G03  23424169.906    23424169.815    23424174.429                    -6172067.505 8  -6172067.507 7                  -4809405.651 8       143.000          61.000         182.000                  
G08  19905714.284    19905713.814    19905718.113                   -23500262.461 9 -23500262.465 9                 -18311891.976 9       721.000        1249.000        2215.000                  
G10  23065819.904    23065819.679    23065823.332                    -9311945.157 8  -9311945.157 8                  -7256050.976 8       232.000         132.000         419.000                  
G21  20253309.403    20253308.191    20253309.274                   -20273899.130 9 -20273899.130 8                 -15797832.518 8       585.000         322.000         248.000                  
G27  21054772.613    21054772.069    21054776.174                   -17395108.364 8 -17395108.364 9                 -13554632.637 9       433.000         520.000        1209.000                  
G28  23301840.135    23301839.164    23301842.053                    -8998910.296 8  -8998910.293 6                  -7012143.809 7       180.000          35.000          76.000                  
G31  24292994.871    24292994.756    24292996.956                    -2701154.961 8  -2701154.954 7                  -2104806.991 8       153.000          57.000         164.000                  
G32  20668241.784    20668241.418    20668244.479                   -20636242.912 9 -20636242.914 9                 -16080180.342 9       679.000        1156.000        1398.000                  
> 2024 10 31 21 19 30.0000000  0  9
G02  21683756.897    21683755.168    21683756.076                   -15273739.565 8 -15273739.562 7                 -11901598.811 8       279.000          61.000         265.000                  
G03  23435749.356    23435749.378    23435753.795                    -6111217.477 8  -6111217.487 7                  -4761989.927 8       141.000          51.000         181.000                  
G08  19937418.824    19937418.326    19937422.696                   -23333653.675 9 -23333653.678 9                 -18182066.908 9       705.000        1188.000        2225.000                  
G10  23020388.797    23020388.677    23020392.620                    -9550685.581 8  -9550685.584 8                  -7442082.305 8       235.000         134.000         463.000                  
G21  20211178.125    20211176.953    20211178.140                   -20495299.323 9 -20495299.323 8                 -15970352.033 8       602.000         335.000         267.000                  
G27  21117658.370    21117657.659    21117661.788                   -17064642.529 8 -17064642.530 8                 -13297126.811 9       422.000         485.000        1191.000                  
G28  23318666.365    23318665.548    23318667.926                    -8910489.193 8  -8910489.189 6                  -6943244.151 7       180.000          45.000          83.000                  
G31  24341488.624    24341488.358    24341490.326                    -2446319.563 8  -2446319.572 7                  -1906234.013 8       149.000          52.000         154.000                  
G32  20635001.355    20635001.034    20635004.053                   -20810921.752 9 -20810921.754 9                 -16216293.611 9       696.000        1211.000        1456.000                  
> 2024 10 31 21 19 40.0000000  0  9
G02  21638120.947    21638119.401    21638119.761                   -15513559.089 8 -15513559.086 7                 -12088471.020 8       291.000          71.000         264.000                  
G03  23447640.261    23447639.683    23447644.735                    -6048729.289 8  -6048729.290 7                  -4713297.707 8       138.000          58.000         186.000                  
G08  19970190.101    19970189.469    19970193.878                   -23161439.915 9 -23161439.919 9                 -18047874.326 9       683.000        1112.000        2236.000                  
G10  22975370.048    22975369.435    22975373.263                    -9787262.506 8  -9787262.506 8                  -7626427.793 9       244.000         144.000         501.000                  
G21  20169883.299    20169882.304    20169883.385                   -20712303.796 9 -20712303.798 8                 -16139446.313 8       621.000         361.000         286.000                  
G27  21181234.921    21181234.483    21181238.634                   -16730543.967 8 -16730543.967 8                 -13036790.282 9       406.000         446.000        1171.000                  
G28  23335742.229    23335741.932    23335744.418                    -8820750.929 8  -8820750.934 6                  -6873318.125 7       179.000          40.000          88.000                  
G31  24390080.531    24390079.732    24390082.104                    -2190968.496 8  -2190968.488 7                  -1707259.210 8       146.000          53.000         155.000                  
G32  20602321.501    20602321.091    20602324.136                   -20982655.236 9 -20982655.237 9                 -16350111.801 9       714.000        1295.000        1508.000                  
> 2024 10 31 21 19 50.0000000  0  9
G02  21593101.665    21593100.285    21593100.479                   -15750135.433 8 -15750135.438 7                 -12272816.069 8       302.000          75.000         261.000                  
G03  23459840.742    23459840.500    23459845.391                    -5984614.289 8  -5984614.293 6                  -4663337.834 8       139.000          50.000         189.000                  
G08  20004016.434    20004015.813    20004020.375                   -22983680.197 9 -22983680.201 9                 -17909360.218 9       645.000        1000.000        2143.000                  
G10  22930765.723    22930765.523    22930769.122                   -10021657.617 8 -10021657.615 8                  -7809073.168 9       253.000         162.000         532.000                  
G21  20129434.094    20129432.817    20129433.833                   -20924867.175 9 -20924867.177 8                 -16305080.000 8       637.000         372.000         297.000                  
G27  21245486.390    21245485.749    21245490.110                   -16392900.671 8 -16392900.671 8                 -12773691.620 9       380.000         408.000        1104.000                  
G28  23353065.158    23353064.764    23353066.824                    -8729718.816 8  -8729718.825 6                  -6802383.908 7       178.000          46.000          84.000                  
G31  24438763.478    24438762.560    24438764.852                    -1935140.213 8  -1935140.214 7                  -1507912.545 8       146.000          56.000         148.000                  
G32  20570204.811    20570204.418    20570207.399                   -21151429.232 9 -21151429.233 9                 -16481623.894 9       732.000        1353.000        1544.000                  
> 2024 10 31 21 20  0.0000000  0  9
G02  21548712.018    21548711.093    21548711.226                   -15983401.816 8 -15983401.814 7                 -12454581.933 8       300.000          77.000         260.000                  
G03  23472352.408    23472352.801    23472357.268                    -5918861.136 8  -5918861.144 6                  -4612101.479 8       138.000          50.000         180.000                  
G08  20038891.204    20038890.569    20038895.111                   -22800412.038 9 -22800412.041 9                 -17766553.813 9       650.000        1033.000        2019.000                  
G10  22886584.735    22886584.445    22886588.027                   -10253829.928 8 -10253829.930 8                  -7989986.499 9       262.000         163.000         561.000                  
G21  20089842.503    20089841.402    20089842.172                   -21132921.815 9 -21132921.816 8                 -16467200.382 8       658.000         392.000         312.000                  
G27  21310399.835    21310399.381    21310403.681                   -16051777.738 8 -16051777.740 8                 -12507881.532 9       355.000         357.000        1039.000                  
G28  23370634.216    23370633.924    23370635.539                    -8637393.302 8  -8637393.296 6                  -6730441.844 7       174.000          39.000          88.000                  
G31  24487532.449    24487532.630    24487535.324                    -1678850.237 8  -1678850.235 6                  -1308206.115 8       145.000          45.000         136.000                  
G32  20538658.032    20538657.861    20538660.867                   -21317207.085 9 -21317207.087 9                 -16610801.330 9       740.000        1374.000        1598.000                  
> 2024 10 31 21 20 10.0000000  0  9
G02  21504961.430    21504960.072    21504960.065                   -16213314.099 8 -16213314.107 7                 -12633734.214 8       314.000          86.000         254.000                  
G03  23485175.507    23485174.758    23485179.294                    -5851481.176 8  -5851481.177 7                  -4559597.477 8       136.000          56.000         193.000                  
G08  20074802.539    20074801.892    20074806.308                   -22611696.696 9 -22611696.699 9                 -17619502.849 9       648.000        1020.000        1875.000                  
G10  22842829.913    22842829.707    22842833.448                   -10483761.045 8 -10483761.043 8                  -8169153.447 9       266.000         183.000         591.000                  
G21  20051117.502    20051115.983    20051117.252                   -21336423.374 9 -21336423.374 8                 -16625772.914 8       660.000         392.000         342.000                  
G27  21375958.929    21375958.317    21375962.585                   -15707262.785 8 -15707262.784 8                 -12239428.308 9       338.000         316.000        1015.000                  
G28  23388444.317    23388444.031    23388446.561                    -8543797.358 8  -8543797.361 6                  -6657509.833 7       172.000          45.000          82.000                  
G31  24536384.555    24536383.970    24536386.564                    -1422136.290 8  -1422136.291 6                  -1108169.320 8       141.000          49.000         139.000                  
G32  20507684.419    20507684.096    20507687.094                   -21479974.947 9 -21479974.949 9                 -16737633.321 9       755.000        1416.000        1707.000                  
> 2024 10 31 21 20 20.0000000  0  9
G02  21461861.382    21461859.897    21461859.953                   -16439806.239 8 -16439806.234 7                 -12810221.465 8       332.000          90.000         240.000                  
G03  23498308.286    23498308.158    23498312.949                    -5782463.613 8  -5782463.589 6                  -4505817.426 8       134.000          44.000         178.000                  
G08  20111742.681    20111742.217    20111746.473                   -22417574.381 9 -22417574.385 9                 -17468238.665 9       666.000        1066.000        1751.000                  
G10  22799510.256    22799509.510    22799513.086                   -10711410.573 8 -10711410.572 8                  -8346542.542 9       270.000         189.000         619.000                  
G21  20013271.034    20013269.821    20013270.965                   -21535305.891 9 -21535305.892 8                 -16780746.183 8       674.000         430.000         375.000                  
G27  21442150.922    21442150.399    21442154.703                   -15359421.027 8 -15359421.029 8                 -11968382.759 9       323.000         291.000         993.000                  
G28  23406495.878    23406496.827    23406498.868                    -8448931.705 8  -8448931.706 6                  -6583588.439 7       170.000          43.000          85.000                  
G31  24585313.108    24585312.734    24585315.236                    -1165013.593 8  -1165013.572 6                   -907814.004 8       131.000          43.000         137.000                  
G32  20477290.188    20477289.879    20477292.911                   -21639697.077 9 -21639697.079 9                 -16862092.021 9       756.000        1426.000        1762.000                  
> 2024 10 31 21 20 30.0000000  0  9
G02  21419420.085    21419418.837    21419418.680                   -16662834.726 8 -16662834.723 7                 -12984009.777 8       344.000          99.000         253.000                  
G03  23511751.447    23511751.097    23511755.796                    -5711819.930 8  -5711819.923 7                  -4450770.270 8       131.000          55.000         171.000                  
G08  20149699.766    20149699.279    20149703.548                   -22218108.604 9 -22218108.609 9                 -17312810.749 9       666.000        1065.000        1663.000                  
G10  22756627.026    22756626.774    22756630.306                   -10936760.340 8 -10936760.337 8                  -8522139.626 9       279.000         196.000         645.000                  
G21  19976312.324    19976311.064    19976311.957                   -21729526.259 9 -21729526.259 8                 -16932086.624 8       711.000         471.000         400.000                  
G27  21508959.487    21508958.902    21508963.240                   -15008339.700 8 -15008339.701 8                 -11694812.866 9       305.000         249.000         963.000                  
G28  23424786.692    23424785.946    23424788.513                    -8352819.174 8  -8352819.162 6                  -6508695.453 7       169.000          41.000          84.000                  
G31  24634311.805    24634312.476    24634314.809                     -907519.165 8   -907519.152 6                   -707169.014 8       130.000          41.000         129.000                  
G32  20447477.942    20447477.817    20447480.847                   -21796360.154 9 -21796360.155 9                 -16984167.051 9       761.000        1454.000        1803.000                  
> 2024 10 31 21 20 40.0000000  0  9
G02  21377650.724    21377649.219    21377649.283                   -16882334.685 8 -16882334.688 8                 -13155048.590 8       349.000         104.000         256.000                  
G03  23525505.934    23525505.542    23525509.974                    -5639540.143 8  -5639540.156 6                  -4394448.234 8       130.000          42.000         159.000                  
G08  20188665.398    20188664.940    20188669.209                   -22013342.392 9 -22013342.396 9                 -17153252.624 9       661.000        1050.000        1605.000                  
G10  22714189.553    22714189.108    22714192.653                   -11159770.738 8 -11159770.737 8                  -8695913.821 9       285.000         206.000         664.000                  
G21  19940252.528    19940251.306    19940252.386                   -21919020.614 9 -21919020.615 8                 -17079744.466 8       688.000         441.000         435.000                  
G27  21576372.077    21576371.429    21576375.869                   -14654084.302 8 -14654084.304 8                 -11418769.673 9       284.000         231.000         922.000                  
G28  23443312.686    23443312.187    23443314.826                    -8255460.988 8  -8255460.996 6                  -6432831.809 7       167.000          39.000          86.000                  
G31  24683381.033    24683379.755    24683382.126                     -649668.356 8   -649668.341 6                   -506246.313 8       123.000          43.000         122.000                  
G32  20418254.648    20418254.488    20418257.433                   -21949929.563 9 -21949929.566 9                 -17103831.434 9       775.000        1504.000        1849.000                  
> 2024 10 31 21 20 50.0000000  0  9
G02  21336560.873    21336559.607    21336559.144                   -17098263.620 8 -17098263.628 8                 -13323304.785 8       360.000         111.000         266.000                  
G03  23539569.061    23539569.024    23539573.515                    -5565636.434 8  -5565636.418 6                  -4336860.811 8       129.000          49.000         145.000                  
G08  20228627.146    20228626.728    20228630.888                   -21803341.884 9 -21803341.888 9                 -16989615.827 9       655.000        1034.000        1528.000                  
G10  22672200.339    22672200.236    22672203.621                   -11380424.411 8 -11380424.411 8                  -8867851.625 9       291.000         211.000         688.000                  
G21  19905099.926    19905098.735    19905099.863                   -22103748.013 9 -22103748.016 8                 -17223687.806 8       680.000         420.000         459.000                  
G27  21644371.764    21644371.421    21644375.896                   -14296742.128 8 -14296742.128 8                 -11140321.203 9       268.000         196.000         848.000                  
G28  23462071.984    23462072.227    23462073.621                    -8156880.367 8  -8156880.369 6                  -6356015.630 7       169.000          46.000          84.000                  
G31  24732508.463    24732508.354    24732510.419                     -391498.241 8   -391498.247 6                   -305074.809 8       119.000          37.000         120.000                  
G32  20389622.376    20389622.065    20389625.017                   -22100393.086 9 -22100393.088 9                 -17221075.654 9       781.000        1536.000        1869.000                  
> 2024 10 31 21 21  0.0000000  0  9
G02  21296162.503    21296161.312    21296160.960                   -17310556.798 8 -17310556.801 8                 -13488727.937 8       377.000         115.000         280.000                  
G03  23553943.530    23553943.048    23553947.398                    -5490098.561 8  -5490098.547 6                  -4278000.017 8       127.000          42.000         146.000                  
G08  20269576.715    20269576.156    20269580.170                   -21588151.683 9 -21588151.687 9                 -16821935.113 9       660.000        1054.000        1520.000                  
G10  22630667.756    22630667.085    22630670.680                   -11598681.558 8 -11598681.559 8                  -9037922.015 9       298.000         221.000         706.000                  
G21  19870866.479    19870865.220    19870866.224                   -22283645.728 9 -22283645.731 8                 -17363867.766 8       673.000         422.000         435.000                  
G27  21712946.969    21712946.559    21712950.893                   -13936377.721 8 -13936377.722 8                 -10859517.759 9       250.000         172.000         787.000                  
G28  23481063.670    23481063.473    23481065.476                    -8057077.928 8  -8057077.929 6                  -6278247.398 7       168.000          43.000          80.000                  
G31  24781694.446    24781693.962    24781696.077                     -133023.039 8   -133023.042 6                   -103665.560 8       116.000          32.000         111.000                  
G32  20361587.736    20361587.402    20361590.276                   -22247716.260 9 -22247716.263 9                 -17335872.857 9       790.000        1572.000        1890.000                  
> 2024 10 31 21 21 10.0000000  0  9
G02  21256463.760    21256462.815    21256462.416                   -17519174.171 8 -17519174.172 8                 -13651286.825 8       395.000         130.000         296.000                  
G03  23568625.616    23568625.289    23568629.883                    -5412940.717 8  -5412940.719 6                  -4217876.914 8       133.000          40.000         127.000                  
G08  20311500.309    20311499.641    20311503.851                   -21367841.708 9 -21367841.712 9                 -16650264.972 9       626.000         942.000        1607.000                  
G10  22589593.521    22589592.892    22589596.454                   -11814526.933 8 -11814526.934 8                  -9206113.110 9       306.000         228.000         719.000                  
G21  19837559.168    19837557.994    19837558.924                   -22458676.329 9 -22458676.330 8                 -17500255.180 8       684.000         429.000         440.000                  
G27  21782080.578    21782079.881    21782084.163                   -13573079.698 8 -13573079.698 8                 -10576428.382 9       240.000         161.000         703.000                  
G28  23500283.066    23500282.650    23500285.264                    -7956078.623 8  -7956078.633 6                  -6199546.544 7       169.000          41.000          92.000                  
G31  24830930.762    24830930.863    24830933.229                      125718.893 8    125718.891 6                     97951.534 8       113.000          31.000         106.000                  
G32  20334152.483    20334152.137    20334154.969                   -22391889.356 9 -22391889.357 9                 -17448215.458 9       800.000        1613.000        1918.000                  
> 2024 10 31 21 21 20.0000000  0  9
G02  21217477.873    21217476.742    21217476.374                   -17724046.706 8 -17724046.710 8                 -13810927.659 8       410.000         131.000         312.000                  
G03  23583618.995    23583619.589    23583623.744                    -5334147.731 8  -5334147.728 7                  -4156479.687 8       132.000          51.000         126.000                  
G08  20354390.092    20354389.457    20354393.825                   -21142453.315 9 -21142453.319 9                 -16474637.633 9       582.000         821.000        1619.000                  
G10  22548987.062    22548986.456    22548989.828                   -12027915.947 8 -12027915.947 8                  -9372390.163 9       311.000         229.000         739.000                  
G21  19805190.621    19805189.496    19805190.430                   -22628773.689 9 -22628773.692 8                 -17632798.518 8       701.000         460.000         460.000                  
G27  21851760.672    21851760.416    21851764.479                   -13206906.859 8 -13206906.859 8                 -10291098.904 9       229.000         151.000         623.000                  
G28  23519731.309    23519731.098    23519732.998                    -7853877.825 8  -7853877.810 6                  -6119909.476 7       169.000          44.000          85.000                  
G31  24880216.426    24880217.002    24880219.495                      384718.957 8    384718.950 6                    299769.753 8       107.000          35.000         110.000                  
G32  20307323.958    20307323.674    20307326.533                   -22532873.410 9 -22532873.412 9                 -17558073.099 9       812.000        1641.000        1992.000                  
> 2024 10 31 21 21 30.0000000  0  9
G02  21179210.947    21179209.822    21179209.376                   -17925140.958 8 -17925140.955 8                 -13967624.380 8       419.000         140.000         322.000                  
G03  23598920.779    23598920.769    23598924.972                    -5253739.803 8  -5253739.797 6                  -4093824.066 8       134.000          45.000         122.000                  
G08  20398231.577    20398231.060    20398235.392                   -20912064.009 9 -20912064.013 9                 -16295113.479 9       562.000         754.000        1586.000                  
G10  22508849.581    22508848.936    22508852.275                   -12238839.458 8 -12238839.456 8                  -9536746.055 9       315.000         238.000         761.000                  
G21  19773766.775    19773765.539    19773766.376                   -22793907.876 9 -22793907.877 8                 -17761474.449 8       731.000         500.000         466.000                  
G27  21921971.162    21921969.853    21921973.953                   -12837953.006 8 -12837952.999 8                 -10003602.417 9       213.000         127.000         548.000                  
G28  23539402.228    23539402.119    23539404.114                    -7750506.076 8  -7750506.067 6                  -6039359.983 7       171.000          36.000          93.000                  
G31  24929544.878    24929543.740    24929546.228                      643933.624 8    643933.626 6                    501755.196 8       106.000          30.000         101.000                  
G32  20281103.069    20281102.693    20281105.646                   -22670665.116 9 -22670665.116 9                 -17665443.193 9       812.000        1650.000        2059.000                  
> 2024 10 31 21 21 40.0000000  0  9
G02  21141676.321    21141675.132    21141674.592                   -18122387.128 8 -18122387.127 8                 -14121322.609 8       437.000         154.000         333.000                  
G03  23614532.506    23614531.917    23614535.994                    -5171700.414 8  -5171700.406 7                  -4029897.187 8       138.000          52.000         120.000                  
G08  20443017.040    20443016.400    20443020.767                   -20676715.330 9 -20676715.332 9                 -16111724.880 9       545.000         719.000        1571.000                  
G10  22469189.749    22469189.245    22469192.715                   -12447251.671 8 -12447251.672 8                  -9699145.090 9       315.000         245.000         772.000                  
G21  19743299.349    19743298.243    19743299.297                   -22954013.211 9 -22954013.211 8                 -17886231.789 8       713.000         474.000         485.000                  
G27  21992698.806    21992697.914    21992702.144                   -12466274.760 8 -12466274.757 8                  -9713983.028 8       203.000         112.000         497.000                  
G28  23559297.320    23559297.028    23559299.029                    -7645957.091 8  -7645957.090 6                  -5957893.179 7       172.000          44.000          85.000                  
G31  24978910.325    24978910.305    24978912.844                      903356.455 8    903356.452 6                    703902.825 7       103.000          34.000          95.000                  
G32  20255497.007    20255496.810    20255499.755                   -22805224.706 9 -22805224.708 9                 -17770294.759 9       817.000        1680.000        2127.000                  
> 2024 10 31 21 21 50.0000000  0  9
G02  21104880.300    21104879.090    21104878.500                   -18315751.287 8 -18315751.291 8                 -14271995.892 8       442.000         160.000         353.000                  
G03  23630450.563    23630450.130    23630454.772                    -5088048.606 8  -5088048.616 7                  -3964713.877 8       141.000          51.000         117.000                  
G08  20488731.293    20488730.792    20488735.135                   -20436485.047 9 -20436485.051 9                 -15924532.443 9       556.000         738.000        1491.000                  
G10  22430009.814    22430009.444    22430012.793                   -12653142.465 8 -12653142.467 8                  -9859579.384 9       314.000         244.000         784.000                  
G21  19713795.099    19713793.820    19713794.765                   -23109060.271 9 -23109060.273 8                 -18007047.604 8       727.000         488.000         491.000                  
G27  22063927.721    22063927.089    22063931.255                   -12091963.862 8 -12091963.857 8                  -9422312.232 8       184.000         102.000         469.000                  
G28  23579410.831    23579409.921    23579412.700                    -7540259.931 8  -7540259.939 6                  -5875531.689 7       171.000          46.000          79.000                  
G31  25028309.372    25028308.862    25028311.309                     1162945.958 7   1162945.953 6                    906180.331 7        99.000          29.000          94.000                  
G32  20230507.036    20230506.708    20230509.605                   -22936548.229 9 -22936548.230 9                 -17872624.711 9       819.000        1690.000        2160.000                  
> 2024 10 31 21 22  0.0000000  0  9
G02  21068834.787    21068833.598    21068833.302                   -18505169.713 8 -18505169.711 8                 -14419594.575 8       452.000         174.000         348.000                  
G03  23646677.918    23646677.952    23646681.367                    -5002773.110 8  -5002773.132 6                  -3898265.358 8       142.000          48.000         112.000                  
G08  20535365.409    20535364.909    20535369.109                   -20191421.298 9 -20191421.302 9                 -15733573.669 9       550.000         739.000        1346.000                  
G10  22391317.709    22391317.174    22391320.454                   -12856471.514 8 -12856471.513 8                 -10018017.520 9       311.000         242.000         794.000                  
G21  19685264.382    19685262.932    19685263.889                   -23258990.631 9 -23258990.632 8                 -18123876.392 9       727.000         489.000         503.000                  
G27  22135645.510    22135644.942    22135649.650                   -11715081.252 8 -11715081.260 7                  -9128637.506 8       162.000          75.000         435.000                  
G28  23599743.327    23599742.023    23599744.715                    -7433413.210 8  -7433413.214 6                  -5792274.443 7       172.000          38.000          79.000                  
G31  25077737.798    25077736.273    25077739.337                     1422691.190 7   1422691.179 6                   1108579.187 7        96.000          29.000          86.000                  
G32  20206139.052    20206138.890    20206141.754                   -23064601.694 9 -23064601.695 9                 -17972406.563 9       828.000        1708.000        2195.000                  
> 2024 10 31 21 22 10.0000000  0  9
G02  21033547.933    21033546.625    21033546.244                   -18690604.109 8 -18690604.109 8                 -14564088.819 8       469.000         182.000         359.000                  
G03  23663212.136    23663211.337    23663215.524                    -4915887.899 8  -4915887.907 6                  -3830562.513 8       151.000          47.000         111.000                  
G08  20582905.190    20582904.692    20582908.731                   -19941598.007 9 -19941598.012 9                 -15538906.166 9       540.000         701.000        1232.000                  
G10  22353115.612    22353115.193    22353118.546                   -13057223.777 8 -13057223.777 8                 -10174447.772 9       309.000         240.000         826.000                  
G21  19657713.264    19657712.042    19657712.855                   -23403771.837 9 -23403771.837 8                 -18236692.862 9       720.000         485.000         525.000                  
G27  22207836.497    22207836.155    22207841.216                   -11335712.557 8 -11335712.546 7                  -8833025.579 8       146.000          64.000         402.000                  
G28  23620289.863    23620289.181    23620291.131                    -7325440.533 8  -7325440.535 6                  -5708139.827 7       176.000          46.000          81.000                  
G31  25127187.082    25127187.344    25127189.981                     1682556.482 7   1682556.472 6                   1311071.590 7        95.000          30.000          83.000                  
G32  20182395.210    20182394.956    20182397.784                   -23189376.604 9 -23189376.605 9                 -18069633.697 9       838.000        1763.000        2238.000                  
> 2024 10 31 21 22 20.0000000  0  9
G02  20999030.526    20999029.163    20999028.826                   -18871993.801 8 -18871993.803 8                 -14705431.357 8       482.000         186.000         356.000                  
G03  23680053.837    23680053.518    23680057.339                    -4827383.857 8  -4827383.856 7                  -3761598.250 8       147.000          59.000         108.000                  
G08  20631340.783    20631340.363    20631344.355                   -19687066.662 9 -19687066.666 9                 -15340570.047 9       526.000         673.000        1122.000                  
G10  22315411.355    22315410.725    22315414.183                   -13255361.326 8 -13255361.325 8                 -10328840.582 9       310.000         239.000         865.000                  
G21  19631152.382    19631151.090    19631152.103                   -23543349.281 9 -23543349.283 8                 -18345454.461 9       715.000         473.000         540.000                  
G27  22280489.499    22280488.944    22280493.914                   -10953919.855 8 -10953919.850 6                  -8535524.814 8       138.000          49.000         356.000                  
G28  23641050.440    23641049.849    23641051.734                    -7216342.352 8  -7216342.354 6                  -5623128.200 7       178.000          45.000          77.000                  
G31  25176659.249    25176658.728    25176661.442                     1942529.495 7   1942529.506 6                   1513647.922 7        96.000          30.000          75.000                  
G32  20159281.144    20159280.921    20159283.725                   -23310841.702 9 -23310841.704 9                 -18164281.758 9       852.000        1821.000        2271.000                  
> 2024 10 31 21 22 30.0000000  0  9
G02  20965289.584    20965288.494    20965287.715                   -19049303.477 8 -19049303.477 8                 -14843594.663 8       499.000         203.000         327.000                  
G03  23697200.442    23697200.261    23697203.585                    -4737276.957 8  -4737276.971 7                  -3691385.008 8       145.000          55.000         105.000                  
G08  20680658.026    20680657.310    20680661.346                   -19427904.304 9 -19427904.308 9                 -15138625.349 9       526.000         672.000        1055.000                  
G10  22278206.679    22278206.419    22278209.762                   -13450871.372 8 -13450871.371 8                 -10481185.993 9       311.000         237.000         883.000                  
G21  19605587.222    19605586.167    19605587.011                   -23677694.534 9 -23677694.534 8                 -18450139.024 9       712.000         482.000         601.000                  
G27  22353587.997    22353586.683    22353591.296                   -10569789.730 8 -10569789.731 6                  -8236202.678 8       128.000          48.000         313.000                  
G28  23662020.153    23662020.356    23662021.340                    -7106143.893 8  -7106143.893 6                  -5537259.216 7       175.000          42.000          69.000                  
G31  25226143.201    25226143.266    25226146.123                     2202573.322 7   2202573.332 6                   1716279.437 7        90.000          28.000          82.000                  
G32  20136798.069    20136797.815    20136800.596                   -23428991.046 9 -23428991.047 9                 -18256346.118 9       857.000        1856.000        2302.000                  
> 2024 10 31 21 22 40.0000000  0  9
G02  20932337.276    20932336.046    20932335.097                   -19222468.983 9 -19222468.985 8                 -14978528.749 8       521.000         223.000         300.000                  
G03  23714654.202    23714654.182    23714657.932                    -4645553.796 8  -4645553.793 7                  -3619912.351 8       145.000          59.000         103.000                  
G08  20730846.998    20730846.377    20730850.347                   -19164159.197 9 -19164159.201 9                 -14933109.674 9       535.000         700.000        1021.000                  
G10  22241510.623    22241509.861    22241513.308                   -13643711.953 8 -13643711.952 8                 -10631451.302 9       316.000         237.000         904.000                  
G21  19581028.452    19581027.419    19581028.507                   -23806750.923 9 -23806750.924 8                 -18550702.392 9       708.000         470.000         624.000                  
G27  22427118.911    22427117.978    22427122.701                   -10183378.932 8 -10183378.933 6                  -7935103.392 8       121.000          46.000         281.000                  
G28  23683201.139    23683200.347    23683201.351                    -6994840.980 8  -6994840.977 6                  -5450529.630 7       175.000          44.000          72.000                  
G31  25275640.247    25275640.212    25275642.753                     2462680.743 7   2462680.730 6                   1918960.505 7        88.000          29.000          76.000                  
G32  20114952.646    20114952.284    20114955.100                   -23543789.740 9 -23543789.742 9                 -18345799.585 9       863.000        1873.000        2338.000                  
> 2024 10 31 21 22 50.0000000  0  9
G02  20900178.877    20900177.968    20900176.858                   -19391461.927 9 -19391461.927 8                 -15110211.493 8       548.000         253.000         298.000                  
G03  23732412.338    23732412.198    23732415.711                    -4552236.143 8  -4552236.135 7                  -3547197.229 8       141.000          56.000         105.000                  
G08  20781892.123    20781891.504    20781895.563                   -18895915.127 9 -18895915.132 9                 -14724088.312 9       515.000         636.000         950.000                  
G10  22205323.140    22205322.711    22205326.136                   -13833876.342 8 -13833876.344 8                 -10779631.273 9       325.000         257.000         895.000                  
G21  19557480.308    19557479.066    19557480.056                   -23930497.940 9 -23930497.940 8                 -18647128.584 9       734.000         500.000         626.000                  
G27  22501067.605    22501066.040    22501070.975                    -9794778.773 8  -9794778.770 6                  -7632298.110 8       114.000          45.000         250.000                  
G28  23704585.131    23704585.354    23704586.601                    -6882464.269 8  -6882464.282 6                  -5362963.316 7       172.000          41.000          67.000                  
G31  25325142.196    25325141.296    25325143.747                     2722809.768 7   2722809.738 6                   2121658.389 7        89.000          24.000          67.000                  
G32  20093744.602    20093744.280    20093747.107                   -23655238.281 9 -23655238.282 9                 -18432642.546 9       869.000        1894.000        2404.000                  
> 2024 10 31 21 23  0.0000000  0  9
G02  20868827.091    20868825.966    20868824.620                   -19556217.379 9 -19556217.382 8                 -15238592.289 8       574.000         268.000         309.000                  
G03  23750476.038    23750476.088    23750480.006                    -4457308.718 8  -4457308.721 7                  -3473227.735 7       140.000          51.000          99.000                  
G08  20833784.050    20833783.603    20833787.838                   -18623219.290 8 -18623219.295 9                 -14511598.041 9       489.000         576.000         857.000                  
G10  22169653.789    22169653.334    22169656.503                   -14021321.005 8 -14021321.003 8                 -10925691.980 9       338.000         276.000         896.000                  
G21  19534953.038    19534951.823    19534952.839                   -24048879.222 9 -24048879.225 9                 -18739373.687 9       748.000         519.000         622.000                  
G27  22575421.264    22575420.910    22575425.721                    -9404042.895 8  -9404042.899 6                  -7327828.635 8       113.000          40.000         246.000                  
G28  23726174.712    23726175.048    23726176.816                    -6769007.269 8  -6769007.259 6                  -5274555.230 7       176.000          39.000          72.000                  
G31  25374646.644    25374645.974    25374648.102                     2982955.871 7   2982955.853 6                   2324369.590 7        84.000          27.000          69.000                  
G32  20073180.918    20073180.715    20073183.489                   -23763300.505 9 -23763300.507 9                 -18516846.829 9       876.000        1918.000        2458.000                  
> 2024 10 31 21 23 10.0000000  0  9
G02  20838287.012    20838285.933    20838284.480                   -19716706.473 9 -19716706.475 8                 -15363648.650 8       585.000         273.000         317.000                  
G03  23768842.636    23768842.874    23768846.042                    -4360791.734 8  -4360791.738 7                  -3398019.623 8       142.000          55.000         106.000                  
G08  20886507.832    20886507.290    20886511.518                   -18346154.706 8 -18346154.709 9                 -14295703.543 9       471.000         547.000         841.000                  
G10  22134503.174    22134502.766    22134506.011                   -14206037.969 8 -14206037.968 8                 -11069627.215 9       342.000         283.000         906.000                  
G21  19513450.838    19513449.545    19513450.245                   -24161875.084 9 -24161875.086 9                 -18827422.343 9       768.000         550.000         609.000                  
G27  22650167.028    22650165.162    22650169.939                    -9011259.835 8  -9011259.822 6                  -7021763.967 8       110.000          44.000         228.000                  
G28  23747965.355    23747965.172    23747966.981                    -6654498.758 8  -6654498.758 6                  -5185327.776 7       172.000          43.000          62.000                  
G31  25424146.859    25424145.249    25424147.992                     3243079.376 7   3243079.387 6                   2527063.154 7        81.000          26.000          65.000                  
G32  20053261.885    20053261.584    20053264.362                   -23867975.976 9 -23867975.977 9                 -18598412.083 9       883.000        1967.000        2485.000                  
> 2024 10 31 21 23 20.0000000  0  9
G02  20808570.049    20808568.665    20808567.510                   -19872871.010 9 -19872871.015 8                 -15485335.237 8       588.000         274.000         341.000                  
G03  23787514.094    23787513.222    23787517.229                    -4262675.477 8  -4262675.480 6                  -3321565.338 7       135.000          45.000          99.000                  
G08  20940052.370    20940052.100    20940056.326                   -18064774.850 8 -18064774.855 8                 -14076446.503 9       450.000         478.000         845.000                  
G10  22099879.216    22099878.317    22099881.686                   -14387989.540 8 -14387989.539 8                 -11211407.595 9       350.000         295.000         926.000                  
G21  19492982.277    19492981.170    19492981.877                   -24269437.027 9 -24269437.027 9                 -18911236.782 9       777.000         557.000         591.000                  
G27  22725288.920    22725288.194    22725292.344                    -8616487.670 8  -8616487.677 6                  -6714149.340 8       105.000          37.000         213.000                  
G28  23769956.318    23769956.106    23769957.096                    -6538937.413 8  -6538937.414 6                  -5095279.938 7       174.000          42.000          62.000                  
G31  25473639.474    25473639.921    25473641.795                     3503171.005 7   3503170.977 6                   2729731.884 7        80.000          20.000          63.000                  
G32  20033992.930    20033992.605    20033995.392                   -23969234.718 9 -23969234.720 9                 -18677314.947 9       892.000        1991.000        2496.000                  
> 2024 10 31 21 23 30.0000000  0  9
G02  20779681.399    20779680.251    20779679.084                   -20024680.440 9 -20024680.441 8                 -15603628.247 8       584.000         273.000         360.000                  
G03  23806486.807    23806484.807    23806488.538                    -4162977.325 8  -4162977.319 6                  -3243878.416 7       129.000          48.000          90.000                  
G08  20994403.144    20994402.658    20994406.893                   -17779160.572 8 -17779160.575 8                 -13853889.922 9       427.000         447.000         821.000                  
G10  22065782.937    22065782.441    22065785.629                   -14567165.289 8 -14567165.289 8                 -11351024.993 9       357.000         303.000         912.000                  
G21  19473551.775    19473550.648    19473551.317                   -24371544.855 9 -24371544.857 9                 -18990801.252 9       790.000         581.000         578.000                  
G27  22800773.845    22800773.157    22800777.365                    -8219810.890 8  -8219810.895 6                  -6405050.603 8       106.000          39.000         199.000                  
G28  23792142.635    23792141.698    23792143.701                    -6422348.798 8  -6422348.789 6                  -5004431.640 7       166.000          40.000          59.000                  
G31  25523120.952    25523119.798    25523122.600                     3763194.766 7   3763194.773 6                   2932347.727 7        79.000          23.000          62.000                  
G32  20015374.641    20015374.363    20015377.053                   -24067074.240 9 -24067074.242 9                 -18753553.486 9       907.000        2069.000        2522.000                  
> 2024 10 31 21 23 40.0000000  0  9
G02  20751633.118    20751631.977    20751630.831                   -20172074.991 9 -20172074.993 8                 -15718481.097 8       590.000         285.000         378.000                  
G03  23825760.030    23825760.328    23825763.985                    -4061684.748 8  -4061684.737 6                  -3164949.080 7       127.000          45.000          83.000                  
G08  21049549.918    21049549.145    21049553.697                   -17489363.100 8 -17489363.105 8                 -13628073.711 9       405.000         389.000         853.000                  
G10  22032222.775    22032222.147    22032225.375                   -14743525.096 8 -14743525.093 8                 -11488448.157 9       364.000         315.000         898.000                  
G21  19455168.494    19455167.316    19455167.817                   -24468149.675 9 -24468149.677 9                 -19066077.674 9       794.000         580.000         576.000                  
G27  22876611.767    22876610.506    22876614.706                    -7821283.509 8  -7821283.491 6                  -6094509.846 8       112.000          41.000         184.000                  
G28  23814524.731    23814524.081    23814526.031                    -6304728.400 8  -6304728.405 6                  -4912779.378 7       166.000          40.000          61.000                  
G31  25572586.885    25572586.958    25572589.611                     4023144.884 7   4023144.886 6                   3134906.176 7        77.000          20.000          61.000                  
G32  19997413.087    19997412.880    19997415.522                   -24161462.476 9 -24161462.478 9                 -18827102.720 9       924.000        2155.000        2559.000                  
> 2024 10 31 21 23 50.0000000  0  9
G02  20724429.751    20724428.680    20724427.368                   -20315029.409 9 -20315029.410 8                 -15829874.105 8       591.000         281.000         407.000                  
G03  23845335.296    23845335.117    23845338.801                    -3958818.767 8  -3958818.792 6                  -3084793.727 7       129.000          44.000          83.000                  
G08  21105476.251    21105475.612    21105480.355                   -17195467.406 8 -17195467.409 8                 -13399064.077 9       385.000         365.000         914.000                  
G10  21999199.480    21999199.121    21999202.216                   -14917062.555 8 -14917062.553 8                 -11623672.098 9       360.000         321.000         867.000                  
G21  19437835.041    19437833.813    19437834.365                   -24559237.556 9 -24559237.557 9                 -19137055.194 9       805.000         596.000         570.000                  
G27  22952784.355    22952783.193    22952787.743                    -7420992.374 8  -7420992.366 6                  -5782594.728 8       117.000          37.000         173.000                  
G28  23837098.170    23837097.048    23837098.762                    -6186105.026 8  -6186105.040 6                  -4820345.579 7       163.000          42.000          59.000                  
G31  25622034.079    25622032.832    25622035.163                     4282982.612 7   4282982.627 6                   3337376.997 7        73.000          24.000          54.000                  
G32  19980108.113    19980107.777    19980110.420                   -24252401.242 9 -24252401.244 9                 -18897964.054 9       944.000        2237.000        2593.000                  
> 2024 10 31 21 24  0.0000000  0  9
G02  20698081.549    20698080.350    20698079.347                   -20453489.210 9 -20453489.211 8                 -15937764.813 8       579.000         270.000         419.000                  
G03  23865210.431    23865210.690    23865214.169                    -3854370.726 8  -3854370.726 6                  -3003405.601 7       129.000          42.000          92.000                  
G08  21162172.123    21162171.457    21162176.207                   -16897529.004 8 -16897529.007 8                 -13166904.281 9       373.000         343.000         916.000                  
G10  21966720.366    21966719.759    21966722.978                   -15087741.781 8 -15087741.779 8                 -11756668.845 9       361.000         322.000         855.000                  
G21  19421559.372    19421558.174    19421558.876                   -24644766.103 9 -24644766.105 9                 -19203700.769 9       795.000         588.000         561.000                  
G27  23029282.664    23029281.334    23029285.613                    -7018994.090 8  -7018994.085 6                  -5469349.371 8       117.000          41.000         174.000                  
G28  23859861.787    23859862.150    23859863.912                    -6066477.615 8  -6066477.616 6                  -4727129.418 7       157.000          35.000          57.000                  
G31  25671456.268    25671455.785    25671457.221                     4542699.120 7   4542699.141 6                   3539753.380 7        71.000          23.000          52.000                  
G32  19963464.560    19963464.318    19963466.933                   -24339863.076 9 -24339863.078 9                 -18966116.088 9       969.000        2352.000        2622.000                  
> 2024 10 31 21 24 10.0000000  0  9
G02  20672594.290    20672593.025    20672592.072                   -20587425.258 9 -20587425.261 8                 -16042130.529 8       567.000         259.000         438.000                  
G03  23885384.849    23885384.811    23885388.309                    -3748356.503 8  -3748356.508 6                  -2920797.077 7       128.000          48.000          88.000                  
G08  21219621.737    21219621.382    21219625.849                   -16595628.109 8 -16595628.115 8                 -12931656.833 9       339.000         279.000         870.000                  
G10  21934787.248    21934786.658    21934789.771                   -15255551.682 8 -15255551.679 8                 -11887429.755 9       363.000         317.000         838.000                  
G21  19406344.802    19406343.808    19406344.332                   -24724718.835 9 -24724718.837 9                 -19266001.557 9       816.000         615.000         590.000                  
G27  23106089.926    23106088.878    23106093.463                    -6615369.068 8  -6615369.077 6                  -5154836.436 8       116.000          37.000         162.000                  
G28  23882812.944    23882812.575    23882813.422                    -5945869.492 8  -5945869.502 6                  -4633149.039 7       153.000          34.000          56.000                  
G31  25720848.112    25720848.831    25720850.818                     4802261.477 7   4802261.498 6                   3742009.658 6        72.000          23.000          49.000                  
G32  19947483.328    19947482.999    19947485.609                   -24423845.466 9 -24423845.468 9                 -19031556.873 9       993.000        2492.000        2682.000                  
> 2024 10 31 21 24 20.0000000  0  9
G02  20647977.642    20647976.358    20647975.855                   -20716786.498 9 -20716786.499 8                 -16142931.456 8       570.000         254.000         472.000                  
G03  23905858.562    23905857.736    23905861.745                    -3640769.406 8  -3640769.404 6                  -2836962.936 7       126.000          48.000          93.000                  
G08  21277815.006    21277814.200    21277818.550                   -16289822.464 8 -16289822.468 8                 -12693366.737 9       303.000         222.000         834.000                  
G10  21903406.025    21903405.770    21903409.012                   -15420458.762 8 -15420458.761 8                 -12015928.733 9       364.000         322.000         821.000                  
G21  19392198.620    19392197.497    19392197.989                   -24799057.893 9 -24799057.895 9                 -19323928.053 9       831.000         652.000         602.000                  
G27  23183196.344    23183194.987    23183199.442                    -6210174.502 8  -6210174.523 6                  -4839100.483 8       119.000          35.000         155.000                  
G28  23905951.051    23905950.661    23905951.747                    -5824281.161 8  -5824281.158 6                  -4538404.885 7       152.000          35.000          55.000                  
G31  25770210.698    25770210.300    25770213.150                     5061659.724 7   5061659.717 6                   3944138.027 6        70.000          22.000          45.000                  
G32  19932168.756    19932168.469    19932171.126                   -24504323.672 9 -24504323.673 9                 -19094267.125 9      1014.000        2588.000        2734.000                  
> 2024 10 31 21 24 30.0000000  0  9
G02  20624236.734    20624235.497    20624234.643                   -20841545.958 9 -20841545.961 8                 -16240146.575 8       584.000         269.000         463.000                  
G03  23926627.640    23926627.225    23926631.329                    -3531625.946 8  -3531625.953 6                  -2751916.037 7       127.000          45.000          94.000                  
G08  21336735.486    21336734.732    21336739.126                   -15980193.134 8 -15980193.139 8                 -12452097.158 9       293.000         215.000         833.000                  
G10  21872579.883    21872579.345    21872582.352                   -15582453.022 8 -15582453.021 8                 -12142157.987 9       359.000         320.000         793.000                  
G21  19379123.064    19379122.049    19379122.484                   -24867770.070 9 -24867770.072 9                 -19377469.973 9       842.000         656.000         622.000                  
G27  23260585.020    23260584.925    23260588.624                    -5803490.164 8  -5803490.168 6                  -4522203.673 8       115.000          40.000         151.000                  
G28  23929270.665    23929269.863    23929272.065                    -5701736.149 8  -5701736.147 6                  -4442915.249 7       143.000          33.000          54.000                  
G31  25819536.289    25819534.880    25819537.448                     5320861.083 7   5320861.089 6                   4146112.991 6        67.000          23.000          50.000                  
G32  19917521.094    19917520.970    19917523.596                   -24581296.567 9 -24581296.569 9                 -19154245.969 9      1027.000        2649.000        2760.000                  
> 2024 10 31 21 24 40.0000000  0  9
G02  20601380.839    20601379.614    20601378.426                   -20961654.723 9 -20961654.723 8                 -16333737.782 8       607.000         288.000         439.000                  
G03  23947694.720    23947694.032    23947697.369                    -3420919.809 8  -3420919.806 6                  -2665651.466 7       127.000          47.000          92.000                  
G08  21396372.164    21396371.540    21396376.149                   -15666798.495 8 -15666798.496 8                 -12207893.573 9       276.000         187.000         798.000                  
G10  21842313.866    21842313.260    21842316.259                   -15741501.886 8 -15741501.885 8                 -12266092.126 9       362.000         319.000         773.000                  
G21  19367125.019    19367123.856    19367124.346                   -24930820.797 9 -24930820.796 9                 -19426600.370 9       851.000         675.000         646.000                  
G27  23338247.713    23338247.544    23338251.085                    -5395372.320 8  -5395372.333 6                  -4204189.849 8       113.000          39.000         147.000                  
G28  23952770.597    23952770.641    23952772.506                    -5578234.993 8  -5578234.993 6                  -4346680.591 7       144.000          36.000          55.000                  
G31  25868818.598    25868819.308    25868822.729                     5579855.866 7   5579855.874 6                   4347926.967 7        65.000          23.000          58.000                  
G32  19903545.265    19903545.001    19903547.621                   -24654740.646 9 -24654740.648 9                 -19211475.083 9      1037.000        2692.000        2789.000                  
> 2024 10 31 21 24 50.0000000  0  9
G02  20579414.717    20579413.431    20579412.288                   -21077088.213 9 -21077088.212 8                 -16423685.917 8       616.000         304.000         425.000                  
G03  23969055.161    23969054.693    23969057.996                    -3308668.210 8  -3308668.188 6                  -2578182.620 8       129.000          46.000         101.000                  
G08  21456709.974    21456709.578    21456714.154                   -15349720.334 8 -15349720.333 8                 -11960819.704 9       257.000         158.000         773.000                  
G10  21812609.716    21812609.296    21812612.423                   -15897596.502 8 -15897596.500 8                 -12387724.256 9       360.000         314.000         765.000                  
G21  19356206.059    19356204.764    19356205.259                   -24988200.380 9 -24988200.381 9                 -19471311.702 9       852.000         672.000         633.000                  
G27  23416167.901    23416166.758    23416171.110                    -4985900.010 8  -4985900.021 6                  -3885120.604 8       101.000          33.000         130.000                  
G28  23976449.772    23976449.812    23976451.936                    -5453801.521 8  -5453801.524 6                  -4249719.429 7       138.000          33.000          56.000                  
G31  25918061.005    25918059.356    25918062.101                     5838610.976 7   5838610.975 6                   4549554.066 6        63.000          27.000          45.000                  
G32  19890240.676    19890240.460    19890243.117                   -24724656.272 9 -24724656.273 9                 -19265954.756 9      1036.000        2685.000        2822.000                  
> 2024 10 31 21 25  0.0000000  0  9
G02  20558346.971    20558345.758    20558344.364                   -21187799.370 9 -21187799.373 8                 -16509954.309 8       621.000         305.000         403.000                  
G03  23990710.860    23990710.499    23990714.313                    -3194865.075 8  -3194865.077 6                  -2489504.783 7       125.000          45.000          94.000                  
G08  21517738.156    21517737.336    21517741.969                   -15029017.202 8 -15029017.208 8                 -11710921.174 9       263.000         172.000         800.000                  
G10  21783474.278    21783473.702    21783476.780                   -16050704.975 8 -16050704.976 8                 -12507029.517 9       359.000         315.000         776.000                  
G21  19346372.201    19346371.002    19346371.563                   -25039877.167 9 -25039877.170 9                 -19511579.296 9       851.000         667.000         643.000                  
G27  23494333.766    23494333.618    23494338.584                    -4575128.329 7  -4575128.331 6                  -3565038.861 8        97.000          36.000         130.000                  
G28  24000307.518    24000305.639    24000307.981                    -5328436.049 8  -5328436.060 6                  -4152032.032 7       137.000          32.000          57.000                  
G31  25967251.284    25967252.456    25967255.362                     6097118.341 7   6097118.339 6                   4750988.233 6        62.000          25.000          49.000                  
G32  19877611.856    19877611.634    19877614.329                   -24791020.975 9 -24791020.977 9                 -19317667.483 9      1043.000        2744.000        2842.000                  
> 2024 10 31 21 25 10.0000000  0  9
G02  20538182.477    20538181.023    20538179.614                   -21293765.645 9 -21293765.646 8                 -16592525.394 8       628.000         319.000         399.000                  
G03  24012658.596    24012658.448    24012662.407                    -3079527.736 8  -3079527.742 6                  -2399631.470 7       120.000          43.000          91.000                  
G08  21579440.265    21579439.687    21579443.891                   -14704770.982 8 -14704770.986 8                 -11458261.765 9       264.000         167.000         845.000                  
G10  21754908.339    21754907.964    21754911.002                   -16200819.132 8 -16200819.129 8                 -12624001.554 9       362.000         317.000         784.000                  
G21  19337624.863    19337623.660    19337624.191                   -25085844.475 9 -25085844.477 9                 -19547397.947 9       836.000         647.000         639.000                  
G27  23572735.015    23572733.541    23572738.246                    -4163135.058 7  -4163135.062 6                  -3244005.236 8        90.000          26.000         113.000                  
G28  24024334.994    24024334.445    24024337.382                    -5202162.102 8  -5202162.120 6                  -4053636.749 7       137.000          29.000          54.000                  
G31  26016391.192    26016391.574    26016393.263                     6355344.939 7   6355344.961 6                   4952203.507 6        62.000          22.000          38.000                  
G32  19865658.643    19865658.338    19865660.957                   -24853836.047 9 -24853836.049 9                 -19366614.262 9      1053.000        2789.000        2787.000                  
> 2024 10 31 21 25 20.0000000  0  9
G02  20518928.815    20518927.977    20518926.327                   -21394941.815 9 -21394941.816 8                 -16671363.941 8       628.000         325.000         400.000                  
G03  24034899.419    24034899.793    24034903.343                    -2962650.319 8  -2962650.316 6                  -2308558.118 7       122.000          44.000          90.000                  
G08  21641805.261    21641804.458    21641808.882                   -14377040.408 8 -14377040.414 8                 -11202887.281 9       261.000         171.000         866.000                  
G10  21726918.070    21726917.931    21726920.953                   -16347907.813 8 -16347907.814 8                 -12738616.073 9       365.000         321.000         782.000                  
G21  19329969.496    19329968.191    19329968.839                   -25126073.791 9 -25126073.792 9                 -19578745.427 9       811.000         617.000         635.000                  
G27  23651355.233    23651355.345    23651360.344                    -3749974.084 7  -3749974.104 6                  -2922061.718 8        82.000          27.000         113.000                  
G28  24048537.914    24048537.458    24048539.053                    -5074979.783 8  -5074979.789 6                  -3954533.632 6       133.000          32.000          50.000                  
G31  26065475.020    26065475.935    26065478.508                     6613283.312 7   6613283.312 6                   5153194.289 6        59.000          22.000          43.000                  
G32  19854384.710    19854384.571    19854387.150                   -24913080.045 9 -24913080.046 9                 -19412778.392 9      1056.000        2818.000        2789.000                  
> 2024 10 31 21 25 30.0000000  0  9
G02  20500591.187    20500590.070    20500588.642                   -21491307.454 9 -21491307.456 8                 -16746454.029 8       615.000         315.000         426.000                  
G03  24057430.230    24057429.790    24057433.455                    -2844250.576 8  -2844250.557 6                  -2216298.534 7       125.000          42.000          89.000                  
G08  21704817.370    21704816.893    21704821.387                   -14045907.708 8 -14045907.714 8                 -10944861.793 9       261.000         165.000         864.000                  
G10  21699505.348    21699504.850    21699507.941                   -16491963.822 8 -16491963.821 8                 -12850867.472 9       370.000         341.000         773.000                  
G21  19323406.344    19323405.296    19323405.845                   -25160561.862 9 -25160561.863 9                 -19605619.239 9       804.000         599.000         609.000                  
G27  23730186.021    23730184.642    23730189.972                    -3335722.226 7  -3335722.227 6                  -2599268.161 8        80.000          22.000         106.000                  
G28  24072908.341    24072907.378    24072910.218                    -4946912.681 8  -4946912.678 6                  -3854741.101 7       129.000          33.000          60.000                  
G31  26114498.515    26114498.920    26114500.971                     6870901.207 7   6870901.216 6                   5353935.306 6        57.000          23.000          42.000                  
G32  19843790.126    19843789.854    19843792.436                   -24968755.664 9 -24968755.665 9                 -19456161.982 9      1062.000        2828.000        2753.000                  
> 2024 10 31 21 25 40.0000000  0  9
G02  20483176.762    20483175.520    20483174.480                   -21582820.113 9 -21582820.113 8                 -16817762.572 8       600.000         291.000         440.000                  
G03  24080252.714    24080251.524    24080255.089                    -2724323.328 8  -2724323.335 6                  -2122848.707 7       119.000          47.000          91.000                  
G08  21768466.571    21768465.551    21768470.082                   -13711432.019 8 -13711432.022 8                 -10684231.373 9       253.000         159.000         848.000                  
G10  21672675.272    21672674.695    21672677.775                   -16632957.376 8 -16632957.375 8                 -12960732.552 9       378.000         344.000         774.000                  
G21  19317940.891    19317939.718    19317940.176                   -25189283.716 9 -25189283.718 9                 -19627999.894 9       803.000         612.000         605.000                  
G27  23809212.311    23809212.027    23809217.189                    -2920432.661 7  -2920432.672 6                  -2275666.005 7        80.000          28.000          99.000                  
G28  24097446.825    24097446.249    24097448.319                    -4817961.217 8  -4817961.232 6                  -3754259.454 7       128.000          29.000          61.000                  
G31  26163458.612    26163459.048    26163462.050                     7128189.259 7   7128189.251 6                   5554419.110 6        53.000          22.000          40.000                  
G32  19833878.164    19833877.914    19833880.488                   -25020842.964 9 -25020842.966 9                 -19496749.478 9      1060.000        2827.000        2719.000                  
> 2024 10 31 21 25 50.0000000  0  9
G02  20466689.488    20466688.113    20466687.093                   -21669462.057 9 -21669462.060 8                 -16885275.757 8       591.000         283.000         451.000                  
G03  24103360.676    24103360.261    24103364.117                    -2602886.909 8  -2602886.890 6                  -2028222.886 7       126.000          45.000          90.000                  
G08  21832735.546    21832734.472    21832739.082                   -13373695.986 8 -13373695.992 8                 -10421060.424 9       243.000         149.000         856.000                  
G10  21646428.889    21646428.292    21646431.392                   -16770882.447 8 -16770882.448 8                 -13068206.608 9       380.000         347.000         770.000                  
G21  19313572.462    19313571.291    19313571.845                   -25212239.687 9 -25212239.688 9                 -19645887.644 9       802.000         597.000         614.000                  
G27  23888422.050    23888422.010    23888427.537                    -2504181.422 7  -2504181.413 6                  -1951314.491 7        78.000          28.000          86.000                  
G28  24122150.295    24122148.606    24122150.263                    -4688149.094 8  -4688149.091 6                  -3653107.141 7       125.000          24.000          61.000                  
G31  26212350.432    26212351.657    26212353.717                     7385117.282 7   7385117.286 6                   5754622.452 6        57.000          23.000          43.000                  
G32  19824648.442    19824648.035    19824650.695                   -25069346.114 9 -25069346.116 9                 -19534544.119 9      1062.000        2843.000        2724.000                  
> 2024 10 31 21 26  0.0000000  0  9
G02  20451135.543    20451134.394    20451133.269                   -21751197.595 9 -21751197.597 8                 -16948965.779 8       601.000         290.000         476.000                  
G03  24126756.652    24126755.672    24126759.620                    -2479940.982 8  -2479940.978 6                  -1932420.836 7       123.000          44.000          85.000                  
G08  21897612.179    21897611.781    21897616.381                   -13032763.270 8 -13032763.276 8                 -10155398.580 9       256.000         168.000         877.000                  
G10  21620771.295    21620770.787    21620773.665                   -16905714.562 8 -16905714.559 8                 -13173270.559 9       385.000         357.000         750.000                  
G21  19310304.547    19310303.325    19310303.777                   -25229412.870 9 -25229412.871 9                 -19659269.336 9       803.000         600.000         621.000                  
G27  23967805.485    23967804.737    23967809.304                    -2087025.004 7  -2087025.009 6                  -1626257.652 7        74.000          28.000          77.000                  
G28  24147014.622    24147014.180    24147016.691                    -4557481.066 8  -4557481.085 6                  -3551287.883 7       124.000          26.000          65.000                  
G31  26261169.991    26261172.287    26261174.672                     7641673.078 7   7641673.057 6                   5954535.837 6        51.000          23.000          36.000                  
G32  19816103.189    19816102.922    19816105.542                   -25114250.919 9 -25114250.921 9                 -19569534.861 9      1063.000        2851.000        2694.000                  
> 2024 10 31 21 26 10.0000000  0  9
G02  20436521.424    20436520.245    20436519.192                   -21827996.001 9 -21827996.002 8                 -17008808.688 9       619.000         306.000         516.000                  
G03  24150437.554    24150438.098    24150441.950                    -2355489.003 8  -2355489.026 6                  -1835445.246 7       123.000          42.000          89.000                  
G08  21963085.564    21963084.709    21963089.328                   -12688701.203 8 -12688701.207 8                  -9887298.281 9       279.000         193.000         867.000                  
G10  21595705.968    21595705.390    21595708.311                   -17037433.539 8 -17037433.537 8                 -13275908.696 9       393.000         363.000         732.000                  
G21  19308139.239    19308138.011    19308138.620                   -25240791.628 9 -25240791.630 9                 -19668135.892 9       795.000         596.000         667.000                  
G27  24047349.616    24047348.056    24047352.870                    -1669023.162 7  -1669023.154 6                  -1300542.055 7        70.000          23.000          68.000                  
G28  24172041.224    24172040.951    24172042.629                    -4425965.666 8  -4425965.668 6                  -3448808.337 7       119.000          29.000          66.000                  
G31  26309918.193    26309920.292    26309922.119                     7897840.084 7   7897840.086 6                   6154146.273 6        52.000          24.000          35.000                  
G32  19808244.716    19808244.424    19808247.036                   -25155547.507 9 -25155547.508 9                 -19601713.993 9      1066.000        2859.000        2689.000                  
> 2024 10 31 21 26 20.0000000  0  9
G02  20422848.578    20422847.454    20422846.253                   -21899847.712 9 -21899847.714 8                 -17064797.028 9       632.000         317.000         543.000                  
G03  24174403.262    24174402.796    24174406.479                    -2229554.541 8  -2229554.571 6                  -1737314.484 7       123.000          40.000          84.000                  
G08  22029136.964    22029136.658    22029141.119                   -12341597.021 8 -12341597.026 8                  -9616827.498 9       292.000         205.000         843.000                  
G10  21571233.025    21571232.392    21571235.312                   -17166039.515 8 -17166039.516 8                 -13376121.121 9       395.000         384.000         708.000                  
G21  19307074.870    19307073.520    19307074.047                   -25246385.970 9 -25246385.972 9                 -19672495.140 9       818.000         625.000         673.000                  
G24  25160967.433    25160980.962    25161005.559                     -483672.313 7   -483672.304 6                   -376891.379 6        58.000          23.000          19.000                  
G27  24127038.686    24127038.319    24127041.848                    -1250254.921 7  -1250254.935 6                   -974229.265 7        70.000          26.000          54.000                  
G28  24197223.783    24197223.637    24197225.308                    -4293631.234 8  -4293631.237 6                  -3345690.582 7       120.000          26.000          61.000                  
G32  19801070.782    19801070.519    19801073.123                   -25193246.575 9 -25193246.577 9                 -19631089.855 9      1074.000        2922.000        2693.000                  
> 2024 10 31 21 26 30.0000000  0  9
G02  20410126.604    20410125.507    20410124.228                   -21966702.001 9 -21966702.002 8                 -17116891.286 9       644.000         325.000         537.000                  
G03  24198652.965    24198653.183    24198657.344                    -2102118.761 8  -2102118.784 6                  -1638013.871 7       118.000          38.000          76.000                  
G08  22095759.314    22095758.931    22095763.233                   -11991495.268 8 -11991495.270 8                  -9344020.952 9       289.000         209.000         803.000                  
G10  21547360.327    21547359.807    21547362.749                   -17291490.605 8 -17291490.604 8                 -13473875.194 9       399.000         383.000         702.000                  
G21  19307116.748    19307115.631    19307116.128                   -25246164.966 9 -25246164.966 9                 -19672322.922 9       816.000         628.000         688.000                  
G24  25093845.149    25093849.987    25093848.083                     -836422.251 7   -836422.262 6                   -651759.006 6        62.000          21.000          23.000                  
G27  24206865.830    24206865.515    24206870.171                     -830756.254 7   -830756.251 6                   -647347.316 6        61.000          22.000          46.000                  
G28  24222564.061    24222563.940    24222565.985                    -4160463.445 8  -4160463.463 6                  -3241923.459 7       119.000          28.000          59.000                  
G32  19794587.470    19794587.121    19794589.688                   -25227316.912 9 -25227316.914 9                 -19657638.139 9      1077.000        2924.000        2687.000                  
> 2024 10 31 21 26 40.0000000  0  9
G02  20398355.806    20398354.589    20398353.528                   -22028558.200 9 -22028558.202 8                 -17165090.912 9       649.000         329.000         539.000                  
G03  24223182.855    24223183.523    24223186.994                    -1973212.047 8  -1973212.047 6                  -1537567.086 7       117.000          42.000          82.000                  
G08  22162934.300    22162933.668    22162937.870                   -11638489.482 8 -11638489.485 8                  -9068951.516 9       284.000         198.000         763.000                  
G10  21524086.914    21524086.134    21524089.066                   -17413794.478 8 -17413794.479 8                 -13569176.889 9       404.000         395.000         701.000                  
G21  19308261.586    19308260.441    19308261.042                   -25240148.562 9 -25240148.562 9                 -19667634.802 9       815.000         612.000         700.000                  
G24  25026786.239    25026790.926    25026790.369                    -1188803.509 7  -1188803.502 6                   -926341.702 6        60.000          22.000          21.000                  
G27  24286816.587    24286815.836    24286820.313                     -410612.084 7   -410612.084 6                   -319962.508 6        56.000          21.000          35.000                  
G28  24248056.169    24248056.428    24248059.120                    -4026497.077 8  -4026497.084 6                  -3137534.058 7       119.000          32.000          58.000                  
G32  19788791.065    19788790.742    19788793.267                   -25257776.970 9 -25257776.972 9                 -19681373.225 9      1078.000        2933.000        2650.000                  
> 2024 10 31 21 26 50.0000000  0  9
G02  20387542.521    20387541.384    20387540.005                   -22085382.281 9 -22085382.284 8                 -17209369.401 9       661.000         348.000         533.000                  
G03  24247994.246    24247994.275    24247997.671                    -1842830.315 8  -1842830.297 6                  -1435970.949 7       115.000          40.000          77.000                  
G08  22230650.448    22230649.842    22230654.183                   -11282638.480 8 -11282638.482 8                  -8791665.042 9       281.000         205.000         707.000                  
G10  21501417.014    21501416.480    21501419.273                   -17532924.639 8 -17532924.637 8                 -13662005.556 9       404.000         398.000         710.000                  
G21  19310511.849    19310510.749    19310511.097                   -25228323.700 9 -25228323.700 9                 -19658420.613 9       826.000         627.000         704.000                  
G24  24959810.325    24959812.789    24959814.383                    -1540768.808 7  -1540768.801 6                  -1200600.254 6        63.000          20.000          28.000                  
G27  24366881.833    24366880.171    24366885.164                       10129.367 7     10129.356 6                      7887.829 6        53.000          23.000          29.000                  
G28  24273701.729    24273701.644    24273704.059                    -3891732.120 8  -3891732.128 6                  -3032522.367 7       117.000          26.000          64.000                  
G32  19783684.655    19783684.334    19783686.827                   -25284611.086 9 -25284611.088 9                 -19702282.877 9      1077.000        2900.000        2642.000                  
> 2024 10 31 21 27  0.0000000  0  9
G02  20377689.252    20377687.983    20377686.730                   -22137161.922 9 -22137161.924 8                 -17249717.166 9       672.000         362.000         512.000                  
G03  24273081.987    24273082.774    24273086.561                    -1710989.882 8  -1710989.875 6                  -1333238.156 7       110.000          34.000          82.000                  
G08  22298893.147    22298892.441    22298896.839                   -10924021.187 8 -10924021.193 8                  -8512223.001 9       284.000         193.000         655.000                  
G10  21479352.189    21479351.730    21479354.536                   -17648875.507 8 -17648875.506 8                 -13752356.862 9       409.000         406.000         720.000                  
G21  19313865.602    19313864.453    19313864.953                   -25210699.398 9 -25210699.400 9                 -19644687.383 9       828.000         643.000         696.000                  
G22  24428234.825    24428226.179    24428243.671                     -410073.332 7   -410073.325 6                   -319541.907 6        81.000          22.000          18.000                  
G24  24892916.464    24892918.575    24892920.120                    -1892291.516 7  -1892291.519 6                  -1474513.960 6        65.000          22.000          28.000                  
G28  24299495.676    24299495.054    24299495.918                    -3756188.935 8  -3756188.922 6                  -2926904.239 7       117.000          26.000          60.000                  
G32  19779267.140    19779266.925    19779269.449                   -25307824.762 9 -25307824.763 9                 -19720371.439 9      1066.000        2866.000        2679.000                  
> 2024 10 31 21 27 10.0000000  0  9
G02  20368802.813    20368801.688    20368800.514                   -22183859.364 9 -22183859.366 8                 -17286104.774 8       659.000         353.000         498.000                  
G03  24298450.988    24298450.286    24298453.963                    -1577680.608 8  -1577680.618 6                  -1229360.810 7       110.000          39.000          87.000                  
G08  22367652.399    22367651.510    22367655.907                   -10562689.755 8 -10562689.760 8                  -8230666.058 9       275.000         185.000         598.000                  
G10  21457898.896    21457898.034    21457900.897                   -17761615.310 8 -17761615.310 8                 -13840206.051 9       419.000         429.000         723.000                  
G21  19318326.141    19318324.990    19318325.398                   -25187259.580 9 -25187259.581 9                 -19626422.580 9       846.000         662.000         666.000                  
G22  24383384.237    24383377.088    24383385.209                     -645760.820 7   -645760.817 6                   -503194.238 6        87.000          18.000          19.000                  
G24  24826120.709    24826118.940    24826122.177                    -2243318.076 7  -2243318.100 6                  -1748041.016 6        67.000          22.000          33.000                  
G28  24325438.388    24325437.360    24325439.004                    -3619861.229 8  -3619861.211 6                  -2820674.875 7       116.000          26.000          63.000                  
G32  19775542.642    19775542.423    19775544.891                   -25327397.286 9 -25327397.288 9                 -19735622.753 9      1062.000        2832.000        2682.000                  
> 2024 10 31 21 27 20.0000000  0  9
G02  20360882.973    20360881.508    20360880.501                   -22225480.022 9 -22225480.024 8                 -17318536.445 8       653.000         342.000         491.000                  
G03  24324092.291    24324091.872    24324095.572                    -1442934.369 8  -1442934.364 6                  -1124363.748 7       108.000          36.000          82.000                  
G08  22436910.015    22436909.366    22436913.623                   -10198737.947 8 -10198737.951 8                  -7947067.260 9       261.000         170.000         548.000                  
G10  21437053.773    21437053.324    21437056.296                   -17871154.595 8 -17871154.592 8                 -13925561.318 9       429.000         446.000         764.000                  
G21  19323888.019    19323886.769    19323887.267                   -25158031.906 9 -25158031.908 9                 -19603647.770 9       840.000         652.000         643.000                  
G22  24338956.987    24338951.484    24338956.797                     -879226.409 7   -879226.405 6                   -685115.332 6        84.000          23.000          19.000                  
G24  24759415.580    24759417.070    24759421.117                    -2593836.432 7  -2593836.439 6                  -2021172.113 6        70.000          25.000          33.000                  
G28  24351522.229    24351521.722    24351524.117                    -3482784.240 8  -3482784.242 6                  -2713861.631 7       113.000          25.000          56.000                  
G32  19772506.887    19772506.565    19772509.092                   -25343350.450 9 -25343350.452 9                 -19748053.784 9      1055.000        2803.000        2655.000                  
> 2024 10 31 21 27 30.0000000  0  9
G02  20353935.704    20353934.608    20353933.653                   -22261985.992 9 -22261985.992 8                 -17346982.652 8       658.000         347.000         478.000                  
G03  24350008.717    24350009.088    24350012.966                    -1306738.527 8  -1306738.526 6                  -1018237.133 7       109.000          29.000          81.000                  
G08  22506656.992    22506656.336    22506660.689                    -9832214.740 8  -9832214.745 8                  -7661464.789 9       254.000         156.000         522.000                  
G10  21416824.560    21416824.136    21416827.113                   -17977459.863 8 -17977459.861 8                 -14008396.573 9       437.000         470.000         800.000                  
G21  19330554.106    19330552.880    19330553.304                   -25123000.974 9 -25123000.975 9                 -19576350.933 9       839.000         655.000         617.000                  
G22  24294964.534    24294958.259    24294964.154                    -1110411.405 7  -1110411.415 6                   -865259.584 6        88.000          19.000          18.000                  
G24  24692824.159    24692823.396    24692826.965                    -2943789.631 7  -2943789.622 6                  -2293862.822 6        76.000          30.000          40.000                  
G28  24377751.382    24377751.276    24377753.128                    -3344948.639 8  -3344948.659 6                  -2606457.261 7       114.000          31.000          57.000                  
G32  19770164.103    19770163.762    19770166.262                   -25355662.052 9 -25355662.054 9                 -19757647.238 9      1048.000        2753.000        2654.000                  
> 2024 10 31 21 27 40.0000000  0  9
G02  20347963.381    20347962.038    20347960.890                   -22293371.674 9 -22293371.675 8                 -17371439.035 8       660.000         354.000         450.000                  
G03  24376198.510    24376198.481    24376202.277                    -1169111.513 8  -1169111.518 6                   -910995.328 7       106.000          34.000          85.000                  
G08  22576878.199    22576877.623    22576882.054                    -9463199.777 8  -9463199.779 8                  -7373920.693 9       246.000         146.000         511.000                  
G10  21397210.931    21397210.772    21397213.689                   -18080529.090 8 -18080529.089 8                 -14088710.251 9       451.000         490.000         833.000                  
G21  19338321.408    19338320.201    19338320.643                   -25082184.061 9 -25082184.063 9                 -19544545.557 9       846.000         670.000         628.000                  
G22  24251411.073    24251405.907    24251411.611                    -1339288.150 7  -1339288.131 6                  -1043605.358 6        86.000          23.000          16.000                  
G24  24626340.835    24626342.440    24626345.581                    -3293151.424 7  -3293151.394 6                  -2566092.742 6        85.000          25.000          40.000                  
G28  24404121.393    24404120.688    24404122.488                    -3206376.059 8  -3206376.039 6                  -2498478.623 7       111.000          26.000          61.000                  
G32  19768512.344    19768512.102    19768514.589                   -25364341.448 9 -25364341.449 9                 -19764410.393 9      1047.000        2766.000        2631.000                  
> 2024 10 31 21 27 50.0000000  0  9
G02  20342967.072    20342965.729    20342964.532                   -22319628.127 9 -22319628.129 8                 -17391898.619 8       672.000         355.000         449.000                  
G03  24402657.858    24402657.768    24402661.815                    -1030067.251 8  -1030067.239 6                   -802649.165 7       108.000          37.000          83.000                  
G08  22647559.448    22647558.778    22647563.285                    -9091767.815 8  -9091767.819 8                  -7084493.228 8       239.000         141.000         485.000                  
G10  21378214.939    21378214.395    21378217.274                   -18180356.117 8 -18180356.116 8                 -14166497.546 9       455.000         498.000         868.000                  
G21  19347186.780    19347185.645    19347186.076                   -25035595.378 9 -25035595.380 9                 -19508242.695 9       842.000         657.000         627.000                  
G22  24208302.375    24208297.796    24208302.966                    -1565824.823 7  -1565824.832 6                  -1220128.219 6        87.000          25.000          20.000                  
G24  24559978.667    24559979.632    24559981.333                    -3641890.619 7  -3641890.624 6                  -2837837.492 6        90.000          30.000          48.000                  
G28  24430628.324    24430626.843    24430629.405                    -3067083.304 8  -3067083.301 6                  -2389938.798 7       115.000          31.000          53.000                  
G32  19767550.943    19767550.674    19767553.113                   -25369394.005 9 -25369394.007 9                 -19768347.448 9      1053.000        2778.000        2608.000                  
> 2024 10 31 21 28  0.0000000  0  9
G02  20338951.915    20338951.029    20338949.714                   -22340726.649 9 -22340726.649 8                 -17408339.031 8       675.000         365.000         476.000                  
G03  24429387.843    24429387.858    24429391.858                     -889598.726 8   -889598.718 6                   -693193.210 7       104.000          33.000          76.000                  
G08  22718689.825    22718689.823    22718694.365                    -8717972.212 8  -8717972.216 8                  -6793223.979 8       229.000         130.000         434.000                  
G10  21359840.011    21359839.886    21359842.852                   -18276914.178 8 -18276914.177 9                 -14241737.598 9       458.000         511.000         898.000                  
G21  19357151.562    19357150.518    19357150.967                   -24983229.735 9 -24983229.736 9                 -19467438.299 9       835.000         649.000         629.000                  
G22  24165648.997    24165645.237    24165649.367                    -1789968.549 7  -1789968.548 6                  -1394785.679 6        90.000          21.000          19.000                  
G24  24493744.145    24493744.927    24493747.583                    -3989954.617 7  -3989954.644 6                  -3109056.119 7        91.000          29.000          60.000                  
G28  24457272.563    24457271.791    24457273.188                    -2927066.065 8  -2927066.069 6                  -2280834.472 6       108.000          27.000          47.000                  
G32  19767282.580    19767282.241    19767284.742                   -25370804.576 9 -25370804.578 9                 -19769446.602 9      1049.000        2781.000        2622.000                  
> 2024 10 31 21 28 10.0000000  0  9
G02  20335918.932    20335917.692    20335916.589                   -22356665.556 9 -22356665.558 8                 -17420758.967 8       676.000         364.000         484.000                  
G03  24456385.787    24456385.577    24456389.581                     -747724.653 8   -747724.666 6                   -582642.020 7       105.000          27.000          71.000                  
G08  22790255.880    22790255.295    22790259.965                    -8341891.736 8  -8341891.742 8                  -6500174.307 8       220.000         120.000         365.000                  
G10  21342088.210    21342087.649    21342090.687                   -18370202.774 8 -18370202.775 9                 -14314430.015 9       471.000         541.000         944.000                  
G21  19368211.450    19368210.356    19368211.050                   -24925109.283 9 -24925109.285 9                 -19422149.644 9       819.000         636.000         641.000                  
G22  24123455.727    24123453.615    24123456.608                    -2011692.491 7  -2011692.498 6                  -1567557.646 6        95.000          22.000          18.000                  
G24  24427644.374    24427643.416    24427647.057                    -4337316.238 7  -4337316.228 6                  -3379727.435 7        92.000          30.000          62.000                  
G28  24484051.651    24484049.688    24484051.434                    -2786345.649 8  -2786345.633 6                  -2171182.272 6       110.000          27.000          50.000                  
G32  19767704.955    19767704.715    19767707.245                   -25368584.285 9 -25368584.286 9                 -19767716.516 9      1052.000        2783.000        2600.000                  
> 2024 10 31 21 28 20.0000000  0  9
G02  20333869.532    20333868.285    20333866.854                   -22367436.361 9 -22367436.363 8                 -17429151.810 8       693.000         382.000         473.000                  
G03  24483649.171    24483649.015    24483652.376                     -604455.696 8   -604455.698 6                   -471003.923 7       105.000          29.000          73.000                  
G08  22862243.251    22862242.537    22862247.079                    -7963596.571 8  -7963596.576 8                  -6205398.902 8       215.000         119.000         312.000                  
G10  21324959.517    21324959.283    21324962.244                   -18460213.683 8 -18460213.681 9                 -14384568.391 9       475.000         556.000         988.000                  
G21  19380363.740    19380362.549    19380363.193                   -24861249.362 9 -24861249.363 9                 -19372388.668 9       825.000         630.000         649.000                  
G22  24081731.257    24081728.104    24081731.080                    -2230961.967 7  -2230961.960 6                  -1738417.110 6        99.000          18.000          23.000                  
G24  24361684.999    24361684.002    24361686.772                    -4683939.724 7  -4683939.734 6                  -3649823.579 7       100.000          27.000          67.000                  
G28  24510960.718    24510959.843    24510961.293                    -2644934.909 8  -2644934.882 6                  -2060992.150 7       109.000          27.000          52.000                  
G32  19768817.721    19768817.488    19768820.104                   -25362736.625 9 -25362736.626 9                 -19763159.908 9      1057.000        2790.000        2628.000                  
> 2024 10 31 21 28 30.0000000  0  9
G02  20332805.885    20332804.829    20332803.414                   -22373024.981 9 -22373024.983 8                 -17433506.602 8       696.000         389.000         475.000                  
G03  24511176.430    24511176.698    24511180.808                     -459795.718 8   -459795.684 6                   -358281.905 7       103.000          32.000          65.000                  
G08  22934640.684    22934639.381    22934643.856                    -7583149.741 8  -7583149.746 8                  -5908946.884 8       214.000         117.000         266.000                  
G10  21308457.611    21308457.249    21308460.211                   -18546932.313 8 -18546932.313 9                 -14452141.357 9       485.000         581.000        1004.000                  
G21  19393606.105    19393604.972    19393605.561                   -24791660.433 9 -24791660.435 9                 -19318163.551 9       827.000         637.000         669.000                  
G22  24040480.151    24040477.382    24040480.545                    -2447735.268 7  -2447735.274 6                  -1907331.336 6        96.000          25.000          22.000                  
G24  24295872.379    24295871.761    24295874.750                    -5029782.235 8  -5029782.227 6                  -3919311.181 7       104.000          33.000          79.000                  
G28  24537999.398    24537999.945    24538001.463                    -2502839.761 8  -2502839.758 6                  -1950268.698 6       105.000          24.000          45.000                  
G32  19770621.295    19770621.074    19770623.707                   -25353258.868 9 -25353258.869 9                 -19755774.664 9      1063.000        2833.000        2648.000                  
> 2024 10 31 21 28 40.0000000  0  9
G02  20332730.198    20332728.995    20332727.687                   -22373423.067 9 -22373423.070 8                 -17433816.815 8       683.000         369.000         464.000                  
G03  24538969.219    24538967.197    24538971.267                     -313753.161 8   -313753.166 6                   -244482.568 7       102.000          36.000          68.000                  
G08  23007433.834    23007432.712    23007437.186                    -7200618.350 8  -7200618.360 8                  -5610870.544 8       211.000         113.000         234.000                  
G10  21292584.142    21292583.614    21292586.489                   -18630349.060 8 -18630349.060 9                 -14517141.428 9       485.000         575.000        1017.000                  
G21  19407935.442    19407934.392    19407935.030                   -24716358.721 9 -24716358.722 9                 -19259486.903 9       819.000         621.000         680.000                  
G22  23999712.032    23999708.842    23999712.066                    -2661975.598 8  -2661975.609 6                  -2074271.867 6       104.000          24.000          25.000                  
G24  24230217.387    24230215.987    24230219.046                    -5374804.971 8  -5374804.961 6                  -4188160.006 7       108.000          37.000          89.000                  
G28  24565167.711    24565166.872    24565169.639                    -2360070.542 8  -2360070.552 6                  -1839019.993 6       102.000          27.000          48.000                  
G32  19773115.280    19773114.984    19773117.651                   -25340153.229 9 -25340153.230 9                 -19745562.497 9      1070.000        2864.000        2610.000                  
> 2024 10 31 21 28 50.0000000  0  9
G02  20333641.680    20333640.641    20333639.200                   -22368632.758 9 -22368632.760 8                 -17430084.133 8       673.000         355.000         465.000                  
G03  24567019.107    24567019.160    24567022.554                     -166345.553 8   -166345.524 6                   -129619.572 7       105.000          34.000          67.000                  
G08  23080609.561    23080608.614    23080612.709                    -6816078.137 8  -6816078.141 7                  -5311228.882 8       200.000          97.000         210.000                  
G10  21277338.600    21277338.185    21277341.180                   -18710463.946 8 -18710463.945 9                 -14579568.619 9       487.000         575.000        1025.000                  
G21  19423346.992    19423345.806    19423346.579                   -24635371.010 9 -24635371.010 9                 -19196379.621 9       801.000         599.000         683.000                  
G22  23959430.079    23959426.638    23959429.016                    -2873655.700 8  -2873655.720 6                  -2239217.378 6       107.000          22.000          22.000                  
G24  24164722.124    24164721.839    24164725.367                    -5718978.008 8  -5718978.021 6                  -4456346.714 8       109.000          35.000         101.000                  
G28  24592460.494    24592459.607    24592463.156                    -2216646.517 7  -2216646.528 6                  -1727261.074 6       100.000          26.000          43.000                  
G32  19776297.287    19776297.022    19776299.598                   -25323431.629 9 -25323431.630 9                 -19732532.691 9      1077.000        2914.000        2570.000                  
> 2024 10 31 21 29  0.0000000  0 10
G02  20335541.813    20335540.737    20335539.503                   -22358647.000 9 -22358647.000 8                 -17422303.040 8       653.000         337.000         464.000                  
G03  24595328.835    24595327.600    24595331.337                      -17580.080 8    -17580.088 6                    -13698.484 7       103.000          31.000          57.000                  
G08  23154154.611    23154154.136    23154158.277                    -6429594.036 8  -6429594.043 7                  -5010072.529 8       182.000          82.000         177.000                  
G10  21262723.618    21262723.025    21262726.041                   -18787266.973 8 -18787266.971 9                 -14639415.143 9       487.000         581.000        1027.000                  
G17  24018445.772    24018446.101    24018478.587                     -486245.724 8   -486245.729 6                   -378896.320 6       123.000          44.000          18.000                  
G21  19439837.251    19439835.821    19439836.609                   -24548715.218 9 -24548715.218 9                 -19128855.655 9       804.000         606.000         647.000                  
G22  23919643.138    23919639.628    23919643.543                    -3082737.912 8  -3082737.918 6                  -2402138.601 6       114.000          23.000          23.000                  
G24  24099398.759    24099397.196    24099400.576                    -6062260.511 8  -6062260.497 6                  -4723839.512 8       117.000          32.000         115.000                  
G28  24619876.112    24619875.597    24619877.900                    -2072576.319 7  -2072576.336 6                  -1614998.650 6       100.000          25.000          44.000                  
G32  19780167.027    19780166.819    19780169.388                   -25303096.060 9 -25303096.062 9                 -19716686.812 9      1085.000        2985.000        2620.000                  
> 2024 10 31 21 29 10.0000000  0 10
G02  20338433.025    20338431.923    20338430.910                   -22343453.819 9 -22343453.821 8                 -17410464.233 8       647.000         332.000         454.000                  
G03  24623895.655    24623895.232    24623899.181                      132542.443 7    132542.465 6                    103280.026 7       100.000          32.000          67.000                  
G08  23228059.526    23228058.756    23228062.743                    -6041224.033 8  -6041224.036 7                  -4707446.640 8       172.000          68.000         169.000                  
G10  21248741.851    21248741.148    21248744.195                   -18860742.259 8 -18860742.259 9                 -14696668.623 9       491.000         596.000        1014.000                  
G17  23962929.754    23962929.182    23962937.325                     -777983.216 8   -777983.236 6                   -606221.836 6       122.000          33.000          36.000                  
G21  19457403.151    19457402.067    19457402.768                   -24456404.603 9 -24456404.606 9                 -19056925.343 9       798.000         595.000         612.000                  
G22  23880359.397    23880356.416    23880358.630                    -3289178.404 8  -3289178.421 6                  -2563001.338 6       115.000          25.000          25.000                  
G24  24034251.954    24034251.811    24034254.677                    -6404604.990 8  -6404605.000 6                  -4990601.378 8       123.000          40.000         114.000                  
G28  24647415.028    24647414.554    24647415.880                    -1927862.084 7  -1927862.074 6                  -1502234.369 6        99.000          30.000          42.000                  
G32  19784725.325    19784725.070    19784727.590                   -25279142.680 9 -25279142.681 9                 -19698021.861 9      1098.000        3035.000        2667.000                  
> 2024 10 31 21 29 20.0000000  0 10
G02  20342312.578    20342311.383    20342310.399                   -22323066.809 9 -22323066.811 8                 -17394578.283 8       644.000         333.000         428.000                  
G03  24652717.430    24652716.460    24652720.129                      283996.634 7    283996.649 6                    221296.201 7       100.000          33.000          62.000                  
G08  23302306.587    23302306.263    23302310.409                    -5651050.278 8  -5651050.295 7                  -4403415.225 8       161.000          65.000         139.000                  
G10  21235391.113    21235390.713    21235393.839                   -18930898.935 8 -18930898.933 9                 -14751336.170 9       496.000         605.000        1036.000                  
G17  23907814.649    23907814.454    23907831.302                    -1067610.821 8  -1067610.821 6                   -831908.132 6       120.000          35.000          37.000                  
G21  19476038.125    19476036.942    19476037.683                   -24358478.101 9 -24358478.103 9                 -18980619.007 9       792.000         593.000         584.000                  
G22  23841580.174    23841578.324    23841581.357                    -3492958.335 8  -3492958.326 6                  -2721790.928 6       115.000          27.000          29.000                  
G24  23969288.115    23969288.657    23969291.502                    -6745988.113 8  -6745988.121 6                  -5256614.140 8       123.000          37.000         127.000                  
G28  24675069.508    24675070.563    24675071.043                    -1782530.264 7  -1782530.267 6                  -1388988.851 6        96.000          27.000          40.000                  
G32  19789967.949    19789967.673    19789970.207                   -25251592.612 9 -25251592.613 9                 -19676554.297 9      1104.000        3049.000        2697.000                  
> 2024 10 31 21 29 30.0000000  0 10
G02  20347182.454    20347181.317    20347180.117                   -22297475.443 9 -22297475.446 8                 -17374637.003 8       621.000         313.000         394.000                  
G03  24681791.352    24681790.777    24681794.151                      436782.688 8    436782.669 6                    340350.179 7       101.000          28.000          71.000                  
G08  23376887.678    23376886.205    23376890.697                    -5259128.773 8  -5259128.792 7                  -4098021.948 8       153.000          56.000         120.000                  
G10  21222675.502    21222674.938    21222677.925                   -18997720.974 9 -18997720.972 9                 -14803405.296 9       508.000         624.000        1016.000                  
G17  23853114.183    23853113.743    23853115.572                    -1355064.188 8  -1355064.204 6                  -1055897.647 8       121.000          35.000         102.000                  
G21  19495738.674    19495737.529    19495738.249                   -24254950.498 9 -24254950.500 9                 -18899948.181 9       784.000         579.000         557.000                  
G22  23803316.918    23803315.952    23803317.750                    -3694033.185 8  -3694033.202 6                  -2878472.574 6       117.000          23.000          28.000                  
G24  23904518.112    23904517.232    23904520.887                    -7086360.504 8  -7086360.498 6                  -5521839.317 8       126.000          46.000         140.000                  
G28  24702845.392    24702844.064    24702844.962                    -1636581.493 7  -1636581.493 6                  -1275262.611 6        99.000          25.000          34.000                  
G32  19795895.760    19795895.477    19795898.010                   -25220441.917 9 -25220441.918 9                 -19652281.044 9      1099.000        3054.000        2730.000                  
> 2024 10 31 21 29 40.0000000  0 10
G02  20353043.626    20353042.526    20353041.368                   -22266675.018 9 -22266675.020 8                 -17350636.706 8       625.000         311.000         396.000                  
G03  24711118.893    24711117.040    24711121.166                      590896.250 7    590896.248 6                    460438.572 7        93.000          24.000          69.000                  
G08  23451788.633    23451787.437    23451791.722                    -4865519.615 8  -4865519.623 7                  -3791313.613 8       147.000          55.000         104.000                  
G10  21210596.309    21210595.733    21210598.757                   -19061197.430 9 -19061197.428 9                 -14852867.473 9       516.000         646.000         999.000                  
G17  23798839.039    23798838.624    23798840.779                    -1640283.467 8  -1640283.473 6                  -1278146.293 8       126.000          40.000         110.000                  
G21  19516501.272    19516500.118    19516500.728                   -24145842.555 9 -24145842.556 9                 -18814929.037 9       793.000         586.000         541.000                  
G22  23765577.052    23765575.658    23765577.779                    -3892363.624 8  -3892363.605 6                  -3033015.729 6       117.000          23.000          31.000                  
G24  23839947.671    23839947.963    23839951.183                    -7425677.137 8  -7425677.150 6                  -5786241.823 8       132.000          46.000         154.000                  
G28  24730732.762    24730732.682    24730734.718                    -1490020.859 7  -1490020.825 6                  -1161059.581 6        93.000          21.000          35.000                  
G32  19802508.453    19802508.214    19802510.773                   -25185691.762 9 -25185691.763 9                 -19625203.018 9      1085.000        2967.000        2718.000                  
> 2024 10 31 21 29 50.0000000  0 10
G02  20359892.593    20359891.458    20359890.135                   -22230683.881 9 -22230683.881 8                 -17322591.700 8       628.000         317.000         408.000                  
G03  24740691.670    24740692.197    24740695.978                      746311.070 7    746311.061 6                    581540.924 7        92.000          32.000          69.000                  
G08  23526995.402    23526994.397    23526999.158                    -4470304.218 8  -4470304.234 6                  -3483353.669 7       137.000          45.000          94.000                  
G10  21199151.653    21199151.148    21199154.075                   -19121339.623 9 -19121339.622 9                 -14899731.526 9       525.000         675.000         998.000                  
G17  23744996.165    23744995.424    23744997.354                    -1923230.691 8  -1923230.680 6                  -1498624.577 8       129.000          40.000         117.000                  
G21  19538317.443    19538316.184    19538316.880                   -24031198.275 9 -24031198.277 9                 -18725595.859 9       807.000         598.000         510.000                  
G22  23728360.902    23728359.566    23728360.638                    -4087932.358 8  -4087932.345 6                  -3185406.885 6       121.000          19.000          33.000                  
G24  23775582.907    23775583.422    23775586.523                    -7763914.353 8  -7763914.357 6                  -6049803.223 8       134.000          47.000         164.000                  
G28  24758733.857    24758733.231    24758735.769                    -1342875.021 7  -1342875.014 6                  -1046400.570 6        92.000          22.000          32.000                  
G32  19809801.606    19809801.404    19809803.939                   -25147365.596 9 -25147365.598 9                 -19595338.491 9      1080.000        2914.000        2700.000                  
> 2024 10 31 21 30  0.0000000  0 10
G02  20367730.533    20367729.109    20367728.293                   -22189496.106 9 -22189496.108 8                 -17290497.352 8       623.000         306.000         406.000                  
G03  24770514.791    24770514.026    24770517.649                      903026.555 7    903026.554 6                    703656.776 7        91.000          26.000          66.000                  
G08  23602498.407    23602497.053    23602501.555                    -4073537.829 8  -4073537.846 6                  -3174185.187 7       119.000          38.000          85.000                  
G10  21188344.262    21188343.647    21188346.606                   -19178133.768 9 -19178133.768 9                 -14943986.710 9       533.000         692.000        1012.000                  
G17  23691597.887    23691596.742    23691598.506                    -2203841.931 8  -2203841.949 6                  -1717282.592 8       134.000          46.000         127.000                  
G21  19561183.302    19561182.150    19561182.727                   -23911037.196 9 -23911037.197 9                 -18631963.875 9       817.000         629.000         505.000                  
G22  23691678.913    23691677.241    23691679.103                    -4280696.703 8  -4280696.696 6                  -3335612.840 6       119.000          23.000          31.000                  
G24  23711433.987    23711433.843    23711436.986                    -8101022.546 8  -8101022.543 6                  -6312484.863 8       138.000          49.000         183.000                  
G28  24786845.677    24786845.328    24786847.357                    -1195144.948 7  -1195144.930 6                   -931286.300 6        86.000          25.000          34.000                  
G32  19817775.770    19817775.442    19817778.010                   -25105461.749 9 -25105461.750 9                 -19562686.155 9      1075.000        2914.000        2690.000                  
> 2024 10 31 21 30 10.0000000  0 10
G02  20376557.141    20376555.925    20376554.765                   -22143111.447 9 -22143111.447 8                 -17254353.509 8       619.000         304.000         412.000                  
G03  24800581.753    24800582.489    24800586.732                     1061037.719 7   1061037.721 6                    826782.247 7        95.000          27.000          67.000                  
G08  23678284.379    23678283.381    23678287.867                    -3675279.489 8  -3675279.492 6                  -2863854.155 7       107.000          32.000          77.000                  
G10  21178175.515    21178174.916    21178177.863                   -19231570.853 9 -19231570.852 9                 -14985626.000 9       540.000         691.000        1029.000                  
G17  23638654.749    23638653.984    23638656.002                    -2482057.681 8  -2482057.690 6                  -1934073.963 8       136.000          37.000         128.000                  
G21  19585094.123    19585092.871    19585093.700                   -23785384.971 9 -23785384.973 9                 -18534053.083 9       815.000         606.000         516.000                  
G22  23655536.319    23655535.614    23655538.163                    -4470618.515 8  -4470618.518 6                  -3483603.835 6       118.000          24.000          32.000                  
G24  23647508.477    23647507.921    23647511.011                    -8436956.077 8  -8436956.082 7                  -6574251.176 8       142.000          51.000         197.000                  
G28  24815069.674    24815068.639    24815069.406                    -1046835.563 7  -1046835.566 6                   -815720.598 6        88.000          21.000          34.000                  
G32  19826429.919    19826429.704    19826432.298                   -25059983.331 9 -25059983.332 9                 -19527248.435 9      1075.000        2911.000        2686.000                  
> 2024 10 31 21 30 20.0000000  0 10
G02  20386368.447    20386367.319    20386366.206                   -22091552.418 9 -22091552.421 8                 -17214177.672 8       612.000         291.000         412.000                  
G03  24830894.652    24830892.904    24830896.852                     1220317.920 7   1220317.913 6                    950896.568 7        88.000          29.000          69.000                  
G08  23754337.553    23754337.354    23754342.736                    -3275609.424 7  -3275609.422 6                  -2552423.102 7        99.000          32.000          72.000                  
G10  21168643.020    21168642.563    21168645.399                   -19281664.083 9 -19281664.082 9                 -15024659.691 9       545.000         731.000        1023.000                  
G17  23586175.278    23586174.312    23586175.800                    -2757840.068 8  -2757840.068 6                  -2148969.169 8       140.000          43.000         142.000                  
G21  19610040.846    19610039.630    19610040.296                   -23654289.598 9 -23654289.600 9                 -18431900.871 9       818.000         626.000         520.000                  
G22  23619942.063    23619938.516    23619940.737                    -4657681.607 8  -4657681.601 6                  -3629367.184 6       127.000          25.000          29.000                  
G24  23583810.232    23583809.919    23583812.892                    -8771690.734 8  -8771690.731 7                  -6835083.300 8       145.000          63.000         219.000                  
G28  24843396.153    24843395.948    24843398.171                     -897973.512 7   -897973.508 6                   -699724.243 6        85.000          22.000          29.000                  
G32  19835759.630    19835759.404    19835761.973                   -25010955.705 9 -25010955.707 9                 -19489045.110 9      1076.000        2899.000        2699.000                  
> 2024 10 31 21 30 30.0000000  0 10
G02  20397164.899    20397163.652    20397162.673                   -22034816.976 9 -22034816.977 8                 -17169968.278 8       610.000         301.000         413.000                  
G03  24861443.804    24861444.455    24861447.718                     1380866.554 7   1380866.554 6                   1075999.276 7        89.000          34.000          65.000                  
G08  23830652.166    23830651.281    23830655.530                    -2874581.193 7  -2874581.189 6                  -2239933.713 7        92.000          30.000          66.000                  
G10  21159749.439    21159748.769    21159751.618                   -19328401.036 9 -19328401.036 9                 -15061078.105 9       554.000         732.000        1037.000                  
G17  23534170.853    23534169.789    23534171.208                    -3031125.340 8  -3031125.346 6                  -2361918.590 8       148.000          49.000         153.000                  
G21  19636018.931    19636017.589    19636018.228                   -23517774.956 9 -23517774.957 9                 -18325525.856 9       813.000         624.000         531.000                  
G22  23584895.656    23584894.124    23584896.168                    -4841844.274 8  -4841844.277 6                  -3772870.452 6       127.000          20.000          37.000                  
G24  23520350.320    23520349.655    23520352.761                    -9105175.768 8  -9105175.768 7                  -7094941.691 8       154.000          55.000         224.000                  
G28  24871828.982    24871828.340    24871830.027                     -748559.104 7   -748559.088 6                   -583297.512 6        83.000          20.000          25.000                  
G32  19845764.695    19845764.529    19845767.156                   -24958378.556 9 -24958378.558 9                 -19448075.921 9      1071.000        2890.000        2736.000                  
> 2024 10 31 21 30 40.0000000  0 10
G02  20408945.723    20408944.504    20408943.338                   -21972909.266 9 -21972909.268 8                 -17121728.552 8       622.000         310.000         423.000                  
G03  24892235.786    24892235.844    24892239.760                     1542677.860 7   1542677.867 6                   1202085.877 7        86.000          23.000          62.000                  
G08  23907212.162    23907211.529    23907216.369                    -2472253.023 7  -2472253.034 6                  -1926431.406 7        89.000          32.000          59.000                  
G10  21151495.353    21151494.953    21151497.961                   -19371774.902 9 -19371774.901 9                 -15094875.929 9       550.000         742.000        1055.000                  
G17  23482652.772    23482651.725    23482653.286                    -3301854.673 8  -3301854.667 7                  -2572876.387 8       154.000          55.000         164.000                  
G21  19663022.126    19663021.056    19663021.905                   -23375871.036 9 -23375871.038 9                 -18214951.414 9       804.000         607.000         533.000                  
G22  23550409.890    23550407.863    23550409.903                    -5023070.281 8  -5023070.268 6                  -3914085.411 6       129.000          26.000          40.000                  
G24  23457137.211    23457135.996    23457139.191                    -9437365.310 8  -9437365.329 7                  -7353790.610 8       160.000          66.000         236.000                  
G28  24900366.009    24900365.030    24900367.004                     -598597.598 7   -598597.614 6                   -466444.417 6        80.000          23.000          28.000                  
G32  19856444.343    19856444.047    19856446.794                   -24902257.210 9 -24902257.211 9                 -19404345.022 9      1068.000        2853.000        2728.000                  
> 2024 10 31 21 30 50.0000000  0 10
G02  20421705.563    20421704.358    20421703.159                   -21905856.078 9 -21905856.080 8                 -17069479.347 8       615.000         296.000         437.000                  
G03  24923262.700    24923263.070    24923266.598                     1705724.792 7   1705724.782 6                   1329135.286 7        84.000          27.000          65.000                  
G08  23984004.371    23984004.671    23984009.313                    -2068703.859 7  -2068703.846 6                  -1611977.675 7        85.000          27.000          52.000                  
G10  21143878.898    21143878.287    21143881.282                   -19411800.653 9 -19411800.652 9                 -15126064.830 9       556.000         756.000        1080.000                  
G17  23431627.577    23431626.746    23431628.537                    -3569990.437 8  -3569990.434 7                  -2781813.170 8       162.000          61.000         163.000                  
G21  19691041.314    19691039.948    19691040.840                   -23228630.201 9 -23228630.203 9                 -18100218.337 9       783.000         571.000         522.000                  
G22  23516485.552    23516483.126    23516485.971                    -5201345.040 8  -5201345.025 6                  -4053000.729 6       130.000          20.000          43.000                  
G24  23394174.048    23394173.473    23394176.768                    -9768234.436 8  -9768234.428 7                  -7611610.628 8       161.000          62.000         239.000                  
G28  24929000.000    24929000.933    24929002.302                     -448115.370 7   -448115.367 6                   -349185.652 6        80.000          22.000          27.000                  
G32  19867793.037    19867792.886    19867795.552                   -24842618.751 9 -24842618.752 9                 -19357873.522 9      1063.000        2844.000        2676.000                  
> 2024 10 31 21 31  0.0000000  0 10
G02  20435444.102    20435442.870    20435442.042                   -21833659.275 9 -21833659.278 8                 -17013222.143 8       605.000         291.000         447.000                  
G03  24954525.730    24954524.592    24954529.059                     1870006.549 7   1870006.565 6                   1457146.894 7        87.000          27.000          63.000                  
G08  24061021.504    24061019.678    24061024.879                    -1663985.783 7  -1663985.776 6                  -1296613.108 6        85.000          33.000          38.000                  
G10  21136901.439    21136900.925    21136903.826                   -19448467.562 9 -19448467.561 9                 -15154636.454 9       565.000         774.000        1091.000                  
G17  23381108.529    23381108.145    23381109.334                    -3835469.110 8  -3835469.105 7                  -2988679.530 8       170.000          64.000         164.000                  
G21  19720070.457    19720069.355    19720070.236                   -23076079.770 9 -23076079.771 9                 -17981347.913 9       743.000         513.000         512.000                  
G22  23483129.685    23483128.000    23483129.874                    -5376627.946 8  -5376627.930 6                  -4189584.689 6       132.000          27.000          48.000                  
G24  23331472.784    23331471.958    23331475.562                   -10097731.637 8 -10097731.635 7                  -7868361.612 8       163.000          65.000         258.000                  
G28  24957736.111    24957735.555    24957737.679                     -297112.295 7   -297112.291 6                   -231520.973 6        76.000          22.000          30.000                  
G32  19879811.043    19879810.766    19879813.416                   -24779464.455 9 -24779464.456 9                 -19308662.404 9      1056.000        2815.000        2640.000                  
> 2024 10 31 21 31 10.0000000  0 11
G02  20450160.660    20450159.410    20450158.388                   -21756323.922 9 -21756323.925 8                 -16952960.878 8       614.000         302.000         422.000                  
G03  24986021.778    24986020.544    24986025.242                     2035520.228 7   2035520.236 6                   1586118.426 7        78.000          27.000          67.000                  
G08  24138247.651    24138247.120    24138252.745                    -1258152.917 7  -1258152.903 6                   -980379.963 6        75.000          24.000          40.000                  
G10  21130564.512    21130564.142    21130567.104                   -19481767.373 9 -19481767.373 9                 -15180584.364 9       566.000         786.000        1081.000                  
G17  23331106.631    23331106.753    23331107.433                    -4098229.083 8  -4098229.088 7                  -3193427.449 8       175.000          70.000         174.000                  
G21  19750104.362    19750103.307    19750104.194                   -22918250.304 9 -22918250.305 8                 -17858363.961 8       719.000         488.000         482.000                  
G22  23450349.616    23450349.191    23450351.598                    -5548880.999 8  -5548880.975 6                  -4323807.738 6       135.000          31.000          48.000                  
G23  24864965.265    24864964.894    24864982.629                     -116581.041 8   -116581.017 6                    -90845.709 6       101.000          28.000          15.000                  
G24  23269041.578    23269041.656    23269044.750                   -10425807.166 8 -10425807.170 7                  -8124004.799 8       163.000          71.000         266.000                  
G28  24986570.288    24986569.342    24986571.912                     -145590.235 7   -145590.240 6                   -113451.867 6        75.000          21.000          27.000                  
G32  19892497.301    19892496.931    19892499.636                   -24712798.146 9 -24712798.147 9                 -19256714.652 9      1047.000        2768.000        2637.000                  
> 2024 10 31 21 31 20.0000000  0 11
G02  20465847.568    20465846.361    20465845.148                   -21673888.514 9 -21673888.516 8                 -16888725.560 8       611.000         295.000         389.000                  
G03  25017744.721    25017744.507    25017749.744                     2202230.881 7   2202230.848 6                   1716022.665 7        76.000          24.000          71.000                  
G08  24215670.793    24215670.476    24215676.392                     -851289.417 7   -851289.438 6                   -663343.670 6        67.000          20.000          25.000                  
G10  21124863.816    21124863.442    21124866.505                   -19511724.482 9 -19511724.482 9                 -15203927.573 9       568.000         795.000        1114.000                  
G17  23281629.145    23281628.094    23281628.869                    -4358240.867 8  -4358240.858 7                  -3396033.898 8       186.000          74.000         185.000                  
G21  19781130.830    19781129.713    19781130.595                   -22755205.589 9 -22755205.591 8                 -17731316.170 8       730.000         490.000         456.000                  
G22  23418150.624    23418148.428    23418150.543                    -5718098.543 8  -5718098.545 6                  -4455665.408 7       138.000          24.000          52.000                  
G23  24845048.344    24845047.735    24845049.168                     -221251.078 8   -221251.088 6                   -172403.678 6       104.000          19.000          20.000                  
G24  23206885.675    23206884.791    23206887.830                   -10752443.052 8 -10752443.057 7                  -8378526.179 8       170.000          78.000         277.000                  
G28  25015496.330    25015495.185    25015498.203                        6417.173 7      6417.192 6                      4995.382 6        73.000          22.000          27.000                  
G32  19905844.716    19905844.476    19905847.236                   -24642656.187 9 -24642656.189 9                 -19202058.603 9      1033.000        2662.000        2630.000                  
> 2024 10 31 21 31 30.0000000  0 11
G02  20482506.424    20482505.276    20482504.131                   -21586346.155 9 -21586346.157 8                 -16820510.795 8       610.000         303.000         382.000                  
G03  25049697.846    25049698.239    25049703.213                     2370149.998 7   2370149.997 6                   1846868.546 7        75.000          25.000          68.000                  
G08  24293285.525    24293283.223    24293288.981                     -443433.812 7   -443433.819 6                   -345534.317 6        58.000          22.000          26.000                  
G10  21119803.506    21119803.018    21119806.066                   -19538317.208 9 -19538317.209 9                 -15224649.186 9       572.000         799.000        1119.000                  
G17  23232686.969    23232686.684    23232687.641                    -4615428.623 8  -4615428.621 7                  -3596439.777 8       187.000          82.000         206.000                  
G21  19813146.179    19813145.158    19813145.992                   -22586964.023 9 -22586964.024 8                 -17600218.888 8       730.000         489.000         427.000                  
G22  23386536.283    23386534.517    23386537.013                    -5884228.819 8  -5884228.822 6                  -4585117.372 7       142.000          27.000          55.000                  
G23  24825334.524    24825334.285    24825335.524                     -324845.580 8   -324845.567 6                   -253126.679 6       106.000          25.000          23.000                  
G24  23145014.355    23145014.091    23145017.183                   -11077574.513 8 -11077574.521 7                  -8631875.272 8       178.000          80.000         273.000                  
G28  25044517.026    25044516.219    25044518.737                      158922.772 7    158922.788 6                    123830.896 6        69.000          20.000          21.000                  
G32  19919855.602    19919855.338    19919858.044                   -24569028.887 9 -24569028.889 9                 -19144686.706 9      1018.000        2608.000        2641.000                  
> 2024 10 31 21 31 40.0000000  0 11
G02  20500131.230    20500130.035    20500128.807                   -21493726.983 9 -21493726.984 8                 -16748340.084 8       613.000         300.000         378.000                  
G03  25081878.980    25081878.665    25081882.812                     2539253.228 7   2539253.246 6                   1978637.116 7        75.000          27.000          68.000                  
G08  24371071.847    24371070.032    24371077.683                      -34659.468 7    -34659.446 6                    -27009.108 6        54.000          24.000          23.000                  
G10  21115380.465    21115380.035    21115383.106                   -19561560.245 9 -19561560.245 9                 -15242760.649 9       575.000         808.000        1132.000                  
G17  23184290.755    23184290.076    23184291.276                    -4869752.579 8  -4869752.577 7                  -3794614.106 8       188.000          75.000         220.000                  
G21  19846140.109    19846138.818    19846139.657                   -22413580.967 9 -22413580.968 9                 -17465115.251 8       747.000         516.000         403.000                  
G22  23355513.065    23355510.911    23355513.211                    -6047256.724 8  -6047256.733 6                  -4712151.924 6       139.000          25.000          48.000                  
G23  24805823.933    24805823.164    24805824.798                     -427373.949 8   -427373.941 6                   -333018.845 6       106.000          23.000          26.000                  
G24  23083436.157    23083435.540    23083438.460                   -11401172.289 8 -11401172.303 7                  -8884029.291 8       185.000          87.000         279.000                  
G28  25073628.815    25073627.482    25073629.888                      311903.895 7    311903.899 6                    243036.884 6        67.000          21.000          20.000                  
G32  19934524.708    19934524.335    19934527.131                   -24491942.848 9 -24491942.850 9                 -19084619.700 9      1002.000        2539.000        2641.000                  
> 2024 10 31 21 31 50.0000000  0 11
G02  20518717.850    20518716.614    20518715.969                   -21396053.632 9 -21396053.635 8                 -16672231.054 8       602.000         292.000         372.000                  
G03  25114280.704    25114280.311    25114284.436                     2709525.107 7   2709525.086 6                   2111316.287 7        73.000          27.000          64.000                  
G08  24449019.911    24449020.023    24449028.828                      374969.719 6    374969.701 6                    292182.313 6        49.000          19.000          18.000                  
G10  21111593.874    21111593.235    21111596.370                   -19581459.891 9 -19581459.890 9                 -15258266.861 9       577.000         815.000        1161.000                  
G17  23136448.910    23136447.517    23136448.999                    -5121164.100 8  -5121164.108 7                  -3990518.993 8       187.000          80.000         228.000                  
G21  19880103.060    19880101.944    19880102.660                   -22235103.881 9 -22235103.881 9                 -17326042.255 8       757.000         541.000         368.000                  
G22  23325084.585    23325082.526    23325085.183                    -6207158.353 8  -6207158.335 6                  -4836750.443 7       146.000          20.000          56.000                  
G23  24786515.912    24786515.715    24786517.190                     -528836.668 8   -528836.663 6                   -412080.668 6       109.000          23.000          23.000                  
G24  23022155.663    23022156.182    23022158.789                   -11723197.974 8 -11723197.973 7                  -9134958.289 8       193.000          93.000         283.000                  
G28  25102827.777    25102826.855    25102829.341                      465346.762 7    465346.724 6                    362602.609 6        63.000          20.000          20.000                  
G32  19949848.310    19949848.060    19949850.865                   -24411416.136 9 -24411416.138 9                 -19021871.631 9       995.000        2490.000        2668.000                  
> 2024 10 31 21 32  0.0000000  0 11
G02  20538265.557    20538264.193    20538263.275                   -21293331.042 9 -21293331.044 8                 -16592187.537 8       614.000         307.000         362.000                  
G03  25146903.270    25146905.223    25146909.873                     2880968.857 7   2880968.866 6                   2244908.590 7        69.000          21.000          69.000                  
G10  21108445.438    21108444.996    21108448.019                   -19598004.230 9 -19598004.229 9                 -15271158.541 9       579.000         804.000        1138.000                  
G14  24811686.961    24811687.527    24811714.397                         322.730 7       322.699 6                       248.229 6        71.000          21.000          16.000                  
G17  23089172.840    23089172.367    23089173.771                    -5369596.068 8  -5369596.068 7                  -4184102.146 8       188.000          81.000         241.000                  
G21  19915030.099    19915028.786    19915029.574                   -22051562.461 9 -22051562.462 9                 -17183023.028 8       762.000         548.000         334.000                  
G22  23295259.851    23295257.268    23295259.182                    -6363891.521 8  -6363891.513 6                  -4958879.971 7       153.000          24.000          54.000                  
G23  24767414.784    24767413.695    24767416.027                     -629215.581 8   -629215.579 6                   -490297.925 6       108.000          24.000          29.000                  
G24  22961186.908    22961186.253    22961189.292                   -12043594.184 8 -12043594.185 8                  -9384617.563 8       198.000         102.000         287.000                  
G28  25132114.386    25132115.104    25132117.944                      619256.291 7    619256.299 6                    482532.055 6        63.000          21.000          20.000                  
G32  19965826.891    19965826.571    19965829.331                   -24327448.683 9 -24327448.684 9                 -18956442.470 9       988.000        2461.000        2656.000                  
> 2024 10 31 21 32 10.0000000  0 11
G02  20558766.604    20558765.501    20558764.545                   -21185596.713 9 -21185596.715 8                 -16508238.777 8       630.000         309.000         359.000                  
G03  25179748.844    25179747.026    25179752.342                     3053556.286 7   3053556.276 6                   2379392.087 7        71.000          20.000          67.000                  
G10  21105931.651    21105931.330    21105934.369                   -19611213.262 9 -19611213.261 9                 -15281451.275 9       582.000         828.000        1122.000                  
G14  24807761.602    24807762.664    24807765.475                      -20302.767 7    -20302.780 6                    -15821.519 6        70.000          21.000          21.000                  
G17  23042472.501    23042471.040    23042471.996                    -5615012.954 8  -5615012.957 7                  -4375335.846 8       193.000          86.000         249.000                  
G21  19950908.656    19950907.478    19950908.156                   -21863018.963 9 -21863018.964 9                 -17036106.084 8       763.000         543.000         323.000                  
G22  23266038.148    23266036.812    23266039.000                    -6517446.106 8  -6517446.109 6                  -5078532.677 7       156.000          26.000          53.000                  
G23  24748516.489    24748515.831    24748518.070                     -728523.834 8   -728523.824 6                   -567680.876 6       110.000          28.000          23.000                  
G24  22900532.179    22900532.003    22900534.845                   -12362334.664 8 -12362334.665 8                  -9632986.643 8       209.000         106.000         316.000                  
G28  25161488.033    25161486.840    25161490.247                      773607.325 7    773607.329 6                    602805.469 6        60.000          24.000          25.000                  
G32  19982454.131    19982453.762    19982456.588                   -24240072.161 9 -24240072.163 9                 -18888356.886 9       977.000        2396.000        2670.000                  
> 2024 10 31 21 32 20.0000000  0 11
G02  20580218.942    20580217.855    20580216.990                   -21072863.526 9 -21072863.526 8                 -16420394.773 8       614.000         307.000         343.000                  
G03  25212807.734    25212807.010    25212812.223                     3227285.074 7   3227285.089 6                   2514764.934 7        70.000          23.000          64.000                  
G10  21104053.921    21104053.505    21104056.458                   -19621081.606 9 -19621081.606 9                 -15289140.861 9       594.000         851.000        1133.000                  
G14  24804327.498    24804324.582    24804326.699                      -38368.438 7    -38368.420 6                    -29898.673 6        72.000          23.000          23.000                  
G17  22996356.485    22996355.395    22996355.770                    -5857353.534 8  -5857353.527 7                  -4564172.414 8       200.000          90.000         276.000                  
G21  19987732.292    19987731.093    19987731.704                   -21669510.537 9 -21669510.538 9                 -16885320.349 8       773.000         550.000         316.000                  
G22  23237429.403    23237428.133    23237429.752                    -6667786.527 8  -6667786.510 6                  -5195680.767 7       161.000          29.000          54.000                  
G23  24729825.756    24729824.572    24729824.819                     -826748.726 8   -826748.742 6                   -644219.585 6       113.000          27.000          21.000                  
G24  22840202.753    22840202.800    22840205.706                   -12679367.008 8 -12679367.008 8                  -9880024.703 8       220.000         123.000         338.000                  
G28  25190942.943    25190943.427    25190945.777                      928399.370 7    928399.396 6                    723422.611 6        59.000          16.000          22.000                  
G32  19999728.672    19999728.451    19999731.383                   -24149292.849 9 -24149292.851 9                 -18817619.788 9       977.000        2382.000        2657.000                  
> 2024 10 31 21 32 30.0000000  0 11
G02  20602618.241    20602617.036    20602615.940                   -20955155.969 9 -20955155.971 8                 -16328674.635 8       623.000         311.000         345.000                  
G03  25246082.464    25246080.896    25246087.429                     3402142.928 7   3402142.910 6                   2651017.663 7        74.000          19.000          68.000                  
G10  21102810.511    21102810.237    21102813.211                   -19627614.768 9 -19627614.767 9                 -15294231.580 9       599.000         874.000        1148.000                  
G14  24801372.235    24801372.865    24801376.241                      -53876.234 7    -53876.250 6                    -41982.361 6        71.000          21.000          19.000                  
G17  22950834.709    22950834.124    22950834.894                    -6096567.380 8  -6096567.386 7                  -4750572.583 8       206.000          93.000         285.000                  
G21  20025491.155    20025490.019    20025490.528                   -21471085.886 9 -21471085.888 9                 -16730703.798 8       738.000         510.000         321.000                  
G22  23209436.945    23209435.368    23209436.650                    -6814888.224 8  -6814888.243 6                  -5310305.197 7       162.000          29.000          56.000                  
G23  24711339.855    24711339.785    24711339.755                     -923887.980 8   -923887.978 6                   -719912.350 6       109.000          21.000          27.000                  
G24  22780206.637    22780206.594    22780209.381                   -12994648.986 8 -12994648.990 8                 -10125698.825 8       228.000         129.000         374.000                  
G28  25220483.411    25220480.241    25220484.364                     1083621.697 7   1083621.695 6                    844374.880 6        59.000          21.000          26.000                  
G32  20017647.898    20017647.553    20017650.354                   -24055127.753 9 -24055127.755 9                 -18744244.380 9       987.000        2446.000        2634.000                  
> 2024 10 31 21 32 40.0000000  0 12
G02  20625956.120    20625955.000    20625953.964                   -20832514.422 9 -20832514.422 8                 -16233109.797 8       628.000         316.000         354.000                  
G03  25279566.914    25279565.082    25279570.448                     3578101.280 7   3578101.283 6                   2788127.816 7        72.000          22.000          63.000                  
G10  21102198.229    21102197.607    21102200.654                   -19630833.599 9 -19630833.598 9                 -15296739.686 9       606.000         878.000        1155.000                  
G12  25097208.514    25097207.113    25097215.617                     -391122.183 8   -391122.173 6                   -304773.653 6       114.000          33.000          30.000                  
G14  24798905.078    24798904.092    24798908.055                      -66844.454 7    -66844.444 6                    -52086.883 6        73.000          20.000          17.000                  
G17  22905914.921    22905915.076    22905915.561                    -6332618.940 8  -6332618.945 7                  -4934508.645 8       213.000          96.000         308.000                  
G21  20064173.503    20064172.262    20064173.155                   -21267809.118 9 -21267809.119 8                 -16572306.359 8       696.000         455.000         323.000                  
G22  23182061.094    23182060.202    23182062.166                    -6958741.921 8  -6958741.928 6                  -5422398.753 7       164.000          34.000          53.000                  
G23  24693058.571    24693057.935    24693058.854                    -1019954.313 8  -1019954.329 6                   -794769.034 6       108.000          24.000          19.000                  
G24  22720548.978    22720548.434    22720551.365                   -13308152.954 8 -13308152.957 8                 -10369987.478 8       241.000         140.000         420.000                  
G28  25250094.826    25250095.170    25250098.155                     1239250.369 7   1239250.383 6                    965643.804 6        57.000          22.000          21.000                  
G32  20036205.116    20036204.771    20036207.543                   -23957609.245 9 -23957609.247 9                 -18668255.930 9      1000.000        2515.000        2618.000                  
> 2024 10 31 21 32 50.0000000  0 12
G02  20650233.189    20650232.139    20650231.207                   -20704937.319 9 -20704937.321 8                 -16133699.065 8       619.000         307.000         361.000                  
G03  25313261.571    25313262.260    25313267.589                     3755176.154 7   3755176.166 6                   2926107.982 7        72.000          28.000          59.000                  
G10  21102220.327    21102219.952    21102222.802                   -19630716.227 9 -19630716.226 9                 -15296648.107 9       615.000         920.000        1166.000                  
G12  25027925.513    25027924.824    25027924.647                     -755203.438 8   -755203.425 6                   -588471.933 7       112.000          35.000          61.000                  
G14  24796925.576    24796923.622    24796928.793                      -77248.020 7    -77248.027 6                    -60192.789 6        73.000          21.000          21.000                  
G17  22861612.902    22861612.480    22861612.948                    -6565429.777 8  -6565429.777 7                  -5115919.462 8       215.000          99.000         340.000                  
G21  20103775.019    20103773.654    20103774.479                   -21059702.150 9 -21059702.149 8                 -16410145.110 8       670.000         417.000         328.000                  
G22  23155316.077    23155314.417    23155314.472                    -7099295.699 8  -7099295.677 6                  -5531920.904 6       164.000          31.000          48.000                  
G23  24674987.731    24674987.487    24674987.292                    -1114916.862 8  -1114916.886 6                   -868765.595 6       106.000          26.000          21.000                  
G24  22661242.680    22661242.688    22661245.203                   -13619807.860 8 -13619807.860 8                 -10612835.295 8       251.000         163.000         467.000                  
G28  25279792.238    25279792.011    25279794.122                     1395303.440 7   1395303.434 6                   1087243.560 6        55.000          20.000          19.000                  
G32  20055402.322    20055402.120    20055404.780                   -23856726.798 9 -23856726.799 9                 -18589646.188 9      1013.000        2572.000        2617.000                  
> 2024 10 31 21 33  0.0000000  0 12
G02  20675437.554    20675436.442    20675435.455                   -20572487.096 9 -20572487.096 8                 -16030491.041 8       607.000         297.000         361.000                  
G03  25347160.964    25347162.095    25347166.995                     3933319.880 7   3933319.886 6                   3064921.023 7        69.000          26.000          62.000                  
G10  21102869.481    21102869.146    21102871.873                   -19627304.630 9 -19627304.629 9                 -15293989.579 9       627.000         957.000        1187.000                  
G12  24958701.255    24958701.537    24958700.649                    -1118973.625 8  -1118973.634 6                   -871928.494 7       115.000          30.000          67.000                  
G14  24795426.342    24795424.129    24795428.487                      -85126.185 7    -85126.169 6                    -66330.925 6        79.000          21.000          23.000                  
G17  22817929.807    22817929.338    22817929.696                    -6794985.172 8  -6794985.177 8                  -5294793.554 8       216.000         107.000         359.000                  
G21  20144279.208    20144277.890    20144278.823                   -20846850.845 9 -20846850.847 8                 -16244286.946 8       643.000         386.000         323.000                  
G22  23129193.983    23129193.037    23129193.883                    -7236561.571 8  -7236561.578 6                  -5638881.082 6       166.000          34.000          47.000                  
G23  24657120.194    24657119.342    24657120.876                    -1208808.142 8  -1208808.135 6                   -941927.252 6       110.000          24.000          24.000                  
G24  22602289.834    22602289.670    22602292.561                   -13929605.724 8 -13929605.727 8                 -10854236.068 9       265.000         179.000         502.000                  
G28  25309562.572    25309559.781    25309563.035                     1551736.276 7   1551736.274 6                   1209137.212 6        54.000          16.000          25.000                  
G32  20075229.649    20075229.360    20075231.939                   -23752533.618 9 -23752533.619 9                 -18508456.613 9      1009.000        2561.000        2535.000                  
> 2024 10 31 21 33 10.0000000  0 12
G02  20701569.843    20701568.684    20701567.636                   -20435160.415 9 -20435160.417 8                 -15923483.120 8       591.000         284.000         332.000                  
G03  25381268.407    25381268.800    25381274.055                     4112551.943 7   4112551.957 6                   3204582.149 7        73.000          23.000          58.000                  
G10  21104150.176    21104149.731    21104152.569                   -19620574.078 9 -19620574.078 9                 -15288744.837 9       630.000         975.000        1239.000                  
G12  24889552.632    24889552.427    24889552.821                    -1482351.669 8  -1482351.686 6                  -1155079.992 7       116.000          37.000          76.000                  
G14  24794412.149    24794410.658    24794413.605                      -90450.965 7    -90450.959 6                    -70479.457 6        79.000          19.000          20.000                  
G17  22774881.424    22774881.423    22774881.675                    -7021203.438 8  -7021203.442 8                  -5471067.264 8       221.000         112.000         374.000                  
G21  20185682.288    20185681.181    20185682.042                   -20629275.115 9 -20629275.116 8                 -16074747.377 8       644.000         394.000         311.000                  
G22  23103709.389    23103707.851    23103709.160                    -7370484.638 8  -7370484.648 6                  -5743236.439 7       168.000          23.000          53.000                  
G23  24639463.891    24639463.434    24639464.968                    -1301593.961 8  -1301593.970 6                  -1014227.522 6       107.000          28.000          22.000                  
G24  22543704.635    22543704.942    22543707.660                   -14237471.077 8 -14237471.078 8                 -11094130.992 9       279.000         188.000         552.000                  
G28  25339405.982    25339404.966    25339408.521                     1708570.936 7   1708570.916 6                   1331345.946 6        56.000          20.000          22.000                  
G32  20095689.470    20095689.133    20095691.742                   -23645016.156 9 -23645016.158 9                 -18424676.685 9      1000.000        2505.000        2492.000                  
> 2024 10 31 21 33 20.0000000  0 12
G02  20728618.302    20728617.340    20728616.282                   -20293018.240 9 -20293018.242 8                 -15812722.865 8       556.000         255.000         318.000                  
G03  25415576.366    25415575.081    25415579.172                     4292828.506 7   4292828.508 6                   3345057.232 7        71.000          23.000          55.000                  
G10  21106054.904    21106054.613    21106057.331                   -19610563.401 9 -19610563.400 9                 -15280944.086 9       640.000         988.000        1256.000                  
G12  24820481.879    24820481.745    24820481.680                    -1845319.297 8  -1845319.297 6                  -1437911.696 7       117.000          33.000          69.000                  
G14  24793876.813    24793876.584    24793878.299                      -93258.054 7    -93258.069 6                    -72666.098 6        80.000          29.000          21.000                  
G17  22732472.252    22732471.431    22732471.896                    -7244066.511 8  -7244066.515 8                  -5644726.584 8       227.000         111.000         394.000                  
G21  20227968.637    20227967.510    20227968.179                   -20407058.689 9 -20407058.690 8                 -15901591.632 8       649.000         391.000         289.000                  
G22  23078859.143    23078857.431    23078858.072                    -7501074.058 8  -7501074.063 6                  -5844994.187 6       170.000          28.000          48.000                  
G23  24622011.569    24622011.269    24622011.534                    -1393302.910 8  -1393302.917 6                  -1085688.653 6       112.000          23.000          21.000                  
G24  22485490.143    22485489.992    22485492.649                   -14543391.584 8 -14543391.587 8                 -11332510.464 9       296.000         219.000         593.000                  
G28  25369318.158    25369319.034    25369321.398                     1865767.857 7   1865767.844 6                   1453836.983 6        55.000          18.000          18.000                  
G32  20116772.286    20116771.996    20116774.600                   -23534224.511 9 -23534224.512 9                 -18338345.464 9       985.000        2442.000        2420.000                  
> 2024 10 31 21 33 30.0000000  0 12
G02  20756582.525    20756581.463    20756580.176                   -20146065.669 9 -20146065.670 8                 -15698214.150 8       547.000         245.000         310.000                  
G03  25450081.844    25450080.805    25450086.732                     4474162.368 7   4474162.373 6                   3486356.227 7        72.000          21.000          53.000                  
G10  21108587.111    21108586.756    21108589.408                   -19597255.574 9 -19597255.573 9                 -15270574.075 9       642.000         993.000        1267.000                  
G12  24751504.752    24751503.281    24751503.569                    -2207801.060 8  -2207801.067 6                  -1720364.810 7       118.000          34.000          82.000                  
G14  24793827.082    24793825.061    24793826.750                      -93526.798 7    -93526.794 6                    -72874.760 6        87.000          27.000          19.000                  
G17  22690715.204    22690714.778    22690714.945                    -7463500.056 8  -7463500.061 8                  -5815713.540 8       230.000         115.000         411.000                  
G21  20271132.901    20271131.653    20271132.519                   -20180229.292 9 -20180229.293 8                 -15724841.352 8       647.000         392.000         266.000                  
G22  23054652.034    23054650.652    23054651.401                    -7628282.957 8  -7628282.962 6                  -5944117.783 7       175.000          31.000          53.000                  
G23  24604771.163    24604769.407    24604770.993                    -1483907.333 8  -1483907.337 6                  -1156289.033 6       109.000          27.000          25.000                  
G24  22427658.559    22427658.437    22427661.060                   -14847298.105 8 -14847298.109 8                 -11569320.598 9       307.000         229.000         627.000                  
G28  25399307.751    25399304.317    25399307.405                     2023342.886 7   2023342.863 6                   1576622.592 6        56.000          22.000          18.000                  
G32  20138479.301    20138479.075    20138481.601                   -23420152.168 9 -23420152.169 9                 -18249457.686 9       972.000        2377.000        2400.000                  
> 2024 10 31 21 33 40.0000000  0 12
G02  20785454.111    20785452.795    20785451.598                   -19994343.668 9 -19994343.671 8                 -15579988.842 8       544.000         236.000         313.000                  
G03  25484785.112    25484784.956    25484789.853                     4656531.704 7   4656531.695 6                   3628462.185 6        70.000          25.000          48.000                  
G10  21111743.398    21111742.998    21111745.530                   -19580668.808 9 -19580668.808 9                 -15257649.105 9       640.000         996.000        1296.000                  
G12  24682626.904    24682626.124    24682625.712                    -2569755.688 8  -2569755.700 6                  -2002407.198 7       122.000          44.000          79.000                  
G14  24794255.408    24794253.128    24794255.264                      -91272.366 7    -91272.353 6                    -71117.497 6        93.000          22.000          24.000                  
G17  22649618.162    22649617.952    22649618.166                    -7679465.073 8  -7679465.070 8                  -5983997.832 8       233.000         120.000         442.000                  
G21  20315162.695    20315161.608    20315162.215                   -19948849.687 9 -19948849.689 8                 -15544545.359 8       648.000         400.000         259.000                  
G22  23031089.812    23031088.468    23031088.996                    -7752099.684 8  -7752099.684 6                  -6040598.247 7       178.000          32.000          54.000                  
G23  24587736.949    24587736.672    24587738.112                    -1573414.056 8  -1573414.043 6                  -1226034.189 6       110.000          27.000          25.000                  
G24  22370217.247    22370216.630    22370219.218                   -15149155.949 8 -15149155.951 8                 -11804534.388 9       322.000         254.000         676.000                  
G28  25429360.237    25429357.727    25429360.516                     2181277.363 7   2181277.353 6                   1699688.394 6        59.000          20.000          19.000                  
G32  20160805.181    20160804.929    20160807.364                   -23302828.217 9 -23302828.219 9                 -18158036.156 9       971.000        2373.000        2386.000                  
> 2024 10 31 21 33 50.0000000  0 12
G02  20815223.910    20815222.859    20815221.558                   -19837899.419 9 -19837899.420 8                 -15458083.937 8       530.000         224.000         300.000                  
G03  25519682.041    25519680.854    25519686.060                     4839909.672 7   4839909.675 6                   3771354.121 6        72.000          22.000          50.000                  
G10  21115519.244    21115518.723    21115521.353                   -19560826.287 9 -19560826.286 9                 -15242187.214 9       638.000         992.000        1321.000                  
G12  24613856.203    24613855.373    24613855.325                    -2931146.409 8  -2931146.396 6                  -2284010.219 7       118.000          35.000          76.000                  
G14  24795159.406    24795159.348    24795160.214                      -86514.962 7    -86514.967 6                    -67410.215 6        96.000          24.000          22.000                  
G17  22609188.079    22609187.397    22609187.857                    -7891927.263 8  -7891927.264 8                  -6149552.685 8       235.000         122.000         441.000                  
G21  20360045.801    20360044.383    20360044.790                   -19712988.583 9 -19712988.586 8                 -15360757.294 8       671.000         427.000         237.000                  
G22  23008175.734    23008173.289    23008174.471                    -7872517.777 8  -7872517.787 6                  -6134430.418 7       178.000          35.000          60.000                  
G23  24570911.027    24570911.080    24570911.070                    -1661834.669 8  -1661834.659 6                  -1294933.105 6       110.000          25.000          20.000                  
G24  22313170.865    22313170.527    22313173.044                   -15448935.014 8 -15448935.015 8                 -12038128.386 9       337.000         268.000         732.000                  
G28  25459476.521    25459477.012    25459477.612                     2339550.039 7   2339549.996 6                   1823017.338 6        56.000          20.000          22.000                  
G32  20183743.210    20183743.006    20183745.459                   -23182286.740 9 -23182286.742 9                 -18064107.497 9       964.000        2333.000        2378.000                  
> 2024 10 31 21 34  0.0000000  0 12
G02  20845891.735    20845890.656    20845889.413                   -19676738.158 9 -19676738.159 8                 -15332503.435 8       529.000         220.000         305.000                  
G03  25554772.881    25554771.376    25554776.324                     5024311.955 7   5024311.966 6                   3915044.301 6        68.000          23.000          49.000                  
G10  21119918.140    21119917.570    21119920.179                   -19537709.475 9 -19537709.474 9                 -15224173.948 9       639.000         989.000        1348.000                  
G12  24545207.353    24545207.165    24545207.406                    -3291893.324 8  -3291893.327 6                  -2565111.633 7       125.000          47.000          83.000                  
G14  24796545.023    24796545.095    24796545.748                      -79231.647 7    -79231.671 6                    -61734.790 6        98.000          23.000          18.000                  
G17  22569438.966    22569438.009    22569438.414                    -8100810.779 8  -8100810.786 8                  -6312319.005 8       236.000         124.000         438.000                  
G21  20405775.976    20405774.915    20405775.108                   -19472672.724 9 -19472672.726 8                 -15173497.950 8       695.000         449.000         227.000                  
G22  22985916.095    22985914.901    22985915.884                    -7989489.210 8  -7989489.215 6                  -6225576.869 7       181.000          34.000          53.000                  
G23  24554298.560    24554297.272    24554297.358                    -1749138.361 8  -1749138.353 6                  -1362961.731 6       112.000          26.000          22.000                  
G24  22256534.297    22256533.706    22256536.380                   -15746562.731 8 -15746562.732 8                 -12270046.030 9       337.000         285.000         798.000                  
G28  25489664.554    25489662.596    25489663.255                     2498179.651 7   2498179.658 6                   1946626.564 6        58.000          20.000          21.000                  
G32  20207295.108    20207294.901    20207297.324                   -23058519.729 9 -23058519.730 9                 -17967665.453 9       950.000        2266.000        2367.000                  
> 2024 10 31 21 34 10.0000000  0 12
G02  20877444.414    20877443.395    20877442.203                   -19510925.973 9 -19510925.975 8                 -15203298.901 8       527.000         220.000         296.000                  
G03  25590049.563    25590049.048    25590053.287                     5209694.568 7   5209694.567 6                   4059498.473 6        70.000          21.000          44.000                  
G10  21124932.250    21124931.641    21124934.255                   -19511359.966 9 -19511359.967 9                 -15203641.795 9       637.000         974.000        1376.000                  
G12  24476686.367    24476685.418    24476685.850                    -3651975.554 8  -3651975.554 6                  -2845695.106 7       126.000          40.000          88.000                  
G14  24798403.543    24798404.514    24798405.689                      -69460.441 8    -69460.442 6                    -54120.581 6       101.000          23.000          21.000                  
G17  22530373.152    22530372.796    22530373.207                    -8306099.612 8  -8306099.613 8                  -6472284.282 8       231.000         111.000         444.000                  
G21  20452337.528    20452336.406    20452336.664                   -19227989.146 9 -19227989.147 8                 -14982835.197 8       674.000         434.000         198.000                  
G22  22964310.391    22964309.094    22964310.213                    -8103026.353 8  -8103026.329 6                  -6314047.362 7       181.000          31.000          55.000                  
G23  24537891.497    24537891.373    24537890.853                    -1835354.176 8  -1835354.172 6                  -1430142.828 6       112.000          23.000          23.000                  
G24  22200309.334    22200308.828    22200311.631                   -16042025.943 8 -16042025.945 8                 -12500277.075 9       344.000         296.000         856.000                  
G28  25519912.278    25519909.581    25519911.883                     2657126.311 7   2657126.313 6                   2070481.357 6        53.000          20.000          22.000                  
G32  20231450.885    20231450.712    20231453.091                   -22931579.138 9 -22931579.140 9                 -17868750.523 9       940.000        2214.000        2300.000                  
> 2024 10 31 21 34 20.0000000  0 12
G02  20909878.132    20909876.919    20909875.508                   -19340485.806 9 -19340485.808 8                 -15070488.145 8       533.000         226.000         288.000                  
G03  25625514.148    25625511.960    25625516.511                     5396057.221 7   5396057.216 6                   4204716.323 6        68.000          22.000          49.000                  
G10  21130561.633    21130561.268    21130563.865                   -19481775.691 9 -19481775.690 9                 -15180589.028 9       632.000         950.000        1400.000                  
G12  24408303.972    24408303.224    24408303.527                    -4011328.237 8  -4011328.232 6                  -3125710.138 7       132.000          45.000          93.000                  
G14  24800739.058    24800737.713    24800739.790                      -57196.240 7    -57196.261 6                    -44564.011 6        98.000          21.000          21.000                  
G17  22492003.351    22492002.884    22492003.403                    -8507734.510 8  -8507734.516 8                  -6629402.369 8       230.000         116.000         459.000                  
G21  20499721.972    20499720.861    20499720.896                   -18978981.760 9 -18978981.761 8                 -14788803.268 8       658.000         402.000         183.000                  
G22  22943364.734    22943363.508    22943364.006                    -8213098.072 8  -8213098.070 6                  -6399817.532 7       191.000          34.000          56.000                  
G23  24521694.350    24521694.058    24521695.531                    -1920466.979 8  -1920466.998 6                  -1496464.352 6       112.000          22.000          21.000                  
G24  22144507.108    22144506.881    22144509.642                   -16335267.521 8 -16335267.521 8                 -12728776.989 9       353.000         304.000         916.000                  
G28  25550216.353    25550217.147    25550219.011                     2816394.163 7   2816394.188 6                   2194586.414 6        55.000          18.000          20.000                  
G32  20256209.138    20256208.845    20256211.170                   -22801473.415 9 -22801473.416 9                 -17767369.289 9       933.000        2192.000        2219.000                  
> 2024 10 31 21 34 30.0000000  0 12
G02  20943188.003    20943187.022    20943185.394                   -19165440.336 9 -19165440.339 8                 -14934088.989 8       532.000         231.000         283.000                  
G03  25661161.790    25661162.250    25661167.430                     5583401.155 7   5583401.155 6                   4350698.792 6        65.000          20.000          45.000                  
G10  21136807.250    21136806.977    21136809.680                   -19448953.800 9 -19448953.799 9                 -15155013.499 9       618.000         924.000        1404.000                  
G12  24340072.285    24340072.545    24340072.569                    -4369884.396 8  -4369884.395 7                  -3405104.524 8       136.000          51.000         107.000                  
G14  24803548.815    24803547.097    24803550.126                      -42432.211 7    -42432.199 6                    -33059.550 6        94.000          22.000          19.000                  
G17  22454340.180    22454339.637    22454340.292                    -8705655.202 8  -8705655.205 8                  -6783626.307 8       235.000         122.000         473.000                  
G21  20547920.912    20547919.827    20547919.947                   -18725693.129 9 -18725693.130 8                 -14591435.347 8       625.000         364.000         166.000                  
G22  22923083.951    22923082.513    22923083.735                    -8319672.585 8  -8319672.570 6                  -6482862.577 7       186.000          31.000          54.000                  
G23  24505711.009    24505711.143    24505710.609                    -2004460.198 8  -2004460.179 6                  -1561913.596 6       111.000          29.000          21.000                  
G24  22089139.180    22089138.631    22089141.467                   -16626228.604 8 -16626228.607 8                 -12955499.903 9       368.000         330.000         972.000                  
G28  25580587.361    25580586.275    25580589.128                     2975989.133 7   2975989.147 6                   2318946.379 6        55.000          22.000          22.000                  
G32  20281568.355    20281568.083    20281570.350                   -22668209.828 9 -22668209.830 9                 -17663527.477 9       932.000        2189.000        2169.000                  
> 2024 10 31 21 34 40.0000000  0 12
G02  20977361.443    20977360.131    20977358.527                   -18985859.055 9 -18985859.054 8                 -14794155.498 8       538.000         224.000         268.000                  
G03  25696991.341    25696990.379    25696994.861                     5771681.425 7   5771681.429 6                   4497410.848 6        60.000          21.000          46.000                  
G10  21143661.007    21143660.509    21143663.213                   -19412938.165 9 -19412938.165 9                 -15126949.396 9       602.000         887.000        1403.000                  
G12  24271998.670    24271997.065    24271997.039                    -4727622.825 8  -4727622.812 7                  -3683861.723 8       149.000          53.000         108.000                  
G14  24806824.757    24806823.846    24806828.339                      -25208.425 7    -25208.433 6                    -19638.222 6        91.000          21.000          18.000                  
G17  22417386.111    22417385.982    22417386.572                    -8899848.284 8  -8899848.288 8                  -6934945.596 8       241.000         129.000         464.000                  
G21  20596917.766    20596916.473    20596916.868                   -18468212.770 9 -18468212.771 8                 -14390801.192 8       592.000         328.000         157.000                  
G22  22903466.463    22903465.085    22903465.825                    -8422765.170 8  -8422765.180 6                  -6563194.520 7       184.000          37.000          63.000                  
G23  24489933.781    24489934.602    24489936.541                    -2087363.844 8  -2087363.846 6                  -1626513.828 6       114.000          29.000          21.000                  
G24  22034207.158    22034206.948    22034209.781                   -16914896.603 8 -16914896.604 8                 -13180436.000 9       379.000         347.000        1024.000                  
G28  25611014.755    25611010.948    25611013.273                     3135870.918 7   3135870.917 6                   2443529.124 6        55.000          22.000          18.000                  
G32  20307518.140    20307517.901    20307520.217                   -22531842.126 9 -22531842.127 9                 -17557266.889 9       934.000        2185.000        2115.000                  
> 2024 10 31 21 34 50.0000000  0 12
G02  21012393.013    21012391.849    21012390.542                   -18801765.453 9 -18801765.456 8                 -14650705.834 8       521.000         215.000         282.000                  
G03  25732998.655    25732996.852    25733002.019                     5960899.714 7   5960899.715 6                   4644853.830 6        59.000          21.000          47.000                  
G10  21151122.669    21151122.294    21151125.021                   -19373726.275 9 -19373726.274 9                 -15096394.704 9       599.000         860.000        1400.000                  
G12  24204090.643    24204090.170    24204090.319                    -5084475.159 8  -5084475.158 7                  -3961928.503 8       156.000          64.000         112.000                  
G14  24810571.845    24810571.098    24810572.820                       -5519.097 7     -5519.090 6                     -4296.030 6        89.000          20.000          17.000                  
G17  22381153.577    22381152.984    22381153.417                    -9090254.139 8  -9090254.147 8                  -7083313.814 8       252.000         143.000         465.000                  
G21  20646703.669    20646702.935    20646702.992                   -18206584.004 9 -18206584.007 8                 -14186934.529 8       573.000         303.000         152.000                  
G22  22884517.819    22884515.697    22884516.666                    -8522344.504 8  -8522344.542 6                  -6640788.802 7       188.000          27.000          58.000                  
G23  24474369.267    24474369.008    24474369.122                    -2169160.880 8  -2169160.914 6                  -1690251.786 6       118.000          22.000          22.000                  
G24  21979723.285    21979722.816    21979725.703                   -17201212.173 8 -17201212.175 8                 -13403539.042 9       391.000         382.000        1052.000                  
G28  25641492.906    25641490.390    25641491.968                     3296045.506 7   3296045.502 6                   2568336.468 6        53.000          18.000          18.000                  
G32  20334057.228    20334057.093    20334059.346                   -22392377.755 9 -22392377.756 9                 -17448593.317 9       931.000        2196.000        2043.000                  
> 2024 10 31 21 35  0.0000000  0 12
G02  21048278.710    21048277.404    21048276.174                   -18613184.921 8 -18613184.919 8                 -14503759.949 8       491.000         191.000         290.000                  
G03  25769180.234    25769181.496    25769187.582                     6151057.216 7   6151057.230 6                   4793028.742 6        59.000          24.000          42.000                  
G10  21159193.048    21159192.616    21159195.294                   -19331316.590 9 -19331316.590 9                 -15063348.155 9       594.000         854.000        1402.000                  
G12  24136365.743    24136365.323    24136364.804                    -5440372.999 8  -5440372.992 7                  -4239251.497 8       167.000          65.000         126.000                  
G14  24814788.894    24814787.949    24814789.962                       16641.039 7     16641.025 6                     12971.630 6        88.000          22.000          23.000                  
G17  22345652.359    22345651.744    22345652.283                    -9276814.425 8  -9276814.431 8                  -7228685.441 8       267.000         161.000         491.000                  
G21  20697271.327    20697270.210    20697270.266                   -17940850.980 9 -17940850.979 8                 -13979869.744 8       555.000         285.000         157.000                  
G22  22866242.314    22866241.128    22866241.882                    -8618381.155 8  -8618381.174 6                  -6715622.572 7       191.000          27.000          54.000                  
G23  24459017.669    24459017.034    24459016.266                    -2249834.976 8  -2249834.955 6                  -1753114.668 6       119.000          26.000          21.000                  
G24  21925698.056    21925697.818    21925700.549                   -17485116.349 8 -17485116.350 8                 -13624763.082 9       405.000         398.000        1101.000                  
G28  25672029.221    25672027.285    25672031.667                     3456519.758 6   3456519.752 6                   2693381.544 6        47.000          22.000          20.000                  
G32  20361184.219    20361184.014    20361186.267                   -22249825.047 9 -22249825.049 9                 -17337513.272 9       931.000        2186.000        1985.000                  
> 2024 10 31 21 35 10.0000000  0 11
G02  21085004.547    21085003.102    21085001.698                   -18420190.413 8 -18420190.414 8                 -14353374.620 8       469.000         172.000         288.000                  
G03  25805538.977    25805537.605    25805542.927                     6342107.702 7   6342107.716 6                   4941899.360 6        58.000          22.000          39.000                  
G10  21167863.345    21167862.500    21167865.184                   -19285755.438 9 -19285755.439 9                 -15027845.933 9       587.000         834.000        1378.000                  
G12  24068826.285    24068826.038    24068825.809                    -5795294.827 8  -5795294.830 7                  -4515813.967 8       172.000          72.000         134.000                  
G14  24819468.380    24819467.423    24819469.082                       41229.644 7     41229.621 6                     32131.514 6        89.000          19.000          21.000                  
G17  22310884.762    22310884.356    22310884.843                    -9459518.442 8  -9459518.447 8                  -7371052.140 9       276.000         165.000         524.000                  
G21  20748601.863    20748600.700    20748601.258                   -17671105.570 9 -17671105.572 8                 -13769678.445 8       525.000         257.000         158.000                  
G22  22848637.623    22848635.938    22848637.351                    -8710893.110 8  -8710893.122 6                  -6787709.770 7       193.000          34.000          65.000                  
G23  24443873.869    24443872.802    24443872.847                    -2329417.115 8  -2329417.123 6                  -1815126.680 6       125.000          29.000          23.000                  
G24  21872133.785    21872133.690    21872136.450                   -17766597.248 8 -17766597.250 8                 -13844098.858 9       421.000         432.000        1150.000                  
G32  20388888.066    20388887.949    20388890.151                   -22104239.668 9 -22104239.669 9                 -17224070.106 9       922.000        2147.000        1924.000                  
> 2024 10 31 21 35 20.0000000  0 11
G02  21122566.734    21122565.902    21122564.329                   -18222796.376 8 -18222796.382 8                 -14199561.053 8       436.000         154.000         282.000                  
G03  25842067.332    25842067.047    25842071.897                     6534064.731 7   6534064.724 6                   5091476.432 6        55.000          23.000          36.000                  
G10  21177135.022    21177134.684    21177137.299                   -19237030.028 9 -19237030.026 9                 -14989878.076 9       587.000         832.000        1364.000                  
G12  24001488.079    24001487.987    24001487.477                    -6149159.221 8  -6149159.225 7                  -4791552.492 8       177.000          77.000         143.000                  
G14  24824613.756    24824610.297    24824612.858                       68263.065 7     68263.073 6                     53196.443 6        82.000          25.000          18.000                  
G17  22276864.499    22276864.217    22276864.546                    -9638296.817 8  -9638296.819 8                  -7510359.925 9       293.000         185.000         552.000                  
G21  20800690.081    20800688.780    20800689.582                   -17397380.438 8 -17397380.442 8                 -13556386.087 8       498.000         235.000         157.000                  
G22  22831711.415    22831710.182    22831711.062                    -8799840.062 8  -8799840.057 6                  -6857019.127 7       193.000          31.000          60.000                  
G23  24428943.082    24428942.709    24428943.272                    -2407878.742 8  -2407878.745 6                  -1876265.571 6       125.000          33.000          25.000                  
G24  21819044.709    21819044.509    21819047.103                   -18045583.464 8 -18045583.465 8                 -14061490.726 9       438.000         476.000        1193.000                  
G32  20417169.985    20417169.697    20417171.840                   -21955618.256 9 -21955618.257 9                 -17108261.214 9       916.000        2114.000        1844.000                  
> 2024 10 31 21 35 30.0000000  0 12
G02  21160955.434    21160954.067    21160952.678                   -18021065.118 8 -18021065.118 8                 -14042367.842 8       420.000         138.000         278.000                  
G03  25878760.274    25878760.569    25878765.686                     6726894.610 7   6726894.603 6                   5241733.579 6        57.000          22.000          34.000                  
G10  21187002.914    21187002.300    21187004.944                   -19185174.903 9 -19185174.903 9                 -14949471.462 9       583.000         827.000        1353.000                  
G12  23934358.849    23934357.244    23934357.362                    -6501931.246 8  -6501931.237 7                  -5066439.815 8       188.000          85.000         164.000                  
G14  24830216.733    24830213.214    24830217.517                       97710.896 7     97710.867 6                     76142.799 6        83.000          22.000          21.000                  
G17  22243595.532    22243594.645    22243595.314                    -9813127.805 8  -9813127.807 8                  -7646591.856 9       305.000         190.000         582.000                  
G19  23843511.698    23843511.292    23843539.270                     -524314.603 8   -524314.623 6                   -408560.865 6       177.000          34.000          19.000                  
G21  20853520.652    20853518.982    20853519.540                   -17119755.462 8 -17119755.461 8                 -13340054.880 8       454.000         194.000         169.000                  
G22  22815462.414    22815461.234    22815462.188                    -8885228.757 8  -8885228.759 6                  -6923555.760 7       195.000          33.000          65.000                  
G23  24414221.510    24414221.623    24414221.997                    -2485238.490 8  -2485238.499 6                  -1936545.933 6       128.000          27.000          19.000                  
G24  21766434.879    21766434.638    21766437.132                   -18322050.577 8 -18322050.578 9                 -14276919.658 9       455.000         504.000        1250.000                  
G32  20446021.120    20446020.788    20446022.937                   -21804004.633 9 -21804004.635 9                 -16990120.736 9       906.000        2077.000        1749.000                  
> 2024 10 31 21 35 40.0000000  0 12
G02  21200162.811    21200161.409    21200160.332                   -17815028.707 8 -17815028.719 8                 -13881819.968 8       403.000         134.000         281.000                  
G03  25915619.374    25915620.322    25915625.061                     6920594.497 7   6920594.499 6                   5392668.657 6        53.000          22.000          39.000                  
G10  21197465.219    21197464.795    21197467.455                   -19130194.550 9 -19130194.549 9                 -14906629.682 9       577.000         822.000        1345.000                  
G12  23867448.037    23867447.860    23867447.648                    -6853544.790 8  -6853544.794 7                  -5340424.440 8       194.000          94.000         179.000                  
G14  24836279.572    24836276.834    24836281.018                      129571.984 7    129571.960 6                    100969.464 6        83.000          25.000          20.000                  
G17  22211087.322    22211086.893    22211087.108                    -9983959.357 8  -9983959.361 8                  -7779707.349 9       310.000         212.000         595.000                  
G19  23783997.855    23783995.906    23783995.799                     -837064.383 8   -837064.391 6                   -652258.052 7       179.000          36.000          62.000                  
G21  20907083.209    20907081.997    20907082.637                   -16838280.331 8 -16838280.331 8                 -13120723.577 8       424.000         161.000         155.000                  
G22  22799895.205    22799893.966    22799893.653                    -8967036.447 8  -8967036.449 6                  -6987302.049 7       197.000          35.000          57.000                  
G23  24399713.606    24399712.590    24399713.208                    -2561483.922 8  -2561483.914 6                  -1995958.013 6       129.000          29.000          20.000                  
G24  21714314.775    21714314.689    21714317.104                   -18595943.361 8 -18595943.363 9                 -14490342.629 9       475.000         553.000        1325.000                  
G32  20475439.103    20475438.821    20475440.914                   -21649412.146 9 -21649412.148 9                 -16869659.062 9       900.000        2018.000        1689.000                  
> 2024 10 31 21 35 50.0000000  0 12
G02  21240180.970    21240179.803    21240178.484                   -17604730.696 8 -17604730.697 8                 -13717951.424 8       389.000         117.000         276.000                  
G03  25952645.840    25952643.850    25952648.557                     7115151.186 7   7115151.170 6                   5544271.357 6        55.000          18.000          33.000                  
G10  21208519.489    21208519.062    21208521.815                   -19072103.819 9 -19072103.818 9                 -14861364.179 9       576.000         809.000        1333.000                  
G12  23800769.399    23800769.184    23800769.149                    -7203943.664 8  -7203943.668 8                  -5613462.588 8       202.000         102.000         194.000                  
G14  24842798.911    24842797.677    24842801.713                      163835.675 7    163835.650 6                    127668.345 6        80.000          22.000          20.000                  
G17  22179347.792    22179347.405    22179347.816                   -10150750.767 8 -10150750.767 8                  -7909674.714 9       316.000         221.000         599.000                  
G19  23724914.048    23724912.401    23724912.737                    -1147551.287 8  -1147551.300 6                   -894195.867 7       181.000          37.000          56.000                  
G21  20961367.341    20961366.135    20961366.530                   -16553015.367 8 -16553015.372 8                 -12898439.187 8       414.000         164.000         149.000                  
G22  22785011.760    22785010.000    22785010.935                    -9045251.244 8  -9045251.236 6                  -7048248.666 7       200.000          36.000          56.000                  
G23  24385416.082    24385416.235    24385414.568                    -2636613.058 8  -2636613.049 6                  -2054500.291 6       131.000          27.000          23.000                  
G24  21662693.338    21662693.185    21662695.618                   -18867216.914 8 -18867216.917 9                 -14701724.645 9       497.000         583.000        1413.000                  
G32  20505419.292    20505419.043    20505421.130                   -21491864.747 9 -21491864.749 9                 -16746894.836 9       882.000        1959.000        1648.000                  
> 2024 10 31 21 36  0.0000000  0 12
G02  21280998.594    21280997.308    21280996.123                   -17390233.145 8 -17390233.145 8                 -13550810.515 8       388.000         123.000         276.000                  
G03  25989824.524    25989823.301    25989827.226                     7310533.030 7   7310533.056 6                   5696516.991 6        53.000          18.000          36.000                  
G10  21220159.116    21220158.839    21220161.409                   -19010936.621 9 -19010936.621 9                 -14813701.443 9       586.000         814.000        1287.000                  
G12  23734328.951    23734329.131    23734328.896                    -7553089.325 8  -7553089.328 7                  -5885524.192 8       210.000          97.000         214.000                  
G14  24849771.309    24849768.776    24849771.589                      200471.897 7    200471.902 6                    156216.043 6        81.000          21.000          22.000                  
G17  22148381.304    22148381.251    22148381.476                   -10313480.112 8 -10313480.116 8                  -8036476.820 9       316.000         214.000         614.000                  
G19  23666268.684    23666267.075    23666267.184                    -1455734.885 8  -1455734.891 6                  -1134338.961 7       189.000          42.000          66.000                  
G21  21016357.515    21016356.210    21016357.076                   -16264039.284 8 -16264039.283 8                 -12673263.011 8       387.000         143.000         144.000                  
G22  22770810.386    22770808.051    22770808.999                    -9119880.438 8  -9119880.441 6                  -7106401.360 7       205.000          37.000          57.000                  
G23  24371329.337    24371328.978    24371328.279                    -2710642.507 8  -2710642.501 6                  -2112185.596 6       130.000          32.000          24.000                  
G24  21611575.313    21611575.059    21611577.474                   -19135844.652 9 -19135844.652 9                 -14911044.989 9       514.000         629.000        1508.000                  
G32  20535953.659    20535953.466    20535955.626                   -21331405.154 9 -21331405.156 9                 -16621861.432 9       861.000        1881.000        1600.000                  
> 2024 10 31 21 36 10.0000000  0 12
G02  21322612.231    21322610.942    21322609.658                   -17171552.953 8 -17171552.955 8                 -13380410.399 8       376.000         115.000         273.000                  
G03  26027162.998    26027163.276    26027167.170                     7506754.426 7   7506754.434 6                   5849416.854 6        52.000          17.000          35.000                  
G10  21232387.007    21232386.238    21232388.876                   -18946681.229 9 -18946681.228 9                 -14763632.343 9       577.000         818.000        1241.000                  
G12  23668143.620    23668143.397    23668143.469                    -7900897.111 8  -7900897.109 8                  -6156543.263 8       216.000         116.000         230.000                  
G14  24857197.583    24857194.732    24857198.706                      239495.894 7    239495.892 6                    186624.172 6        79.000          20.000          23.000                  
G17  22118200.824    22118200.404    22118200.932                   -10472080.426 8 -10472080.426 8                  -8160061.503 9       313.000         206.000         632.000                  
G19  23608078.367    23608076.508    23608076.346                    -1761528.585 8  -1761528.596 6                  -1372619.769 7       197.000          42.000          67.000                  
G21  21072047.508    21072046.722    21072047.012                   -15971385.492 8 -15971385.492 8                 -12445221.122 8       362.000         127.000         143.000                  
G22  22757298.722    22757296.662    22757297.417                    -9190885.860 8  -9190885.863 6                  -7161730.304 7       208.000          33.000          57.000                  
G23  24357456.601    24357456.412    24357455.695                    -2783542.617 8  -2783542.620 6                  -2168990.877 6       131.000          32.000          19.000                  
G24  21560974.194    21560974.105    21560976.682                   -19401753.974 9 -19401753.976 9                 -15118247.086 9       516.000         639.000        1576.000                  
G32  20567042.911    20567042.832    20567044.908                   -21168029.972 9 -21168029.973 9                 -16494556.102 9       856.000        1838.000        1547.000                  
> 2024 10 31 21 36 20.0000000  0 12
G02  21365006.048    21365004.565    21365003.147                   -16948772.177 8 -16948772.178 8                 -13206815.015 8       362.000         112.000         264.000                  
G03  26064653.527    26064653.805    26064657.599                     7703765.709 6   7703765.699 6                   6002932.207 6        50.000          21.000          32.000                  
G10  21245191.700    21245191.198    21245193.806                   -18879390.799 9 -18879390.798 9                 -14711198.272 9       569.000         786.000        1226.000                  
G12  23602217.135    23602216.184    23602216.257                    -8247346.531 8  -8247346.534 8                  -6426503.857 8       217.000         110.000         248.000                  
G14  24865067.880    24865066.209    24865070.381                      280858.617 7    280858.623 6                    218854.661 6        79.000          24.000          22.000                  
G17  22088806.156    22088805.662    22088806.266                   -10626550.099 8 -10626550.104 8                  -8280427.540 9       310.000         210.000         627.000                  
G19  23550346.854    23550344.978    23550344.522                    -2064910.316 8  -2064910.302 6                  -1609021.106 7       206.000          45.000          63.000                  
G21  21128419.111    21128417.937    21128418.541                   -15675151.558 8 -15675151.560 8                 -12214389.500 8       361.000         125.000         153.000                  
G22  22744470.889    22744469.723    22744470.333                    -9258294.757 8  -9258294.768 6                  -7214256.757 6       214.000          45.000          48.000                  
G23  24343792.967    24343791.879    24343791.427                    -2855348.721 8  -2855348.707 6                  -2224943.799 6       136.000          31.000          22.000                  
G24  21510892.491    21510892.079    21510894.599                   -19664936.851 9 -19664936.853 9                 -15323324.665 9       520.000         650.000        1599.000                  
G32  20598675.331    20598675.199    20598677.288                   -21001800.814 9 -21001800.816 9                 -16365026.901 9       858.000        1839.000        1526.000                  
> 2024 10 31 21 36 30.0000000  0 11
G02  21408176.777    21408175.534    21408174.400                   -16721907.657 8 -16721907.663 8                 -13030037.537 8       363.000         103.000         273.000                  
G10  21258576.581    21258576.161    21258578.760                   -18809052.993 9 -18809052.993 9                 -14656389.709 9       560.000         757.000        1202.000                  
G12  23536564.446    23536564.107    23536564.301                    -8592350.623 8  -8592350.630 8                  -6695338.234 8       221.000         120.000         269.000                  
G14  24873387.530    24873385.698    24873388.030                      324576.109 7    324576.112 6                    252919.999 6        84.000          21.000          19.000                  
G17  22060210.957    22060209.911    22060210.414                   -10776821.970 8 -10776821.969 8                  -8397522.510 9       318.000         212.000         611.000                  
G19  23493091.557    23493089.459    23493088.753                    -2365792.149 8  -2365792.162 6                  -1843474.514 7       211.000          43.000          73.000                  
G21  21185465.820    21185464.359    21185465.438                   -15375369.340 8 -15375369.340 8                 -11980792.991 8       356.000         124.000         158.000                  
G22  22732335.333    22732333.962    22732334.535                    -9322069.056 8  -9322069.065 6                  -7263951.062 7       214.000          32.000          53.000                  
G23  24330342.387    24330342.001    24330342.178                    -2926029.613 8  -2926029.615 6                  -2280019.927 6       135.000          28.000          21.000                  
G24  21461343.495    21461343.048    21461345.491                   -19925319.214 9 -19925319.216 9                 -15526220.017 9       525.000         669.000        1634.000                  
G32  20630851.704    20630851.495    20630853.641                   -20832713.520 9 -20832713.522 9                 -16233270.635 9       847.000        1798.000        1505.000                  
> 2024 10 31 21 36 40.0000000  0 11
G02  21452112.106    21452110.943    21452109.872                   -16491025.120 8 -16491025.121 7                 -12850129.127 8       353.000          93.000         284.000                  
G10  21272534.584    21272534.073    21272536.615                   -18735704.129 9 -18735704.127 9                 -14599234.812 9       553.000         742.000        1169.000                  
G12  23471195.495    23471194.385    23471194.647                    -8935870.535 8  -8935870.536 8                  -6963015.995 8       225.000         124.000         298.000                  
G14  24882149.880    24882146.720    24882150.779                      370616.195 7    370616.178 6                    288795.253 6        82.000          18.000          20.000                  
G17  22032417.023    22032416.139    22032416.854                   -10922878.678 8 -10922878.679 8                  -8511332.990 9       317.000         218.000         614.000                  
G19  23436317.907    23436316.631    23436315.886                    -2664134.416 8  -2664134.428 6                  -2075948.977 7       215.000          47.000          71.000                  
G21  21243172.479    21243171.076    21243171.874                   -15072119.693 8 -15072119.693 8                 -11744494.622 8       348.000         115.000         162.000                  
G22  22720888.641    22720887.823    22720887.378                    -9382219.960 8  -9382219.975 6                  -7310821.905 6       215.000          37.000          48.000                  
G23  24317103.819    24317103.309    24317102.058                    -2995602.963 8  -2995602.966 6                  -2334233.068 6       135.000          25.000          24.000                  
G24  21412331.670    21412331.530    21412334.086                   -20182875.783 9 -20182875.784 9                 -15726913.455 9       532.000         676.000        1694.000                  
G32  20663563.439    20663563.177    20663565.320                   -20660812.462 9 -20660812.463 9                 -16099321.792 9       833.000        1762.000        1459.000                  
> 2024 10 31 21 36 50.0000000  0 11
G02  21496803.031    21496801.446    21496800.794                   -16256174.348 8 -16256174.344 8                 -12667128.564 8       347.000         107.000         279.000                  
G10  21287061.597    21287061.019    21287063.654                   -18659364.565 9 -18659364.565 9                 -14539749.475 9       540.000         710.000        1140.000                  
G12  23406117.882    23406117.838    23406117.807                    -9277850.435 8  -9277850.443 8                  -7229493.814 8       226.000         128.000         326.000                  
G14  24891349.366    24891346.046    24891350.950                      418961.966 7    418961.957 6                    326467.113 6        86.000          23.000          21.000                  
G17  22005431.606    22005431.104    22005431.751                   -11064686.763 8 -11064686.762 8                  -8621832.787 9       314.000         212.000         613.000                  
G19  23380039.498    23380037.664    23380037.366                    -2959881.366 8  -2959881.383 6                  -2306401.183 7       217.000          48.000          64.000                  
G21  21301527.081    21301525.315    21301526.173                   -14765466.694 8 -14765466.697 8                 -11505544.252 8       344.000         116.000         152.000                  
G22  22710132.400    22710131.149    22710131.912                    -9438743.079 8  -9438743.070 6                  -7354865.969 6       214.000          44.000          50.000                  
G23  24304074.369    24304074.147    24304075.103                    -3064069.603 8  -3064069.606 6                  -2387583.714 6       138.000          31.000          25.000                  
G24  21363865.925    21363865.821    21363868.522                   -20437564.635 9 -20437564.635 9                 -15925372.312 9       529.000         691.000        1728.000                  
G32  20696805.353    20696805.027    20696807.150                   -20486126.180 9 -20486126.182 9                 -15963202.786 9       823.000        1715.000        1401.000                  
> 2024 10 31 21 37  0.0000000  0 11
G02  21542243.455    21542242.389    21542241.482                   -16017382.090 8 -16017382.092 7                 -12481056.704 8       342.000          97.000         270.000                  
G10  21302157.987    21302157.643    21302160.333                   -18580031.445 9 -18580031.444 9                 -14477931.541 9       527.000         686.000        1123.000                  
G12  23341349.903    23341349.228    23341349.522                    -9618210.193 8  -9618210.198 8                  -7494709.110 8       224.000         124.000         356.000                  
G14  24900989.286    24900987.841    24900991.420                      469620.571 7    469620.603 6                    365941.212 6        91.000          19.000          24.000                  
G17  21979265.693    21979265.088    21979265.603                   -11202190.305 8 -11202190.310 8                  -8728978.417 9       322.000         226.000         594.000                  
G19  23324270.160    23324267.983    23324267.401                    -3252952.715 8  -3252952.729 6                  -2534768.454 7       225.000          49.000          71.000                  
G21  21360520.666    21360519.296    21360520.143                   -14455451.013 8 -14455451.018 8                 -11263973.630 8       340.000         109.000         136.000                  
G22  22700071.982    22700071.212    22700071.747                    -9491610.790 8  -9491610.795 6                  -7396061.647 6       216.000          44.000          45.000                  
G23  24291261.392    24291260.567    24291260.836                    -3131407.261 8  -3131407.257 6                  -2440054.707 6       135.000          28.000          23.000                  
G24  21315958.713    21315958.393    21315961.005                   -20689320.246 9 -20689320.246 9                 -16121545.517 9       534.000         692.000        1773.000                  
G32  20730576.146    20730575.923    20730578.125                   -20308658.772 9 -20308658.774 9                 -15824916.533 9       811.000        1657.000        1354.000                  
> 2024 10 31 21 37 10.0000000  0 11
G02  21588418.544    21588416.686    21588416.367                   -15774732.305 8 -15774732.310 7                 -12291979.015 8       333.000          83.000         274.000                  
G10  21317813.817    21317813.609    21317816.417                   -18497758.808 9 -18497758.807 9                 -14413823.097 9       517.000         659.000        1107.000                  
G12  23276894.198    23276893.263    23276893.764                    -9956926.510 8  -9956926.506 8                  -7758643.813 8       224.000         120.000         373.000                  
G14  24911059.227    24911058.808    24911062.416                      522541.776 7    522541.792 6                    407178.376 6        90.000          24.000          24.000                  
G17  21953918.439    21953917.989    21953918.313                   -11335390.810 8 -11335390.812 8                  -8832771.071 9       334.000         238.000         546.000                  
G19  23269014.333    23269012.101    23269011.216                    -3543325.726 8  -3543325.718 7                  -2761033.170 7       229.000          57.000          67.000                  
G21  21420135.833    21420134.701    21420135.385                   -14142169.874 8 -14142169.869 8                 -11019858.477 8       331.000         108.000         142.000                  
G22  22690702.063    22690700.208    22690701.073                    -9540853.037 8  -9540853.031 6                  -7434432.254 6       219.000          39.000          49.000                  
G23  24278655.093    24278654.747    24278655.051                    -3197649.961 8  -3197649.972 6                  -2491672.526 6       131.000          26.000          23.000                  
G24  21268611.027    21268610.607    21268613.377                   -20938133.887 9 -20938133.890 9                 -16315426.285 9       543.000         712.000        1797.000                  
G32  20764864.563    20764864.360    20764866.610                   -20128472.061 9 -20128472.063 9                 -15684511.358 9       797.000        1605.000        1324.000                  
> 2024 10 31 21 37 20.0000000  0 11
G02  21635324.119    21635322.652    21635321.796                   -15528242.110 8 -15528242.104 7                 -12099908.792 8       320.000          81.000         280.000                  
G10  21334031.834    21334031.398    21334034.227                   -18412533.871 9 -18412533.869 9                 -14347414.144 9       516.000         653.000        1078.000                  
G12  23212768.025    23212768.008    23212768.229                   -10293908.433 8 -10293908.438 8                  -8021227.105 8       222.000         123.000         394.000                  
G14  24921564.211    24921563.571    24921565.695                      577741.998 7    577742.000 6                    450191.457 6        93.000          20.000          24.000                  
G17  21929402.804    21929402.146    21929402.178                   -11464223.358 8 -11464223.360 8                  -8933160.122 8       343.000         254.000         494.000                  
G19  23214287.891    23214286.498    23214286.025                    -3830910.108 8  -3830910.119 7                  -2985124.885 7       231.000          52.000          76.000                  
G21  21480367.442    21480366.055    21480366.300                   -13825653.634 8 -13825653.629 8                 -10773222.475 8       335.000         116.000         145.000                  
G22  22682028.964    22682026.710    22682027.242                    -9586433.562 8  -9586433.558 6                  -7469949.616 6       218.000          43.000          44.000                  
G23  24266264.076    24266263.377    24266263.977                    -3262764.759 8  -3262764.732 6                  -2542411.413 6       129.000          30.000          27.000                  
G24  21221837.383    21221837.371    21221839.959                   -21183929.830 9 -21183929.833 9                 -16506955.603 9       557.000         755.000        1819.000                  
G32  20799671.690    20799671.369    20799673.569                   -19945560.739 9 -19945560.740 9                 -15541983.172 9       792.000        1585.000        1275.000                  
> 2024 10 31 21 37 30.0000000  0 11
G02  21682945.259    21682944.225    21682943.690                   -15277988.770 8 -15277988.770 7                 -11904906.250 8       308.000          75.000         269.000                  
G10  21350802.498    21350802.079    21350804.837                   -18324403.695 9 -18324403.694 9                 -14278741.276 9       514.000         652.000        1066.000                  
G12  23148978.654    23148978.575    23148978.682                   -10629124.371 8 -10629124.371 8                  -8282434.344 8       231.000         126.000         418.000                  
G14  24932494.458    24932492.751    24932497.015                      635177.522 7    635177.518 6                    494946.152 6        92.000          20.000          20.000                  
G17  21905718.624    21905718.168    21905718.199                   -11588683.525 8 -11588683.524 8                  -9030142.031 8       348.000         261.000         474.000                  
G19  23160098.825    23160097.241    23160097.193                    -4115675.551 8  -4115675.544 7                  -3207020.069 7       236.000          62.000          79.000                  
G21  21541196.350    21541195.511    21541196.041                   -13505992.239 8 -13505992.240 8                 -10524135.704 8       357.000         121.000         137.000                  
G22  22674046.367    22674045.288    22674045.762                    -9628376.265 8  -9628376.252 6                  -7502632.298 6       217.000          43.000          40.000                  
G23  24254082.938    24254081.985    24254084.158                    -3326777.962 8  -3326777.966 6                  -2592291.834 6       132.000          33.000          31.000                  
G24  21175641.229    21175641.227    21175643.817                   -21426692.047 9 -21426692.048 9                 -16696120.985 9       568.000         790.000        1806.000                  
G32  20834986.749    20834986.536    20834988.599                   -19759978.869 9 -19759978.871 9                 -15397373.992 9       784.000        1552.000        1214.000                  
> 2024 10 31 21 37 40.0000000  0 11
G02  21731276.118    21731274.979    21731274.303                   -15024009.270 8 -15024009.264 7                 -11707000.171 8       302.000          68.000         259.000                  
G10  21368124.575    21368124.112    21368126.954                   -18233375.403 9 -18233375.402 9                 -14207810.134 9       505.000         628.000        1055.000                  
G12  23085539.559    23085539.210    23085539.259                   -10962501.233 8 -10962501.230 8                  -8542208.532 8       231.000         126.000         424.000                  
G14  24943848.629    24943847.446    24943851.297                      694845.626 7    694845.624 6                    541440.622 6        91.000          25.000          22.000                  
G17  21882874.789    21882874.535    21882874.499                   -11708727.737 8 -11708727.738 8                  -9123683.011 8       358.000         275.000         453.000                  
G19  23106460.350    23106458.373    23106457.931                    -4397551.155 8  -4397551.159 7                  -3426663.443 7       240.000          57.000          87.000                  
G21  21602615.442    21602614.183    21602614.735                   -13183234.926 8 -13183234.926 8                 -10272636.565 8       360.000         120.000         137.000                  
G22  22666760.756    22666759.570    22666759.035                    -9666665.262 8  -9666665.272 6                  -7532467.896 6       215.000          37.000          47.000                  
G23  24242113.545    24242113.296    24242114.129                    -3389675.645 8  -3389675.638 6                  -2641302.973 6       128.000          33.000          29.000                  
G24  21130033.508    21130033.201    21130035.774                   -21666364.011 9 -21666364.013 9                 -16882878.381 9       592.000         848.000        1773.000                  
G32  20870807.443    20870807.135    20870809.157                   -19571740.399 9 -19571740.401 9                 -15250694.721 9       765.000        1477.000        1150.000                  
> 2024 10 31 21 37 50.0000000  0 11
G02  21780306.695    21780304.739    21780304.316                   -14766355.242 8 -14766355.236 7                 -11506230.872 8       305.000          74.000         251.000                  
G10  21385994.256    21385993.612    21385996.403                   -18139470.340 8 -18139470.339 9                 -14134637.335 9       500.000         608.000        1034.000                  
G12  23022461.298    23022460.779    23022461.003                   -11293980.042 8 -11293980.043 8                  -8800503.747 8       230.000         136.000         456.000                  
G14  24955625.721    24955623.599    24955626.420                      756728.807 7    756728.789 6                    589661.150 6        92.000          21.000          18.000                  
G17  21860877.148    21860876.775    21860876.750                   -11824326.846 8 -11824326.848 8                  -9213760.233 8       362.000         281.000         450.000                  
G19  23053381.921    23053380.130    23053379.554                    -4676479.869 8  -4676479.866 7                  -3644010.468 7       248.000          56.000          97.000                  
G21  21664611.756    21664610.104    21664610.635                   -12857444.955 8 -12857444.955 8                 -10018774.309 8       346.000         116.000         135.000                  
G22  22660170.021    22660168.783    22660169.153                    -9701299.619 8  -9701299.612 6                  -7559455.788 6       212.000          38.000          43.000                  
G23  24230358.045    24230356.459    24230357.745                    -3451458.324 8  -3451458.346 6                  -2689445.392 6       125.000          25.000          30.000                  
G24  21085021.527    21085021.375    21085023.850                   -21902903.531 9 -21902903.533 9                 -17067194.948 9       626.000         950.000        1758.000                  
G32  20907128.215    20907127.989    20907130.008                   -19380873.409 9 -19380873.412 9                 -15101967.256 9       745.000        1409.000        1084.000                  
> 2024 10 31 21 38  0.0000000  0 11
G02  21830023.059    21830021.901    21830020.658                   -14505094.045 8 -14505094.048 7                 -11302650.820 8       312.000          79.000         242.000                  
G10  21404403.911    21404403.594    21404406.263                   -18042725.712 9 -18042725.712 9                 -14059251.928 9       502.000         626.000        1012.000                  
G12  22959752.347    22959751.644    22959752.173                   -11623516.903 8 -11623516.905 8                  -9057285.731 8       230.000         129.000         480.000                  
G14  24967816.667    24967814.334    24967817.492                      820793.549 7    820793.522 6                    639582.623 6        86.000          24.000          22.000                  
G17  21839727.673    21839727.034    21839727.199                   -11935468.548 8 -11935468.550 8                  -9300364.185 8       358.000         275.000         444.000                  
G19  23000871.843    23000870.391    23000869.461                    -4952420.503 8  -4952420.510 7                  -3859029.047 8       257.000          59.000         105.000                  
G21  21727169.394    21727167.922    21727168.575                   -12528701.245 8 -12528701.250 8                  -9762610.465 8       332.000         101.000         129.000                  
G22  22654271.510    22654270.205    22654270.884                    -9732294.227 8  -9732294.223 6                  -7583607.479 6       212.000          45.000          44.000                  
G23  24218809.670    24218809.967    24218809.646                    -3512140.898 8  -3512140.886 6                  -2736730.394 6       124.000          24.000          35.000                  
G24  21040610.837    21040610.625    21040613.079                   -22136283.770 9 -22136283.771 9                 -17249049.717 9       654.000        1036.000        1759.000                  
G32  20943940.992    20943940.597    20943942.676                   -19187421.488 9 -19187421.490 9                 -14951225.538 9       729.000        1325.000        1036.000                  
