     3.03           OBSERVATION DATA    M (MIXED)           RINEX VERSION / TYPE
BJPP                CNES                20241031 055237 UTC PGM / RUN BY / DATE 
MARKER                                                      MARKER NAME         
SPACECRAFT                                                  MARKER TYPE         
OBSERVER            CNES                                    OBSERVER / AGENCY   
RECNUM              BLACKJACK           RECVERS             REC # / TYPE / VERS 
ANTNUM              BLACKJACK                               ANT # / TYPE        
        0.0000        0.0000        0.0000                  ANTENNA: DELTA H/E/N
G   12 C1C C1W C2W C2X L1C L1W L2X L2W S1C S1W S2W S2X      SYS / # / OBS TYPES 
DBHZ                                                        SIGNAL STRENGTH UNIT
This rinex produced from the following file(s):             COMMENT             
/tmp/mesos_work/slaves/d197f515-9ebc-49f2-8adc-fe7a9d3e6458-COMMENT             
S19/frameworks/8c1b9f46-52ed-4aff-9edf-38d17bf6761e-2777/exeCOMMENT             
cutors/toil-27558/runs/7610a4f9-de05-4b57-9347-de2a16c69f1b/COMMENT             
65e114a62d675895b4ab657f447cc5b3/805e/7f16/tmpi4owz753bb7f47COMMENT             
qr/stgd4414e30-e635-439a-a0b0-fecb10e4afe9/SWOT_KRX_20241031COMMENT             
T050432_20241031T015949_20241031T032109_O_APID1280.PTM_0    COMMENT             
  2024    10    31     1    59   30.0000000                 TIME OF FIRST OBS   
G L1C                                                       SYS / PHASE SHIFT   
G L1W -0.25000                                              SYS / PHASE SHIFT   
G L2W                                                       SYS / PHASE SHIFT   
G L2X  0.25000                                              SYS / PHASE SHIFT   
                                                            END OF HEADER       
> 2024 10 31 01 59 30.0000000  0 12
G02  24610937.331    24610934.666    24610934.515                    -2453964.326 8  -2453964.327 6                  -1912179.613 6       131.000          24.000          28.000                  
G08  25124146.918    25124145.138    25124149.872                     2439355.138 7   2439355.148 6                   1900794.224 7        74.000          26.000          71.000                  
G10  23801860.645    23801859.130    23801862.144                    -6909368.339 8  -6909368.353 7                  -5383921.057 8       148.000          54.000         137.000                  
G13  20606589.674    20606589.476    20606589.440                   -18711447.512 9 -18711447.514 8                 -14580350.075 8       676.000         278.000         222.000                  
G14  20231358.960    20231358.683    20231359.569                   -23725295.076 9 -23725295.074 9                 -18487213.508 9       650.000         556.000         600.000                  
G15  19991569.092    19991568.703    19991568.988                   -23144421.755 9 -23144421.756 9                 -18034614.445 9       761.000        1277.000        1729.000                  
G17  22775854.475    22775853.172    22775853.687                   -10084969.255 8 -10084969.252 8                  -7858418.190 8       230.000         116.000         330.000                  
G21  23844974.509    23844971.911    23844972.532                    -4266779.187 8  -4266779.211 6                  -3324680.914 6       143.000          31.000          28.000                  
G22  20151741.376    20151740.471    20151740.510                   -23311421.640 9 -23311421.641 9                 -18164745.170 9       820.000         513.000         553.000                  
G23  22008314.033    22008313.639    22008314.472                   -11643603.253 8 -11643603.252 7                  -9072937.255 8       241.000          77.000         189.000                  
G24  21798714.635    21798714.154    21798716.986                   -13013516.915 8 -13013516.918 8                 -10140403.732 9       280.000         188.000         749.000                  
G30  23745242.238    23745241.797    23745245.213                    -5229151.813 8  -5229151.798 7                  -4074663.861 8       165.000          67.000         341.000                  
> 2024 10 31 01 59 40.0000000  0 12
G02  24613735.865    24613732.882    24613732.511                    -2439258.761 8  -2439258.781 6                  -1900720.752 6       129.000          24.000          23.000                  
G08  25184502.037    25184500.472    25184504.010                     2756520.705 7   2756520.721 6                   2147936.105 7        74.000          23.000          66.000                  
G10  23866136.111    23866135.605    23866138.252                    -6571596.386 8  -6571596.377 7                  -5120722.190 8       146.000          52.000         130.000                  
G13  20564739.706    20564739.336    20564738.999                   -18931371.825 9 -18931371.824 8                 -14751719.677 8       690.000         287.000         259.000                  
G14  20213644.985    20213644.658    20213645.603                   -23818382.648 9 -23818382.646 9                 -18559749.275 9       647.000         549.000         603.000                  
G15  19984176.306    19984176.136    19984176.469                   -23183270.072 9 -23183270.074 9                 -18064885.866 9       766.000        1315.000        1834.000                  
G17  22708393.777    22708392.781    22708393.019                   -10439477.294 8 -10439477.296 8                  -8134658.180 8       238.000         124.000         344.000                  
G21  23871663.031    23871661.230    23871661.547                    -4126529.231 8  -4126529.248 6                  -3215395.166 6       135.000          30.000          25.000                  
G22  20119773.064    20119772.246    20119772.136                   -23479415.841 9 -23479415.840 9                 -18295649.733 9       824.000         510.000         543.000                  
G23  22061353.660    22061353.923    22061354.393                   -11364875.858 8 -11364875.860 7                  -8855747.119 8       240.000          76.000         178.000                  
G24  21819434.238    21819434.006    21819436.965                   -12904632.523 8 -12904632.526 8                 -10055558.767 9       272.000         187.000         760.000                  
G30  23707275.027    23707274.679    23707277.894                    -5428671.437 8  -5428671.439 7                  -4230133.660 8       168.000          72.000         346.000                  
> 2024 10 31 01 59 50.0000000  0 12
G02  24617110.137    24617106.976    24617107.377                    -2421526.040 8  -2421525.999 6                  -1886903.058 6       125.000          23.000          26.000                  
G08  25245114.519    25245113.497    25245117.301                     3075043.369 7   3075043.381 6                   2396135.543 7        70.000          21.000          63.000                  
G10  23930652.158    23930651.751    23930654.517                    -6232562.299 8  -6232562.309 7                  -4856539.852 8       139.000          52.000         125.000                  
G13  20523403.819    20523403.584    20523403.434                   -19148592.558 9 -19148592.558 8                 -14920982.592 8       687.000         280.000         294.000                  
G14  20196913.242    20196912.907    20196913.715                   -23906309.131 9 -23906309.129 9                 -18628263.410 9       661.000         577.000         606.000                  
G15  19977392.971    19977392.749    19977393.112                   -23218916.900 9 -23218916.901 9                 -18092662.619 9       761.000        1290.000        1837.000                  
G17  22641439.056    22641438.607    22641439.209                   -10791322.909 8 -10791322.913 8                  -8408823.556 8       241.000         121.000         363.000                  
G21  23898951.723    23898950.489    23898950.585                    -3983121.758 8  -3983121.744 6                  -3103649.068 6       135.000          25.000          26.000                  
G22  20088809.096    20088807.950    20088807.945                   -23642133.694 9 -23642133.696 9                 -18422442.858 9       826.000         518.000         532.000                  
G23  22114748.397    22114747.694    22114748.927                   -11084286.849 8 -11084286.852 7                  -8637106.368 8       235.000          70.000         176.000                  
G24  21840635.212    21840635.109    21840638.205                   -12793219.683 8 -12793219.684 8                  -9968743.580 9       261.000         171.000         776.000                  
G30  23669650.494    23669649.521    23669653.344                    -5626389.659 8  -5626389.662 7                  -4384199.778 8       166.000          68.000         345.000                  
> 2024 10 31 02 00  0.0000000  0 12
G02  24621058.579    24621055.920    24621056.138                    -2400775.714 8  -2400775.724 6                  -1870734.030 6       120.000          19.000          29.000                  
G08  25305973.389    25305972.772    25305976.270                     3394860.144 7   3394860.140 6                   2645343.341 7        69.000          23.000          63.000                  
G10  23995398.362    23995397.999    23995400.801                    -5892317.698 8  -5892317.694 7                  -4591414.263 8       136.000          52.000         119.000                  
G13  20482587.127    20482586.874    20482587.007                   -19363085.583 9 -19363085.583 8                 -15088120.017 8       681.000         281.000         323.000                  
G14  20181164.807    20181164.610    20181165.443                   -23989066.988 9 -23989066.985 9                 -18692750.044 9       672.000         595.000         621.000                  
G15  19971218.299    19971217.862    19971218.255                   -23251365.981 9 -23251365.983 9                 -18117947.627 9       750.000        1269.000        1854.000                  
G17  22575002.653    22575002.170    22575002.832                   -11140448.151 8 -11140448.154 8                  -8680869.158 8       247.000         134.000         408.000                  
G21  23926836.240    23926833.487    23926835.767                    -3836590.914 8  -3836590.925 6                  -2989469.183 6       127.000          25.000          31.000                  
G22  20058855.095    20058854.074    20058854.071                   -23799542.356 9 -23799542.357 9                 -18545098.948 9       839.000         536.000         539.000                  
G23  22168486.405    22168486.504    22168487.347                   -10801889.473 8 -10801889.476 7                  -8417056.500 8       227.000          68.000         163.000                  
G24  21862313.797    21862313.387    21862316.676                   -12679298.596 8 -12679298.599 8                  -9879973.915 9       263.000         165.000         791.000                  
G30  23632370.726    23632369.991    23632373.218                    -5822297.160 8  -5822297.163 7                  -4536854.953 8       171.000          70.000         348.000                  
> 2024 10 31 02 00 10.0000000  0 12
G02  24625580.639    24625578.562    24625578.618                    -2377009.146 8  -2377009.165 6                  -1852214.615 6       114.000          21.000          25.000                  
G08  25367069.256    25367068.071    25367071.512                     3715917.383 7   3715917.367 6                   2895517.651 7        67.000          24.000          58.000                  
G10  24060367.288    24060366.944    24060369.103                    -5550905.235 8  -5550905.244 6                  -4325378.652 8       128.000          47.000         117.000                  
G13  20442295.887    20442295.450    20442295.533                   -19574818.134 9 -19574818.134 8                 -15253106.425 8       681.000         280.000         359.000                  
G14  20166403.179    20166402.785    20166403.447                   -24066641.221 9 -24066641.219 9                 -18753197.497 9       684.000         623.000         621.000                  
G15  19965652.663    19965652.398    19965652.841                   -23280612.644 9 -23280612.645 9                 -18140737.245 9       743.000        1235.000        1841.000                  
G17  22509096.832    22509096.337    22509096.916                   -11486786.122 8 -11486786.124 8                  -8950742.868 8       256.000         146.000         431.000                  
G21  23955308.697    23955307.182    23955307.783                    -3686962.738 8  -3686962.751 6                  -2872875.797 6       117.000          27.000          27.000                  
G22  20029919.244    20029918.206    20029918.128                   -23951601.509 9 -23951601.509 9                 -18663586.592 9       847.000         546.000         532.000                  
G23  22222560.376    22222560.931    22222561.499                   -10517728.088 8 -10517728.098 7                  -8195632.079 8       226.000          68.000         155.000                  
G24  21884467.572    21884467.278    21884470.279                   -12562881.009 8 -12562881.012 8                  -9789258.926 9       261.000         166.000         794.000                  
G30  23595438.852    23595437.982    23595441.201                    -6016376.016 8  -6016376.022 7                  -4688085.213 8       169.000          78.000         347.000                  
> 2024 10 31 02 00 20.0000000  0 12
G02  24630681.346    24630678.443    24630678.884                    -2350207.432 8  -2350207.427 6                  -1831330.216 6       110.000          28.000          25.000                  
G08  25428394.291    25428392.704    25428396.729                     4038182.566 7   4038182.576 6                   3146633.211 7        60.000          18.000          52.000                  
G10  24125553.669    24125553.630    24125556.546                    -5208346.409 8  -5208346.422 6                  -4058449.765 8       119.000          43.000         109.000                  
G13  20402539.818    20402539.475    20402539.680                   -19783736.754 9 -19783736.754 8                 -15415900.162 8       667.000         268.000         387.000                  
G14  20152634.225    20152633.874    20152634.616                   -24138997.236 9 -24138997.234 9                 -18809578.803 9       692.000         636.000         623.000                  
G15  19960701.394    19960701.134    19960701.563                   -23306631.767 9 -23306631.768 9                 -18161011.907 9       741.000        1232.000        1772.000                  
G17  22443738.063    22443737.541    22443738.104                   -11830248.892 8 -11830248.893 8                  -9218376.173 8       263.000         149.000         468.000                  
G21  23984371.385    23984368.568    23984369.816                    -3534242.859 8  -3534242.847 6                  -2753873.322 6       113.000          26.000          23.000                  
G22  20002012.708    20002011.775    20002011.620                   -24098251.167 9 -24098251.168 9                 -18777859.044 9       849.000         553.000         551.000                  
G23  22276966.844    22276966.033    22276966.415                   -10231825.978 8 -10231825.981 7                  -7972851.239 8       222.000          71.000         157.000                  
G24  21907097.425    21907097.295    21907100.511                   -12443958.107 8 -12443958.110 8                  -9696591.741 9       265.000         173.000         766.000                  
G30  23558862.607    23558860.974    23558864.503                    -6208587.560 8  -6208587.569 7                  -4837860.415 8       172.000          72.000         369.000                  
> 2024 10 31 02 00 30.0000000  0 12
G02  24636350.115    24636349.345    24636349.425                    -2320408.566 8  -2320408.537 6                  -1808110.333 6       105.000          21.000          24.000                  
G08  25489931.838    25489930.719    25489935.266                     4361567.163 7   4361567.170 6                   3398621.049 6        59.000          24.000          47.000                  
G10  24190944.097    24190943.729    24190946.583                    -4864718.721 8  -4864718.720 6                  -3790687.999 8       113.000          40.000         106.000                  
G13  20363318.991    20363318.515    20363318.651                   -19989844.251 9 -19989844.251 8                 -15576503.412 8       655.000         259.000         407.000                  
G14  20139853.792    20139853.589    20139854.359                   -24206157.971 9 -24206157.970 9                 -18861911.840 9       698.000         644.000         635.000                  
G15  19956358.198    19956358.041    19956358.338                   -23329455.046 9 -23329455.046 9                 -18178796.318 9       741.000        1228.000        1695.000                  
G17  22378932.497    22378931.901    22378932.541                   -12170804.691 8 -12170804.695 8                  -9483744.300 8       259.000         155.000         496.000                  
G21  24014007.925    24014006.456    24014009.260                    -3378493.775 8  -3378493.788 6                  -2632510.401 6       114.000          23.000          31.000                  
G22  19975136.098    19975135.110    19975135.056                   -24239488.939 9 -24239488.941 9                 -18887914.442 9       842.000         547.000         561.000                  
G23  22331688.180    22331687.743    22331688.239                    -9944262.424 8  -9944262.424 7                  -7748775.780 8       224.000          63.000         163.000                  
G24  21930196.211    21930195.351    21930198.455                   -12322577.546 8 -12322577.550 8                  -9602009.498 9       269.000         168.000         750.000                  
G30  23522637.857    23522636.612    23522639.832                    -6398949.440 8  -6398949.438 7                  -4986194.321 8       175.000          75.000         392.000                  
> 2024 10 31 02 00 40.0000000  0 12
G02  24642599.314    24642597.219    24642596.961                    -2287572.645 7  -2287572.629 6                  -1782523.895 6        99.000          28.000          20.000                  
G08  25551679.455    25551679.127    25551685.152                     4686061.299 7   4686061.297 6                   3651473.392 6        59.000          18.000          46.000                  
G10  24256537.549    24256537.302    24256540.427                    -4520020.854 8  -4520020.839 6                  -3522092.332 7       105.000          31.000          95.000                  
G13  20324647.299    20324646.791    20324647.152                   -20193065.041 9 -20193065.040 8                 -15734857.281 8       647.000         256.000         420.000                  
G14  20128072.650    20128072.318    20128073.100                   -24268069.118 9 -24268069.116 9                 -18910154.287 9       692.000         632.000         648.000                  
G15  19952632.264    19952631.929    19952632.288                   -23349035.998 9 -23349035.999 9                 -18194054.227 9       734.000        1216.000        1662.000                  
G17  22314701.179    22314700.281    22314701.006                   -12508343.103 8 -12508343.105 8                  -9746761.224 9       254.000         146.000         527.000                  
G21  24044226.260    24044223.776    24044225.635                    -3219699.902 8  -3219699.886 6                  -2508774.950 6       108.000          23.000          28.000                  
G22  19949304.493    19949303.493    19949303.378                   -24375234.752 9 -24375234.752 9                 -18993690.391 9       834.000         535.000         566.000                  
G23  22386725.318    22386725.237    22386725.894                    -9655037.938 8  -9655037.952 7                  -7523406.087 8       223.000          63.000         168.000                  
G24  21953767.136    21953767.095    21953769.897                   -12198708.714 8 -12198708.714 8                  -9505488.342 9       270.000         178.000         753.000                  
G30  23486776.190    23486775.251    23486778.785                    -6587400.890 8  -6587400.889 7                  -5133039.586 8       176.000          80.000         401.000                  
> 2024 10 31 02 00 50.0000000  0 12
G02  24649419.278    24649415.048    24649417.146                    -2251738.356 7  -2251738.380 6                  -1754601.144 6        93.000          18.000          19.000                  
G08  25613624.364    25613623.238    25613627.785                     5011577.604 7   5011577.565 6                   3905122.284 6        62.000          22.000          44.000                  
G10  24322321.024    24322320.615    24322323.641                    -4174329.193 7  -4174329.192 6                  -3252722.276 7        97.000          29.000          90.000                  
G13  20286524.399    20286524.058    20286524.270                   -20393401.789 9 -20393401.788 8                 -15890963.854 8       662.000         266.000         416.000                  
G14  20117285.575    20117285.179    20117285.872                   -24324755.749 9 -24324755.749 9                 -18954325.685 9       689.000         636.000         638.000                  
G15  19949516.905    19949516.673    19949517.090                   -23365406.685 9 -23365406.685 9                 -18206810.629 9       723.000        1176.000        1617.000                  
G17  22251049.646    22251049.159    22251050.048                   -12842831.476 8 -12842831.479 8                 -10007401.499 9       246.000         139.000         539.000                  
G21  24075011.204    24075008.537    24075011.269                    -3057923.940 8  -3057923.938 6                  -2382715.764 6       108.000          22.000          34.000                  
G22  19924518.156    19924517.050    19924516.911                   -24505487.964 9 -24505487.965 9                 -19095186.391 9       822.000         520.000         573.000                  
G23  22442064.131    22442064.091    22442064.986                    -9364230.872 8  -9364230.875 7                  -7296803.222 8       217.000          62.000         176.000                  
G24  21977803.006    21977802.714    21977805.897                   -12072399.330 8 -12072399.331 8                  -9407065.474 9       270.000         184.000         755.000                  
G30  23451275.263    23451274.450    23451277.965                    -6773959.337 8  -6773959.338 7                  -5278409.798 8       178.000          79.000         402.000                  
> 2024 10 31 02 01  0.0000000  0 12
G02  24656810.740    24656806.987    24656808.468                    -2212892.853 7  -2212892.852 6                  -1724331.844 6        83.000          23.000          24.000                  
G08  25675756.556    25675755.483    25675759.467                     5338080.549 7   5338080.559 6                   4159539.930 6        52.000          22.000          48.000                  
G10  24388287.574    24388287.385    24388291.548                    -3827667.899 7  -3827667.904 6                  -2982596.667 7       100.000          34.000          83.000                  
G13  20248959.873    20248959.341    20248959.806                   -20590805.207 9 -20590805.208 8                 -16044784.705 8       689.000         287.000         429.000                  
G14  20107497.413    20107497.197    20107497.935                   -24376192.205 9 -24376192.205 9                 -18994406.038 9       682.000         624.000         640.000                  
G15  19947016.356    19947016.068    19947016.454                   -23378547.478 9 -23378547.479 9                 -18217050.235 9       714.000        1157.000        1586.000                  
G17  22187994.699    22187994.723    22187995.499                   -13174185.300 8 -13174185.304 8                 -10265599.263 9       242.000         128.000         571.000                  
G21  24106361.234    24106358.360    24106361.110                    -2893177.293 8  -2893177.298 6                  -2254341.802 6       108.000          28.000          34.000                  
G22  19900786.636    19900785.753    19900785.539                   -24630197.330 9 -24630197.332 8                 -19192362.510 9       809.000         500.000         603.000                  
G23  22497698.701    22497698.918    22497699.938                    -9071867.274 8  -9071867.272 7                  -7068987.469 8       219.000          67.000         174.000                  
G24  22002304.626    22002303.932    22002307.096                   -11943645.350 8 -11943645.354 8                  -9306737.745 9       276.000         192.000         786.000                  
G30  23416141.422    23416140.364    23416143.837                    -6958590.371 8  -6958590.367 7                  -5422278.176 8       180.000          81.000         419.000                  
> 2024 10 31 02 01 10.0000000  0 12
G02  24664775.781    24664772.296    24664773.941                    -2171034.256 7  -2171034.242 6                  -1691714.775 6        74.000          20.000          22.000                  
G08  25738065.372    25738066.249    25738070.721                     5665525.132 7   5665525.106 6                   4414691.372 6        53.000          19.000          45.000                  
G10  24454435.081    24454433.472    24454436.290                    -3480071.085 7  -3480071.079 6                  -2711742.083 7        99.000          29.000          78.000                  
G13  20211960.933    20211960.316    20211960.613                   -20785236.642 9 -20785236.642 8                 -16196289.721 8       720.000         305.000         428.000                  
G14  20098710.991    20098710.881    20098711.589                   -24422364.488 9 -24422364.489 9                 -19030384.437 9       683.000         627.000         644.000                  
G15  19945131.935    19945131.820    19945132.196                   -23388449.530 9 -23388449.531 9                 -18224766.135 9       713.000        1138.000        1573.000                  
G17  22125551.301    22125550.608    22125551.657                   -13502330.205 8 -13502330.207 8                 -10521296.574 9       237.000         118.000         591.000                  
G21  24138272.490    24138270.064    24138272.035                    -2725481.867 8  -2725481.858 6                  -2123670.032 6       107.000          24.000          32.000                  
G22  19878117.787    19878116.716    19878116.699                   -24749323.285 9 -24749323.286 8                 -19285187.919 9       790.000         471.000         629.000                  
G23  22553623.831    22553622.787    22553624.122                    -8777983.306 8  -8777983.315 7                  -6839987.011 8       223.000          61.000         170.000                  
G24  22027269.914    22027269.132    22027272.235                   -11812453.197 8 -11812453.196 8                  -9204510.148 9       276.000         191.000         797.000                  
G30  23381378.223    23381377.460    23381381.123                    -7141269.874 8  -7141269.876 7                  -5564625.908 8       179.000          85.000         426.000                  
> 2024 10 31 02 01 20.0000000  0 12
G02  24673311.994    24673306.079    24673308.713                    -2126185.313 7  -2126185.304 6                  -1656767.550 6        72.000          23.000          20.000                  
G08  25800544.438    25800542.819    25800548.300                     5993842.123 7   5993842.126 6                   4670522.580 6        52.000          18.000          41.000                  
G10  24520746.242    24520745.565    24520749.551                    -3131596.616 7  -3131596.609 6                  -2440203.617 7        93.000          36.000          69.000                  
G13  20175530.209    20175529.659    20175529.739                   -20976681.548 9 -20976681.549 8                 -16345467.566 8       741.000         332.000         415.000                  
G14  20090924.329    20090924.144    20090924.849                   -24463283.924 9 -24463283.925 9                 -19062269.712 9       678.000         624.000         624.000                  
G15  19943861.341    19943860.923    19943861.390                   -23395128.438 9 -23395128.438 9                 -18229970.489 9       726.000        1187.000        1556.000                  
G17  22063727.290    22063726.674    22063727.813                   -13827215.762 8 -13827215.771 8                 -10774454.136 9       236.000         122.000         603.000                  
G21  24170737.502    24170734.083    24170736.037                    -2554884.332 8  -2554884.368 6                  -1990736.896 6       105.000          25.000          32.000                  
G22  19856514.175    19856512.974    19856512.996                   -24862851.568 9 -24862851.570 8                 -19373651.518 9       771.000         455.000         645.000                  
G23  22609825.874    22609825.119    22609826.262                    -8482638.835 8  -8482638.837 7                  -6609848.501 8       228.000          72.000         174.000                  
G24  22052692.507    22052692.388    22052695.377                   -11678853.571 8 -11678853.575 8                  -9100406.600 9       281.000         192.000         798.000                  
G30  23346987.568    23346986.501    23346989.728                    -7321997.889 8  -7321997.891 7                  -5705453.029 8       183.000          82.000         428.000                  
> 2024 10 31 02 01 30.0000000  0 11
G02  24682418.609    24682414.160    24682416.534                    -2078323.356 7  -2078323.370 6                  -1619472.530 6        75.000          20.000          24.000                  
G10  24587224.813    24587223.531    24587226.515                    -2782256.176 7  -2782256.173 6                  -2167990.373 7        92.000          33.000          64.000                  
G13  20139679.099    20139678.801    20139678.785                   -21165079.659 9 -21165079.659 8                 -16492271.279 8       761.000         349.000         421.000                  
G14  20084143.450    20084143.303    20084144.003                   -24498917.365 9 -24498917.365 9                 -19090036.034 9       679.000         625.000         624.000                  
G15  19943209.345    19943208.996    19943209.378                   -23398554.410 9 -23398554.412 9                 -18232640.090 9       734.000        1208.000        1527.000                  
G17  22002542.564    22002541.871    22002542.611                   -14148745.798 8 -14148745.801 8                 -11024996.996 9       239.000         130.000         598.000                  
G21  24203753.452    24203749.565    24203752.232                    -2381385.830 8  -2381385.830 6                  -1855543.281 6       103.000          23.000          29.000                  
G22  19835986.630    19835985.666    19835985.646                   -24970723.458 9 -24970723.458 8                 -19457707.560 9       757.000         437.000         682.000                  
G23  22666303.237    22666302.780    22666303.824                    -8185847.648 8  -8185847.649 7                  -6378582.684 8       228.000          68.000         174.000                  
G24  22078576.935    22078576.577    22078579.465                   -11542831.641 8 -11542831.642 8                  -8994415.538 9       278.000         193.000         790.000                  
G30  23312975.600    23312975.022    23312978.389                    -7500728.713 8  -7500728.710 7                  -5844723.856 8       186.000          81.000         448.000                  
> 2024 10 31 02 01 40.0000000  0 11
G02  24692090.975    24692087.003    24692090.785                    -2027490.410 7  -2027490.423 6                  -1579862.442 6        76.000          21.000          17.000                  
G10  24653852.721    24653850.860    24653854.601                    -2432125.159 7  -2432125.158 6                  -1895161.110 7        97.000          32.000          54.000                  
G13  20104407.200    20104406.730    20104406.866                   -21350434.964 9 -21350434.965 8                 -16636703.965 8       778.000         369.000         428.000                  
G14  20078362.489    20078362.122    20078363.052                   -24529296.921 9 -24529296.923 9                 -19113708.429 9       687.000         634.000         610.000                  
G15  19943169.773    19943169.509    19943169.803                   -23398762.030 9 -23398762.031 9                 -18232801.881 9       733.000        1213.000        1486.000                  
G17  21942001.881    21942001.360    21942002.018                   -14466888.013 8 -14466888.019 8                 -11272899.988 9       246.000         130.000         604.000                  
G21  24237307.509    24237304.936    24237307.547                    -2205051.852 7  -2205051.858 6                  -1718140.214 6        99.000          25.000          34.000                  
G22  19816534.520    19816533.416    19816533.467                   -25072945.529 9 -25072945.531 8                 -19537361.151 9       746.000         430.000         720.000                  
G23  22723041.441    22723041.063    22723042.273                    -7887687.192 8  -7887687.190 7                  -6146249.908 8       232.000          71.000         175.000                  
G24  22104912.534    22104912.323    22104915.231                   -11404436.678 8 -11404436.679 8                  -8886575.349 9       280.000         190.000         795.000                  
G30  23279341.585    23279340.052    23279343.745                    -7677480.741 8  -7677480.737 7                  -5982452.718 8       191.000          85.000         463.000                  
> 2024 10 31 02 01 50.0000000  0 11
G02  24702335.729    24702331.137    24702332.483                    -1973658.684 7  -1973658.671 6                  -1537915.727 6        79.000          26.000          23.000                  
G10  24720630.639    24720628.711    24720632.072                    -2081208.217 7  -2081208.209 6                  -1621719.412 7        92.000          24.000          51.000                  
G13  20069727.017    20069726.641    20069726.653                   -21532681.117 9 -21532681.116 8                 -16778713.935 8       794.000         380.000         427.000                  
G14  20073588.420    20073588.098    20073588.653                   -24554385.640 9 -24554385.641 9                 -19133258.089 9       699.000         661.000         600.000                  
G15  19943749.272    19943749.056    19943749.473                   -23395716.053 9 -23395716.054 9                 -18230428.397 9       734.000        1205.000        1507.000                  
G17  21882125.410    21882125.057    21882125.818                   -14781539.820 8 -14781539.826 8                 -11518083.177 9       253.000         134.000         598.000                  
G21  24271403.401    24271399.906    24271401.965                    -2025878.222 8  -2025878.201 6                  -1578524.426 6       101.000          19.000          27.000                  
G22  19798169.467    19798168.486    19798168.307                   -25169455.373 9 -25169455.375 8                 -19612563.645 9       740.000         427.000         746.000                  
G23  22780039.257    22780038.296    22780039.590                    -7588164.248 8  -7588164.250 7                  -5912855.461 8       239.000          70.000         174.000                  
G24  22131703.594    22131703.655    22131706.501                   -11263647.846 8 -11263647.850 8                  -8776869.807 9       279.000         190.000         787.000                  
G30  23246092.288    23246091.772    23246095.283                    -7852202.241 8  -7852202.241 7                  -6118599.333 8       194.000          93.000         455.000                  
> 2024 10 31 02 02  0.0000000  0 12
G02  24713143.950    24713140.048    24713140.237                    -1916862.484 7  -1916862.475 6                  -1493658.908 6        83.000          20.000          20.000                  
G10  24787543.802    24787543.366    24787545.840                    -1729571.265 7  -1729571.251 6                  -1347716.702 6        86.000          25.000          41.000                  
G13  20035639.167    20035638.680    20035638.879                   -21711813.686 9 -21711813.686 8                 -16918297.733 8       797.000         377.000         442.000                  
G14  20069815.975    20069815.731    20069816.336                   -24574209.518 9 -24574209.519 9                 -19148705.282 9       706.000         663.000         600.000                  
G15  19944943.073    19944942.794    19944943.260                   -23389443.061 9 -23389443.062 9                 -18225540.361 9       735.000        1211.000        1583.000                  
G17  21822921.451    21822920.864    21822921.434                   -15092660.278 8 -15092660.281 8                 -11760514.661 9       262.000         144.000         591.000                  
G19  23931479.254    23931475.217    23931493.647                     -701687.247 8   -701687.272 6                   -546772.898 6       135.000          26.000          16.000                  
G21  24306028.547    24306025.669    24306028.484                    -1843922.167 7  -1843922.148 6                  -1436740.539 6        97.000          22.000          29.000                  
G22  19780891.094    19780890.039    19780890.062                   -25260253.708 9 -25260253.709 8                 -19683315.616 9       734.000         417.000         785.000                  
G23  22837282.687    22837282.179    22837283.057                    -7287346.871 8  -7287346.868 7                  -5678452.365 8       244.000          77.000         176.000                  
G24  22158943.112    22158942.447    22158945.408                   -11120506.063 8 -11120506.062 8                  -8665330.788 9       275.000         194.000         795.000                  
G30  23213228.505    23213227.842    23213231.302                    -8024903.087 8  -8024903.084 8                  -6253171.412 8       201.000         101.000         460.000                  
> 2024 10 31 02 02 10.0000000  0 12
G02  24724514.709    24724511.780    24724512.796                    -1857103.618 7  -1857103.622 6                  -1447093.649 6        94.000          27.000          22.000                  
G10  24854589.040    24854588.162    24854591.986                    -1377246.952 7  -1377246.960 6                  -1073178.376 6        81.000          25.000          33.000                  
G13  20002150.659    20002150.316    20002150.626                   -21887795.528 9 -21887795.528 8                 -17055426.421 8       800.000         387.000         459.000                  
G14  20067046.666    20067046.307    20067047.014                   -24588762.911 9 -24588762.911 9                 -19160045.597 9       712.000         686.000         594.000                  
G15  19946752.012    19946751.770    19946752.162                   -23379937.144 9 -23379937.145 9                 -18218133.158 9       740.000        1240.000        1608.000                  
G17  21764402.817    21764402.524    21764403.051                   -15400175.493 8 -15400175.496 8                 -12000136.854 9       272.000         160.000         575.000                  
G19  23852813.627    23852810.384    23852811.801                    -1115080.618 8  -1115080.622 6                   -868897.093 6       141.000          28.000          33.000                  
G21  24341177.527    24341176.435    24341177.243                    -1659208.677 7  -1659208.643 6                  -1292808.032 6        98.000          26.000          29.000                  
G22  19764705.441    19764704.252    19764704.434                   -25345309.743 9 -25345309.744 8                 -19749593.052 9       721.000         395.000         801.000                  
G23  22894766.382    22894765.830    22894766.719                    -6985269.891 8  -6985269.891 7                  -5443067.769 8       240.000          84.000         174.000                  
G24  22186627.708    22186627.671    22186630.617                   -10975019.566 8 -10975019.565 8                  -8551964.718 9       272.000         183.000         783.000                  
G30  23180753.864    23180752.738    23180756.332                    -8195560.466 8  -8195560.462 8                  -6386151.180 8       212.000         105.000         460.000                  
> 2024 10 31 02 02 20.0000000  0 12
G02  24736453.732    24736450.855    24736452.117                    -1794366.899 7  -1794366.898 6                  -1398207.943 6        94.000          26.000          22.000                  
G10  24921762.120    24921760.607    24921764.945                    -1024249.911 7  -1024249.907 6                   -798115.865 6        74.000          18.000          34.000                  
G13  19969272.515    19969272.017    19969272.393                   -22060572.018 9 -22060572.019 8                 -17190057.441 8       813.000         394.000         469.000                  
G14  20065284.365    20065284.097    20065284.659                   -24598023.801 9 -24598023.802 9                 -19167261.884 9       714.000         691.000         589.000                  
G15  19949180.505    19949180.326    19949180.745                   -23367175.080 9 -23367175.081 9                 -18208188.700 9       750.000        1254.000        1665.000                  
G17  21706588.277    21706587.518    21706588.333                   -15703993.988 8 -15703993.991 8                 -12236878.493 9       277.000         167.000         578.000                  
G19  23774405.994    23774402.433    23774403.893                    -1527117.826 8  -1527117.835 6                  -1189964.956 6       143.000          29.000          30.000                  
G21  24376851.427    24376849.170    24376850.405                    -1471745.196 7  -1471745.192 6                  -1146732.641 6        95.000          26.000          27.000                  
G22  19749621.398    19749620.497    19749620.502                   -25424576.393 9 -25424576.392 8                 -19811359.275 9       718.000         390.000         802.000                  
G23  22952486.040    22952485.619    22952486.485                    -6681950.078 8  -6681950.076 7                  -5206714.722 8       236.000          69.000         159.000                  
G24  22214761.696    22214760.793    22214763.831                   -10827178.985 8 -10827178.986 8                  -8436764.295 9       265.000         170.000         771.000                  
G30  23148675.765    23148674.426    23148677.742                    -8364133.838 8  -8364133.835 8                  -6517507.056 8       215.000         114.000         467.000                  
> 2024 10 31 02 02 30.0000000  0 12
G02  24748950.155    24748946.799    24748948.908                    -1728700.194 7  -1728700.213 6                  -1347039.096 6        96.000          32.000          16.000                  
G10  24989046.896    24989047.594    24989051.127                     -670656.987 7   -670656.994 6                   -522589.009 6        68.000          22.000          32.000                  
G13  19937002.693    19937002.168    19937002.317                   -22230151.334 9 -22230151.335 8                 -17322197.163 8       817.000         394.000         471.000                  
G14  20064521.223    20064521.001    20064521.552                   -24602034.135 9 -24602034.136 9                 -19170386.836 9       710.000         684.000         587.000                  
G15  19952221.241    19952220.879    19952221.315                   -23351196.861 9 -23351196.862 9                 -18195738.148 9       751.000        1263.000        1701.000                  
G17  21649482.217    21649481.991    21649482.443                   -16004087.129 8 -16004087.132 8                 -12470717.259 9       283.000         177.000         597.000                  
G19  23696260.347    23696257.869    23696257.968                    -1937771.576 8  -1937771.586 6                  -1509954.816 6       150.000          27.000          33.000                  
G21  24413035.756    24413032.061    24413032.197                    -1281602.228 7  -1281602.221 6                   -998569.326 6        94.000          18.000          25.000                  
G22  19735636.085    19735635.053    19735634.899                   -25498070.731 9 -25498070.732 8                 -19868627.598 9       714.000         392.000         797.000                  
G23  23010426.957    23010426.920    23010428.093                    -6377466.504 8  -6377466.487 7                  -4969454.847 8       229.000          69.000         163.000                  
G24  22243332.446    22243331.712    22243334.717                   -10677037.814 8 -10677037.814 8                  -8319771.201 9       257.000         169.000         767.000                  
G30  23116989.139    23116988.521    23116991.841                    -8530645.443 8  -8530645.444 8                  -6647256.352 8       220.000         120.000         467.000                  
> 2024 10 31 02 02 40.0000000  0 12
G02  24762008.064    24762005.908    24762006.335                    -1660077.869 7  -1660077.842 6                  -1293567.218 6        96.000          25.000          26.000                  
G10  25056447.869    25056446.974    25056449.564                     -316470.732 7   -316470.710 6                   -246599.869 6        62.000          23.000          25.000                  
G13  19905353.810    19905353.216    19905353.465                   -22396467.957 9 -22396467.959 8                 -17451794.530 8       825.000         401.000         495.000                  
G14  20064763.045    20064762.907    20064763.440                   -24600763.142 9 -24600763.142 9                 -19169396.464 9       705.000         669.000         578.000                  
G15  19955880.122    19955879.944    19955880.266                   -23331968.666 9 -23331968.667 9                 -18180755.148 9       742.000        1235.000        1662.000                  
G17  21593104.800    21593104.329    21593105.151                   -16300352.427 8 -16300352.430 8                 -12701573.297 9       291.000         180.000         618.000                  
G19  23618397.689    23618396.376    23618395.665                    -2346940.175 8  -2346940.136 6                  -1828787.410 6       155.000          26.000          36.000                  
G21  24449727.103    24449725.074    24449727.151                    -1088776.694 7  -1088776.685 6                   -848315.719 6        91.000          19.000          23.000                  
G22  19722759.374    19722758.398    19722758.390                   -25565737.342 9 -25565737.342 8                 -19921354.834 9       712.000         384.000         793.000                  
G23  23068588.481    23068588.897    23068589.901                    -6071823.933 8  -6071823.926 7                  -4731291.865 8       222.000          55.000         154.000                  
G24  22272344.406    22272344.512    22272347.393                   -10524575.719 8 -10524575.721 8                  -8200969.594 9       253.000         168.000         758.000                  
G30  23085705.071    23085704.515    23085707.761                    -8695043.683 8  -8695043.683 8                  -6775358.865 8       224.000         125.000         468.000                  
> 2024 10 31 02 02 50.0000000  0 12
G02  24775621.393    24775618.611    24775620.452                    -1588541.130 8  -1588541.132 6                  -1237824.305 6       102.000          22.000          19.000                  
G10  25123946.032    25123946.018    25123948.911                       38240.420 7     38240.428 6                     29798.329 6        56.000          22.000          23.000                  
G13  19874325.410    19874324.841    19874325.088                   -22559522.953 9 -22559522.952 8                 -17578850.369 9       836.000         410.000         511.000                  
G14  20066002.953    20066002.676    20066003.322                   -24594247.640 9 -24594247.641 9                 -19164319.460 9       700.000         659.000         576.000                  
G15  19960151.240    19960150.985    19960151.319                   -23309523.539 9 -23309523.540 9                 -18163265.450 9       727.000        1182.000        1626.000                  
G17  21537462.756    21537462.293    21537462.907                   -16592753.705 8 -16592753.708 8                 -12929418.422 9       302.000         200.000         644.000                  
G19  23540824.964    23540823.313    23540823.474                    -2754587.522 8  -2754587.540 6                  -2146434.609 6       158.000          31.000          42.000                  
G21  24486920.221    24486916.996    24486919.094                     -893331.942 7   -893331.960 6                   -696021.219 6        90.000          17.000          24.000                  
G22  19710989.398    19710988.608    19710988.455                   -25627588.608 9 -25627588.609 8                 -19969550.630 9       708.000         380.000         793.000                  
G23  23126957.978    23126957.301    23126958.944                    -5765093.030 8  -5765093.033 7                  -4492280.827 8       213.000          57.000         151.000                  
G24  22301789.906    22301789.525    22301792.809                   -10369838.796 8 -10369838.799 8                  -8080395.395 9       248.000         154.000         759.000                  
G30  23054820.880    23054819.883    23054823.187                    -8857343.340 8  -8857343.337 8                  -6901826.114 8       225.000         122.000         451.000                  
> 2024 10 31 02 03  0.0000000  0 12
G02  24789792.962    24789789.339    24789789.688                    -1514071.391 7  -1514071.390 6                  -1179796.073 6       100.000          24.000          26.000                  
G10  25191547.527    25191544.179    25191547.279                      393468.582 7    393468.600 6                    306599.306 6        51.000          21.000          20.000                  
G13  19843928.718    19843928.475    19843928.675                   -22719257.260 9 -22719257.260 8                 -17703318.662 9       847.000         427.000         534.000                  
G14  20068245.100    20068244.832    20068245.424                   -24582465.520 9 -24582465.519 9                 -19155138.602 9       702.000         661.000         557.000                  
G15  19965039.672    19965039.410    19965039.884                   -23283834.551 9 -23283834.552 9                 -18143248.062 9       719.000        1144.000        1609.000                  
G17  21482574.014    21482573.770    21482574.334                   -16881194.836 8 -16881194.841 8                 -13154177.719 9       313.000         213.000         676.000                  
G19  23463560.325    23463558.275    23463558.730                    -3160616.727 8  -3160616.723 6                  -2462820.945 6       161.000          29.000          43.000                  
G21  24524609.795    24524605.554    24524608.142                     -695271.583 7   -695271.606 6                   -541688.512 6        86.000          22.000          21.000                  
G22  19700335.088    19700334.175    19700333.931                   -25683578.139 9 -25683578.139 8                 -20013178.837 9       711.000         381.000         800.000                  
G23  23185532.314    23185531.571    23185533.032                    -5457283.873 8  -5457283.866 7                  -4252429.594 8       209.000          60.000         146.000                  
G24  22331670.876    22331670.867    22331673.821                   -10212813.042 8 -10212813.043 8                  -7958037.689 9       246.000         151.000         746.000                  
G30  23024343.942    23024343.324    23024346.560                    -9017499.135 8  -9017499.135 8                  -7026622.822 8       229.000         127.000         444.000                  
> 2024 10 31 02 03 10.0000000  0 11
G02  24804516.674    24804513.524    24804514.305                    -1436695.499 8  -1436695.476 6                  -1119503.201 6       106.000          23.000          25.000                  
G13  19814166.823    19814166.503    19814166.745                   -22875657.174 9 -22875657.176 8                 -17825188.729 9       853.000         434.000         547.000                  
G14  20071484.703    20071484.438    20071485.081                   -24565440.792 9 -24565440.791 9                 -19141872.599 9       704.000         666.000         555.000                  
G15  19970541.764    19970541.676    19970542.074                   -23254919.993 9 -23254919.994 9                 -18120717.241 9       710.000        1127.000        1573.000                  
G17  21428448.671    21428448.601    21428449.113                   -17165624.857 8 -17165624.858 8                 -13375811.480 9       327.000         237.000         700.000                  
G19  23386613.997    23386611.767    23386611.567                    -3564975.140 8  -3564975.123 6                  -2777905.373 6       167.000          38.000          47.000                  
G21  24562786.757    24562783.900    24562786.294                     -494643.988 7   -494644.000 6                   -385355.368 6        82.000          22.000          19.000                  
G22  19690796.011    19690795.124    19690795.040                   -25733706.035 9 -25733706.037 8                 -20052239.537 9       719.000         399.000         818.000                  
G23  23244301.373    23244300.682    23244302.154                    -5148451.021 8  -5148451.021 7                  -4011780.678 8       206.000          56.000         130.000                  
G24  22361981.740    22361981.620    22361984.426                   -10053529.451 8 -10053529.456 8                  -7833920.630 9       244.000         140.000         752.000                  
G30  22994275.373    22994274.620    22994277.851                    -9175510.681 8  -9175510.685 8                  -7149748.682 8       231.000         126.000         435.000                  
> 2024 10 31 02 03 20.0000000  0 11
G02  24819788.704    24819785.998    24819788.085                    -1356438.203 8  -1356438.211 6                  -1056965.082 6       104.000          18.000          23.000                  
G13  19785042.579    19785042.262    19785042.188                   -23028706.586 9 -23028706.586 8                 -17944448.015 9       847.000         428.000         558.000                  
G14  20075717.915    20075717.460    20075718.075                   -24543196.168 9 -24543196.168 9                 -19124539.145 9       694.000         652.000         545.000                  
G15  19976654.747    19976654.625    19976655.008                   -23222795.995 9 -23222795.997 9                 -18095685.567 9       707.000        1116.000        1544.000                  
G17  21375097.193    21375096.717    21375097.243                   -17445990.419 8 -17445990.421 8                 -13594278.137 9       348.000         259.000         722.000                  
G19  23309995.027    23309994.061    23309993.236                    -3967607.029 8  -3967607.033 6                  -3091644.447 6       167.000          35.000          44.000                  
G21  24601445.264    24601441.520    24601444.350                     -291495.437 7   -291495.420 6                   -227057.897 6        82.000          23.000          22.000                  
G22  19682372.693    19682371.618    19682371.650                   -25777971.301 9 -25777971.303 8                 -20086731.954 9       727.000         408.000         833.000                  
G23  23303255.151    23303254.760    23303255.990                    -4838646.093 8  -4838646.092 7                  -3770374.300 8       202.000          54.000         129.000                  
G24  22392716.660    22392716.286    22392719.432                    -9892016.622 8  -9892016.624 8                  -7708066.505 9       236.000         139.000         765.000                  
G30  22964615.241    22964614.239    22964617.811                    -9331375.236 8  -9331375.231 8                  -7271201.563 8       224.000         121.000         429.000                  
> 2024 10 31 02 03 30.0000000  0 11
G02  24835612.880    24835609.314    24835610.370                    -1273284.590 7  -1273284.613 6                   -992170.163 6        97.000          22.000          26.000                  
G13  19756566.667    19756566.194    19756566.189                   -23178349.531 9 -23178349.532 8                 -18061052.908 9       854.000         429.000         557.000                  
G14  20080947.014    20080946.872    20080947.495                   -24515715.627 9 -24515715.627 9                 -19103125.752 9       691.000         650.000         529.000                  
G15  19983383.037    19983382.873    19983383.294                   -23187439.165 9 -23187439.167 9                 -18068134.803 9       702.000        1115.000        1535.000                  
G17  21322536.454    21322536.057    21322536.744                   -17722198.333 8 -17722198.333 8                 -13809505.068 9       364.000         290.000         761.000                  
G19  23233725.105    23233722.145    23233722.250                    -4368416.122 8  -4368416.130 6                  -3403963.137 6       167.000          38.000          50.000                  
G21  24640582.982    24640578.220    24640581.426                      -85832.281 7    -85832.298 6                    -66800.900 6        82.000          21.000          22.000                  
G22  19675072.338    19675071.394    19675071.352                   -25816334.515 9 -25816334.514 8                 -20116625.369 9       731.000         416.000         845.000                  
G23  23362391.685    23362391.682    23362392.834                    -4527880.303 8  -4527880.316 7                  -3528219.198 8       204.000          54.000         123.000                  
G24  22423878.223    22423877.329    22423880.752                    -9728263.203 8  -9728263.203 8                  -7580466.468 9       233.000         135.000         774.000                  
G30  22935372.610    22935371.036    22935374.429                    -9485050.120 8  -9485050.121 8                  -7390948.218 8       224.000         121.000         419.000                  
> 2024 10 31 02 03 40.0000000  0 11
G02  24851979.877    24851976.614    24851977.739                    -1187274.328 7  -1187274.325 6                   -925149.235 6        94.000          22.000          31.000                  
G13  19728739.041    19728738.640    19728738.524                   -23324584.530 9 -23324584.531 8                 -18175002.259 9       853.000         434.000         562.000                  
G14  20087165.428    20087165.091    20087165.683                   -24483038.460 9 -24483038.459 9                 -19077663.041 9       686.000         650.000         524.000                  
G15  19990720.392    19990720.327    19990720.842                   -23148880.377 9 -23148880.378 9                 -18038089.004 9       695.000        1089.000        1514.000                  
G17  21270774.774    21270774.093    21270774.536                   -17994210.011 8 -17994210.015 8                 -14021462.205 9       397.000         331.000         770.000                  
G19  23157806.774    23157804.976    23157804.709                    -4767359.590 8  -4767359.582 6                  -3714828.146 6       176.000          29.000          48.000                  
G21  24680184.757    24680182.447    24680184.946                      122284.821 7    122284.775 6                     95368.152 6        84.000          17.000          20.000                  
G22  19668892.154    19668891.243    19668891.124                   -25848811.906 9 -25848811.907 8                 -20141932.424 9       732.000         413.000         873.000                  
G23  23421699.320    23421699.475    23421699.928                    -4216218.580 8  -4216218.565 7                  -3285365.973 8       204.000          57.000         112.000                  
G24  22455457.511    22455456.967    22455460.248                    -9562312.114 8  -9562312.118 8                  -7451153.969 9       230.000         137.000         776.000                  
G30  22906543.330    22906542.056    22906545.480                    -9636546.886 8  -9636546.881 8                  -7508997.633 8       224.000         124.000         419.000                  
> 2024 10 31 02 03 50.0000000  0 11
G02  24868890.109    24868886.979    24868889.669                    -1098408.420 7  -1098408.413 6                   -855903.137 6        87.000          15.000          24.000                  
G13  19701567.592    19701567.009    19701567.154                   -23467371.159 9 -23467371.160 8                 -18286264.564 9       836.000         418.000         571.000                  
G14  20094372.458    20094372.047    20094372.588                   -24445165.912 9 -24445165.911 9                 -19048151.976 9       687.000         635.000         504.000                  
G15  19998668.886    19998668.635    19998669.163                   -23107111.618 9 -23107111.619 9                 -18005541.929 9       693.000        1084.000        1444.000                  
G17  21219825.734    21219825.395    21219825.632                   -18261947.826 8 -18261947.829 8                 -14230089.060 9       428.000         394.000         784.000                  
G19  23082261.937    23082259.946    23082259.853                    -5164354.799 8  -5164354.785 6                  -4024175.010 6       183.000          39.000          45.000                  
G21  24720252.400    24720249.623    24720248.863                      332834.005 7    332833.974 6                    259432.386 6        84.000          23.000          20.000                  
G22  19663836.003    19663835.016    19663835.016                   -25875381.885 9 -25875381.887 8                 -20162636.307 9       734.000         406.000         903.000                  
G23  23481172.276    23481172.123    23481172.593                    -3903686.133 8  -3903686.135 6                  -3041834.268 8       199.000          46.000         103.000                  
G24  22487454.186    22487453.932    22487457.182                    -9394166.985 8  -9394166.987 8                  -7320131.826 9       237.000         147.000         792.000                  
G30  22878133.600    22878132.888    22878136.327                    -9785837.861 8  -9785837.859 8                  -7625328.252 8       224.000         121.000         418.000                  
> 2024 10 31 02 04  0.0000000  0 11
G02  24886342.538    24886339.987    24886341.341                    -1006693.906 7  -1006693.897 6                   -784437.288 6        81.000          22.000          32.000                  
G13  19675058.920    19675058.309    19675058.543                   -23606675.088 9 -23606675.089 8                 -18394813.075 9       829.000         399.000         608.000                  
G14  20102566.462    20102566.155    20102566.640                   -24402106.188 9 -24402106.187 9                 -19014598.952 9       680.000         636.000         509.000                  
G15  20007228.359    20007228.193    20007228.707                   -23062130.967 9 -23062130.967 9                 -17970492.083 9       693.000        1081.000        1382.000                  
G17  21169703.900    21169703.497    21169703.739                   -18525340.272 8 -18525340.275 8                 -14435329.916 9       445.000         420.000         799.000                  
G19  23007102.599    23007099.761    23007099.160                    -5559324.349 8  -5559324.343 6                  -4331943.457 7       191.000          38.000          51.000                  
G21  24760774.158    24760773.611    24760775.031                      545787.844 7    545787.849 6                    425370.284 6        85.000          22.000          19.000                  
G22  19659906.788    19659905.838    19659905.841                   -25896030.255 9 -25896030.256 8                 -20178725.949 9       736.000         415.000         911.000                  
G23  23540805.417    23540805.106    23540805.879                    -3590313.516 8  -3590313.507 6                  -2797647.882 7       189.000          44.000          96.000                  
G24  22519867.021    22519866.852    22519869.866                    -9223837.405 8  -9223837.407 8                  -7187407.519 9       241.000         145.000         794.000                  
G30  22850148.405    22850147.769    22850151.143                    -9932901.322 8  -9932901.318 8                  -7739923.152 8       223.000         124.000         430.000                  
> 2024 10 31 02 04 10.0000000  0 11
G02  24904329.942    24904327.153    24904329.732                     -912167.925 7   -912167.938 6                   -710780.764 6        76.000          19.000          24.000                  
G13  19649213.811    19649213.222    19649213.415                   -23742491.789 9 -23742491.788 8                 -18500644.269 9       834.000         402.000         620.000                  
G14  20111740.062    20111739.765    20111740.257                   -24353898.265 9 -24353898.264 9                 -18977034.346 9       676.000         622.000         509.000                  
G15  20016393.865    20016393.640    20016394.038                   -23013966.522 9 -23013966.523 9                 -17932961.361 9       696.000        1098.000        1334.000                  
G17  21120416.585    21120416.347    21120416.553                   -18784345.819 8 -18784345.822 8                 -14637152.409 9       459.000         454.000         807.000                  
G19  22932335.525    22932334.305    22932333.398                    -5952219.811 8  -5952219.813 6                  -4638095.722 7       193.000          45.000          51.000                  
G21  24801746.105    24801743.420    24801746.142                      761089.129 7    761089.124 6                    593137.513 6        82.000          16.000          20.000                  
G22  19657101.288    19657100.171    19657100.175                   -25910774.068 9 -25910774.068 8                 -20190214.641 9       729.000         413.000         908.000                  
G23  23600587.467    23600586.399    23600587.000                    -3276160.465 8  -3276160.467 6                  -2552853.362 7       183.000          44.000          91.000                  
G24  22552688.105    22552687.832    22552690.832                    -9051362.520 8  -9051362.521 8                  -7053011.549 9       247.000         145.000         794.000                  
G30  22822585.724    22822584.616    22822588.161                   -10077745.194 8 -10077745.192 8                  -7852788.502 8       226.000         121.000         437.000                  
> 2024 10 31 02 04 20.0000000  0 11
G02  24922855.135    24922849.027    24922851.988                     -814829.770 7   -814829.753 6                   -634932.911 6        75.000          23.000          28.000                  
G13  19624040.421    19624039.895    19624040.041                   -23874778.975 9 -23874778.975 8                 -18603725.198 9       857.000         432.000         647.000                  
G14  20121893.038    20121892.715    20121893.256                   -24300544.185 9 -24300544.182 9                 -18935459.747 9       663.000         586.000         516.000                  
G15  20026167.118    20026166.851    20026167.106                   -22962608.538 9 -22962608.540 9                 -17892942.166 9       702.000        1103.000        1294.000                  
G17  21071979.548    21071979.152    21071979.283                   -19038885.211 8 -19038885.211 8                 -14835494.777 9       473.000         488.000         812.000                  
G19  22857981.580    22857979.778    22857980.224                    -6342954.192 8  -6342954.178 6                  -4942564.024 7       194.000          44.000          67.000                  
G21  24843158.588    24843156.733    24843158.261                      978718.502 7    978718.485 6                    762719.766 6        79.000          18.000          16.000                  
G22  19655422.974    19655421.941    19655421.687                   -25919593.664 9 -25919593.664 8                 -20197087.058 9       737.000         408.000         894.000                  
G23  23660513.424    23660512.208    23660513.071                    -2961248.153 8  -2961248.149 6                  -2307467.221 7       178.000          46.000          83.000                  
G24  22585917.105    22585916.877    22585919.827                    -8876743.499 8  -8876743.498 8                  -6916944.827 9       244.000         149.000         788.000                  
G30  22795450.501    22795450.144    22795453.507                   -10220339.404 8 -10220339.403 8                  -7963900.870 8       225.000         123.000         451.000                  
> 2024 10 31 02 04 30.0000000  0 11
G02  24941905.780    24941900.751    24941904.440                     -714711.411 7   -714711.396 6                   -556918.645 6        68.000          20.000          31.000                  
G13  19599540.683    19599540.042    19599540.109                   -24003526.942 9 -24003526.943 8                 -18704048.294 9       879.000         466.000         661.000                  
G14  20133018.441    20133018.179    20133018.735                   -24242079.372 9 -24242079.369 9                 -18889902.763 9       652.000         579.000         520.000                  
G15  20036543.654    20036543.305    20036543.587                   -22908079.904 9 -22908079.905 9                 -17850452.341 9       691.000        1080.000        1283.000                  
G17  21024401.006    21024400.514    21024400.679                   -19288912.005 8 -19288912.009 9                 -15030320.840 9       485.000         511.000         812.000                  
G19  22784048.678    22784046.755    22784047.007                    -6731472.127 8  -6731472.129 6                  -5245305.223 7       192.000          43.000          61.000                  
G21  24885007.135    24885003.709    24885006.381                     1198624.302 7   1198624.282 6                    934088.633 6        82.000          23.000          17.000                  
G22  19654869.169    19654868.252    19654868.094                   -25922503.227 9 -25922503.226 8                 -20199354.257 9       740.000         423.000         880.000                  
G23  23720572.148    23720572.523    23720573.162                    -2645629.553 8  -2645629.564 6                  -2061530.737 7       169.000          40.000          77.000                  
G24  22619547.806    22619547.284    22619550.526                    -8700013.769 8  -8700013.773 8                  -6779233.395 9       247.000         150.000         787.000                  
G30  22768744.000    22768742.812    22768746.314                   -10360686.232 8 -10360686.230 8                  -8073262.039 8       231.000         121.000         453.000                  
> 2024 10 31 02 04 40.0000000  0 11
G02  24961487.134    24961482.815    24961486.141                     -611808.080 7   -611808.076 6                   -476734.348 6        68.000          19.000          30.000                  
G13  19575723.016    19575722.688    19575722.605                   -24128689.097 9 -24128689.098 8                 -18801577.247 9       904.000         485.000         669.000                  
G14  20145116.658    20145116.273    20145116.923                   -24178503.208 9 -24178503.206 9                 -18840362.909 9       645.000         568.000         530.000                  
G15  20047526.083    20047525.769    20047526.235                   -22850366.449 9 -22850366.450 9                 -17805480.837 9       685.000        1058.000        1329.000                  
G17  20977697.187    20977696.680    20977696.740                   -19534342.987 9 -19534342.991 9                 -15221565.753 9       510.000         547.000         847.000                  
G19  22710555.642    22710554.574    22710553.952                    -7117680.522 8  -7117680.539 6                  -5546246.787 7       196.000          47.000          64.000                  
G21  24927283.438    24927280.295    24927284.119                     1420791.884 7   1420791.906 6                   1107236.100 6        82.000          21.000          16.000                  
G22  19655444.115    19655443.328    19655443.199                   -25919481.391 9 -25919481.391 8                 -20196999.587 9       743.000         418.000         880.000                  
G23  23780763.740    23780763.757    23780765.391                    -2329320.003 8  -2329319.991 6                  -1815055.841 7       165.000          36.000          77.000                  
G24  22653580.879    22653580.444    22653583.496                    -8521169.636 8  -8521169.639 8                  -6639874.376 9       245.000         153.000         782.000                  
G30  22742471.366    22742470.119    22742473.456                   -10498750.908 8 -10498750.910 8                  -8180844.909 8       235.000         136.000         460.000                  
> 2024 10 31 02 04 50.0000000  0 11
G02  24981593.401    24981590.113    24981593.491                     -506144.400 7   -506144.364 6                   -394399.028 6        67.000          22.000          31.000                  
G13  19552591.113    19552590.531    19552590.613                   -24250248.398 9 -24250248.398 8                 -18896298.783 9       921.000         499.000         664.000                  
G14  20158181.685    20158181.578    20158182.022                   -24109845.283 9 -24109845.278 9                 -18786863.244 9       641.000         562.000         522.000                  
G15  20059111.641    20059111.451    20059111.937                   -22789483.464 9 -22789483.465 9                 -17758039.569 9       677.000        1031.000        1376.000                  
G17  20931877.854    20931877.468    20931877.596                   -19775124.636 9 -19775124.639 9                 -15409187.808 9       527.000         602.000         897.000                  
G19  22637514.711    22637512.903    22637512.502                    -7501514.979 8  -7501514.978 6                  -5845338.534 7       206.000          45.000          67.000                  
G21  24969981.803    24969980.146    24969981.567                     1645177.569 7   1645177.582 6                   1282101.178 6        85.000          18.000          17.000                  
G22  19657146.291    19657145.216    19657145.100                   -25910537.401 9 -25910537.402 8                 -20190030.249 9       750.000         427.000         862.000                  
G23  23841079.792    23841079.055    23841080.681                    -2012363.489 8  -2012363.487 6                  -1568076.825 7       151.000          32.000          70.000                  
G24  22688010.761    22688010.812    22688014.015                    -8340236.543 8  -8340236.547 8                  -6498887.595 9       243.000         144.000         770.000                  
G30  22716633.777    22716632.732    22716636.119                   -10634527.823 8 -10634527.828 8                  -8286645.107 8       237.000         138.000         450.000                  
> 2024 10 31 02 05  0.0000000  0 11
G02  25002219.922    25002215.618    25002219.307                     -397758.985 7   -397758.988 6                   -309942.937 6        70.000          22.000          32.000                  
G13  19530145.308    19530144.863    19530144.867                   -24368201.735 9 -24368201.736 9                 -18988210.481 9       933.000         511.000         687.000                  
G14  20172205.835    20172205.305    20172205.847                   -24036149.847 9 -24036149.844 9                 -18729438.243 9       641.000         553.000         523.000                  
G15  20071294.904    20071294.658    20071295.122                   -22725460.144 9 -22725460.144 9                 -17708151.287 9       667.000        1003.000        1382.000                  
G17  20886950.414    20886950.445    20886950.635                   -20011217.408 9 -20011217.410 9                 -15593156.190 9       534.000         609.000         943.000                  
G19  22564934.665    22564932.721    22564932.537                    -7882924.005 8  -7882923.999 7                  -6142540.339 7       221.000          54.000          63.000                  
G21  25013094.481    25013090.153    25013093.945                     1871723.843 7   1871723.841 6                   1458630.593 6        81.000          20.000          18.000                  
G22  19659970.619    19659969.668    19659969.291                   -25895695.482 9 -25895695.484 8                 -20178465.126 9       754.000         432.000         852.000                  
G23  23901506.541    23901506.286    23901507.252                    -1694817.104 8  -1694817.118 6                  -1320638.177 7       149.000          35.000          71.000                  
G24  22722831.669    22722831.299    22722834.630                    -8157253.519 8  -8157253.518 8                  -6356303.467 9       234.000         139.000         764.000                  
G30  22691230.040    22691229.028    22691232.413                   -10768025.103 8 -10768025.099 8                  -8390668.970 8       243.000         139.000         447.000                  
> 2024 10 31 02 05 10.0000000  0 11
G02  25023365.183    25023361.714    25023364.773                     -286638.173 7   -286638.146 6                   -223355.371 6        70.000          20.000          26.000                  
G13  19508396.310    19508395.907    19508395.903                   -24482493.623 9 -24482493.623 9                 -19077269.106 9       941.000         520.000         708.000                  
G14  20187189.273    20187189.159    20187189.733                   -23957409.537 9 -23957409.533 9                 -18668082.173 9       643.000         557.000         519.000                  
G15  20084080.234    20084079.975    20084080.354                   -22658273.371 9 -22658273.373 9                 -17655797.980 9       661.000         994.000        1405.000                  
G17  20842933.772    20842933.241    20842933.309                   -20242529.791 9 -20242529.793 9                 -15773399.600 9       551.000         650.000         996.000                  
G19  22492836.450    22492834.686    22492834.199                    -8261803.084 8  -8261803.085 7                  -6437770.765 7       236.000          58.000          72.000                  
G21  25056614.901    25056610.930    25056612.928                     2100426.001 7   2100426.016 6                   1636839.941 6        82.000          20.000          17.000                  
G22  19663922.436    19663921.319    19663921.207                   -25874928.765 9 -25874928.765 8                 -20162283.279 9       753.000         424.000         864.000                  
G23  23962045.763    23962044.565    23962046.357                    -1376684.802 8  -1376684.798 6                  -1072742.974 7       143.000          36.000          62.000                  
G24  22758044.835    22758044.693    22758047.862                    -7972206.925 8  -7972206.923 8                  -6212111.365 9       229.000         134.000         748.000                  
G30  22666268.323    22666267.622    22666271.076                   -10899198.216 8 -10899198.213 8                  -8492881.799 8       242.000         137.000         455.000                  
> 2024 10 31 02 05 20.0000000  0 11
G02  25045023.349    25045019.064    25045019.625                     -172830.800 7   -172830.795 6                   -134674.354 6        70.000          22.000          27.000                  
G13  19487342.715    19487342.204    19487342.249                   -24593131.286 9 -24593131.286 9                 -19163480.282 9       936.000         513.000         715.000                  
G14  20203122.610    20203122.212    20203122.892                   -23873680.355 9 -23873680.351 9                 -18602838.672 9       649.000         556.000         510.000                  
G15  20097459.869    20097459.716    20097460.181                   -22587962.549 9 -22587962.551 9                 -17601010.347 9       654.000         968.000        1413.000                  
G17  20799831.486    20799831.048    20799831.209                   -20469033.149 9 -20469033.151 9                 -15949895.717 9       562.000         674.000        1037.000                  
G19  22421227.815    22421225.775    22421225.302                    -8638109.429 8  -8638109.438 7                  -6730996.461 7       245.000          63.000          78.000                  
G21  25100532.240    25100528.789    25100532.262                     2331216.901 7   2331216.911 6                   1816676.900 6        81.000          23.000          17.000                  
G22  19668994.610    19668993.585    19668993.425                   -25848274.305 9 -25848274.305 8                 -20141513.580 9       743.000         422.000         876.000                  
G23  24022682.715    24022682.244    24022683.227                    -1058032.349 8  -1058032.354 6                   -824442.464 7       139.000          30.000          60.000                  
G24  22793641.514    22793641.090    22793644.400                    -7785145.448 8  -7785145.451 8                  -6066349.223 9       222.000         123.000         722.000                  
G30  22641745.501    22641745.055    22641748.519                   -11028065.137 8 -11028065.139 8                  -8593297.593 8       242.000         150.000         441.000                  
> 2024 10 31 02 05 30.0000000  0 11
G02  25067194.935    25067188.796    25067191.174                      -56328.098 7    -56328.121 6                    -43893.132 6        71.000          21.000          28.000                  
G13  19466994.175    19466993.599    19466993.602                   -24700064.198 9 -24700064.199 8                 -19246804.639 9       916.000         497.000         703.000                  
G14  20220005.169    20220004.931    20220005.383                   -23784961.378 9 -23784961.372 9                 -18533707.016 8       648.000         567.000         500.000                  
G15  20111437.529    20111437.320    20111437.852                   -22514509.285 9 -22514509.287 9                 -17543774.059 9       642.000         925.000        1404.000                  
G17  20757660.895    20757660.342    20757660.555                   -20690641.514 9 -20690641.516 9                 -16122577.554 9       569.000         693.000        1091.000                  
G19  22350127.947    22350125.977    22350125.640                    -9011741.824 8  -9011741.821 7                  -7022138.545 7       258.000          66.000          89.000                  
G21  25144846.468    25144842.614    25144845.667                     2564087.508 7   2564087.522 6                   1998134.444 6        78.000          23.000          18.000                  
G22  19675190.632    19675189.771    19675189.743                   -25815712.654 9 -25815712.656 8                 -20116140.878 9       737.000         420.000         881.000                  
G23  24083418.161    24083418.106    24083419.267                     -738867.112 8   -738867.122 6                   -575742.377 7       137.000          37.000          55.000                  
G24  22829623.384    22829622.653    22829626.275                    -7596059.844 8  -7596059.845 8                  -5919009.843 9       216.000         116.000         687.000                  
G30  22617669.234    22617668.979    22617672.275                   -11154585.946 8 -11154585.946 8                  -8691885.243 8       247.000         159.000         434.000                  
> 2024 10 31 02 05 40.0000000  0 11
G02  25089864.911    25089860.561    25089864.749                       62817.300 7     62817.277 6                     48947.397 6        74.000          22.000          26.000                  
G13  19447348.312    19447347.776    19447347.884                   -24803303.257 9 -24803303.257 8                 -19327250.666 9       878.000         463.000         675.000                  
G14  20237825.841    20237825.474    20237826.064                   -23691313.477 9 -23691313.473 9                 -18460734.638 8       657.000         582.000         480.000                  
G15  20126005.207    20126004.812    20126005.382                   -22437956.286 9 -22437956.287 9                 -17484122.393 9       623.000         876.000        1387.000                  
G17  20716426.299    20716425.855    20716426.035                   -20907330.412 9 -20907330.414 9                 -16291426.040 9       580.000         724.000        1094.000                  
G19  22279544.628    22279542.790    22279541.994                    -9382659.424 8  -9382659.427 7                  -7311165.214 7       274.000          81.000          99.000                  
G21  25189541.374    25189539.215    25189541.154                     2798967.755 7   2798967.783 6                   2181157.325 6        77.000          23.000          18.000                  
G22  19682502.894    19682502.038    19682501.977                   -25777286.646 9 -25777286.645 8                 -20086198.542 9       731.000         405.000         870.000                  
G23  24144237.757    24144237.756    24144238.860                     -419256.755 8   -419256.749 6                   -326695.449 7       133.000          30.000          51.000                  
G24  22865980.567    22865979.925    22865983.336                    -7405001.642 8  -7405001.641 8                  -5770133.377 9       209.000         114.000         648.000                  
G30  22594035.658    22594035.313    22594038.689                   -11278781.652 8 -11278781.652 8                  -8788661.128 8       245.000         144.000         422.000                  
> 2024 10 31 02 05 50.0000000  0 11
G02  25113042.700    25113037.055    25113040.656                      184610.178 7    184610.205 6                    143850.871 6        73.000          20.000          25.000                  
G13  19428414.303    19428413.750    19428413.740                   -24902802.157 9 -24902802.156 8                 -19404782.283 9       842.000         420.000         656.000                  
G14  20256583.540    20256583.304    20256583.736                   -23592741.047 9 -23592741.043 9                 -18383924.962 8       657.000         580.000         480.000                  
G15  20141165.196    20141164.939    20141165.589                   -22358289.185 9 -22358289.186 9                 -17422044.150 9       621.000         864.000        1419.000                  
G17  20676143.223    20676142.865    20676143.052                   -21119018.675 9 -21119018.678 9                 -16456377.930 9       591.000         751.000        1134.000                  
G19  22209496.341    22209494.701    22209494.295                    -9750763.701 8  -9750763.707 7                  -7597999.691 8       287.000          77.000         111.000                  
G21  25234620.036    25234615.349    25234618.708                     3035845.102 7   3035845.126 6                   2365737.690 6        74.000          20.000          16.000                  
G22  19690933.788    19690932.695    19690932.600                   -25732983.351 9 -25732983.351 8                 -20051676.499 9       729.000         409.000         865.000                  
G23  24205140.355    24205140.705    24205141.766                      -99210.979 8    -99210.973 6                    -77309.239 6       128.000          28.000          49.000                  
G24  22902714.400    22902713.494    22902717.105                    -7211964.887 8  -7211964.889 8                  -5619715.176 9       206.000         109.000         628.000                  
G30  22570851.622    22570851.083    22570854.275                   -11400615.896 8 -11400615.898 8                  -8883596.917 8       245.000         147.000         405.000                  
> 2024 10 31 02 06  0.0000000  0 11
G02  25136716.920    25136710.498    25136715.012                      309017.158 7    309017.173 6                    240791.319 6        79.000          25.000          23.000                  
G13  19410193.397    19410192.877    19410193.056                   -24998552.888 9 -24998552.889 8                 -19479393.250 9       819.000         405.000         667.000                  
G14  20276270.131    20276269.938    20276270.422                   -23489287.182 9 -23489287.178 9                 -18303311.573 8       655.000         575.000         489.000                  
G15  20156913.482    20156913.266    20156913.904                   -22275531.521 9 -22275531.522 9                 -17357557.674 9       623.000         875.000        1443.000                  
G17  20636819.933    20636819.645    20636819.871                   -21325663.657 9 -21325663.657 9                 -16617399.994 9       606.000         778.000        1186.000                  
G19  22139995.293    22139993.751    22139993.544                   -10115993.129 8 -10115993.132 7                  -7882594.022 8       300.000          90.000         118.000                  
G21  25280065.753    25280061.934    25280066.969                     3274669.251 7   3274669.240 6                   2551833.601 6        72.000          22.000          19.000                  
G22  19700477.823    19700476.824    19700476.743                   -25682828.871 9 -25682828.872 8                 -20012595.094 9       730.000         405.000         844.000                  
G23  24266117.286    24266117.351    24266117.713                      221223.206 8    221223.212 6                    172379.617 6       125.000          30.000          42.000                  
G24  22939817.799    22939818.016    22939821.323                    -7016981.358 8  -7016981.361 8                  -5467780.006 9       205.000         102.000         605.000                  
G30  22548116.513    22548115.893    22548118.898                   -11520090.199 8 -11520090.197 8                  -8976693.793 8       249.000         148.000         396.000                  
> 2024 10 31 02 06 10.0000000  0 11
G02  25160882.416    25160877.136    25160878.812                      436010.466 7    436010.464 6                    339746.019 6        77.000          22.000          25.000                  
G13  19392688.366    19392687.961    19392688.116                   -25090542.108 9 -25090542.107 8                 -19551073.166 9       815.000         391.000         670.000                  
G14  20296878.418    20296878.176    20296878.731                   -23380990.195 9 -23380990.189 9                 -18218924.324 8       646.000         570.000         479.000                  
G15  20173246.368    20173246.178    20173246.909                   -22189701.325 9 -22189701.326 9                 -17290677.015 9       627.000         894.000        1375.000                  
G17  20598465.630    20598465.126    20598465.454                   -21527217.798 9 -21527217.800 9                 -16774455.171 9       620.000         814.000        1226.000                  
G19  22071054.455    22071052.945    22071052.920                   -10478280.301 8 -10478280.307 7                  -8164895.689 8       314.000          96.000         132.000                  
G21  25325873.822    25325870.452    25325873.055                     3515395.762 7   3515395.774 6                   2739412.201 6        69.000          25.000          18.000                  
G22  19711131.235    19711130.058    19711130.204                   -25626845.053 9 -25626845.054 8                 -19968971.347 9       729.000         403.000         827.000                  
G23  24327159.773    24327160.131    24327160.579                      542005.038 8    542005.049 6                    422339.375 6       121.000          31.000          40.000                  
G24  22977288.244    22977287.457    22977291.036                    -6820077.084 8  -6820077.091 8                  -5314348.157 9       201.000         105.000         595.000                  
G30  22525830.960    22525830.472    22525833.846                   -11637200.464 8 -11637200.463 8                  -9067948.563 8       254.000         153.000         389.000                  
> 2024 10 31 02 06 20.0000000  0 11
G02  25185540.763    25185535.617    25185539.425                      565592.814 7    565592.816 6                    440719.169 6        80.000          22.000          21.000                  
G13  19375907.563    19375907.169    19375907.240                   -25178725.977 9 -25178725.976 8                 -19619787.874 9       811.000         394.000         692.000                  
G14  20318406.867    20318406.435    20318407.018                   -23267858.394 9 -23267858.390 9                 -18130769.686 8       635.000         547.000         494.000                  
G15  20190166.645    20190166.350    20190166.861                   -22100786.034 9 -22100786.035 9                 -17221392.390 9       631.000         894.000        1335.000                  
G17  20561094.810    20561094.310    20561094.572                   -21723603.387 9 -21723603.390 9                 -16927482.906 9       633.000         852.000        1309.000                  
G19  22002692.476    22002690.711    22002690.081                   -10837526.437 8 -10837526.436 8                  -8444827.721 8       334.000         111.000         144.000                  
G21  25372042.525    25372038.772    25372043.951                     3758011.055 7   3758011.049 6                   2928468.549 6        67.000          25.000          15.000                  
G22  19722895.263    19722894.293    19722894.231                   -25565024.335 9 -25565024.336 8                 -19920799.369 9       733.000         412.000         814.000                  
G23  24388266.908    24388266.807    24388268.887                      863125.153 8    863125.144 6                    672562.731 6       119.000          29.000          38.000                  
G24  23015123.987    23015123.695    23015127.113                    -6621247.186 8  -6621247.189 7                  -5159415.815 9       197.000          97.000         581.000                  
G30  22504001.970    22504001.665    22504004.903                   -11751911.746 8 -11751911.751 8                  -9157333.995 8       252.000         157.000         393.000                  
> 2024 10 31 02 06 30.0000000  0 11
G02  25210681.260    25210677.046    25210679.613                      697709.580 7    697709.538 6                    543667.177 6        80.000          23.000          20.000                  
G13  19359848.432    19359847.857    19359848.065                   -25263118.128 9 -25263118.129 8                 -19685547.998 9       824.000         405.000         730.000                  
G14  20340842.274    20340842.146    20340842.826                   -23149958.112 9 -23149958.106 9                 -18038899.353 8       630.000         529.000         483.000                  
G15  20207665.209    20207664.940    20207665.460                   -22008830.391 9 -22008830.391 9                 -17149738.667 9       635.000         915.000        1272.000                  
G17  20524711.107    20524710.678    20524710.905                   -21914800.977 9 -21914800.980 9                 -17076468.048 9       649.000         905.000        1385.000                  
G19  21934916.833    21934915.053    21934914.667                   -11193689.459 8 -11193689.458 8                  -8722357.326 8       342.000         116.000         155.000                  
G21  25418557.585    25418553.270    25418555.679                     4002444.536 7   4002444.500 6                   3118952.588 6        67.000          20.000          17.000                  
G22  19735760.327    19735759.289    19735759.416                   -25497417.705 9 -25497417.706 8                 -19868118.888 9       729.000         405.000         768.000                  
G23  24449428.110    24449426.439    24449427.637                     1184517.547 8   1184517.528 6                    922998.253 6       114.000          24.000          30.000                  
G24  23053316.486    23053316.468    23053319.810                    -6420543.800 8  -6420543.802 7                  -5003023.619 9       191.000          89.000         565.000                  
G30  22482625.795    22482625.020    22482628.368                   -11864246.451 8 -11864246.451 8                  -9244867.545 8       249.000         156.000         384.000                  
> 2024 10 31 02 06 40.0000000  0 11
G02  25236306.250    25236302.519    25236302.815                      832367.375 7    832367.390 6                    648595.225 6        77.000          20.000          19.000                  
G13  19344519.782    19344519.285    19344519.233                   -25343671.256 9 -25343671.257 8                 -19748316.674 9       841.000         420.000         764.000                  
G14  20364184.438    20364184.136    20364184.811                   -23027295.068 9 -23027295.063 9                 -17943317.780 8       620.000         513.000         486.000                  
G15  20225745.309    20225745.197    20225745.579                   -21913817.984 9 -21913817.986 9                 -17075703.051 9       641.000         905.000        1161.000                  
G17  20489329.956    20489329.444    20489329.776                   -22100730.330 9 -22100730.332 9                 -17221348.071 9       655.000         919.000        1412.000                  
G19  21867747.513    21867745.712    21867745.605                   -11546665.716 8 -11546665.714 8                  -8997403.743 8       349.000         122.000         165.000                  
G21  25465414.650    25465411.344    25465414.330                     4248687.037 7   4248687.042 6                   3310848.205 6        60.000          20.000          19.000                  
G22  19749728.251    19749727.154    19749727.144                   -25424016.148 9 -25424016.148 8                 -19810922.881 9       730.000         419.000         727.000                  
G23  24510635.985    24510636.514    24510637.681                     1506178.156 8   1506178.179 6                   1173642.750 6       112.000          29.000          30.000                  
G24  23091868.239    23091867.072    23091870.680                    -6217957.666 8  -6217957.673 7                  -4845164.350 9       183.000          86.000         554.000                  
G30  22461708.957    22461708.074    22461711.415                   -11974165.556 8 -11974165.557 8                  -9330518.808 8       253.000         154.000         368.000                  
> 2024 10 31 02 06 50.0000000  0 11
G02  25262403.704    25262400.009    25262399.547                      969510.546 7    969510.545 6                    755459.932 6        78.000          22.000          23.000                  
G13  19329918.672    19329918.168    19329918.184                   -25420400.450 9 -25420400.450 8                 -19808105.659 9       852.000         422.000         815.000                  
G14  20388419.712    20388419.342    20388420.135                   -22899937.785 9 -22899937.779 9                 -17844078.360 9       610.000         506.000         502.000                  
G15  20244398.841    20244398.497    20244398.802                   -21815794.403 9 -21815794.405 9                 -16999321.062 9       635.000         908.000        1097.000                  
G17  20454954.705    20454954.043    20454954.378                   -22281374.023 9 -22281374.025 9                 -17362109.397 9       654.000         914.000        1484.000                  
G19  21801192.990    21801190.830    21801190.858                   -11896412.993 8 -11896412.994 8                  -9269934.074 8       357.000         118.000         188.000                  
G21  25512605.822    25512601.045    25512604.609                     4496667.660 7   4496667.662 6                   3504080.753 6        62.000          22.000          20.000                  
G22  19764788.380    19764787.404    19764787.381                   -25344873.968 9 -25344873.968 8                 -19749253.663 9       727.000         409.000         720.000                  
G23  24571886.249    24571885.148    24571886.144                     1828041.490 8   1828041.519 6                   1424445.207 6       106.000          26.000          26.000                  
G24  23130766.721    23130766.466    23130769.938                    -6013541.328 8  -6013541.341 7                  -4685878.952 9       182.000          78.000         546.000                  
G30  22441247.293    22441246.682    22441249.696                   -12081692.196 8 -12081692.198 8                  -9414305.817 8       255.000         156.000         374.000                  
> 2024 10 31 02 07  0.0000000  0 11
G02  25288974.712    25288971.659    25288972.479                     1109141.474 7   1109141.470 6                    864263.154 6        75.000          23.000          23.000                  
G13  19316053.382    19316052.961    19316052.900                   -25493263.151 9 -25493263.150 8                 -19864881.799 9       855.000         431.000         860.000                  
G14  20413546.245    20413545.880    20413546.543                   -22767897.316 9 -22767897.310 8                 -17741189.705 9       606.000         492.000         512.000                  
G15  20263627.406    20263627.203    20263627.472                   -21714747.217 9 -21714747.219 9                 -16920583.019 9       635.000         912.000        1053.000                  
G17  20421599.148    20421598.740    20421599.051                   -22456657.502 9 -22456657.504 9                 -17498693.933 9       662.000         943.000        1497.000                  
G19  21735271.457    21735270.153    21735269.893                   -12242830.591 8 -12242830.594 8                  -9539869.851 8       366.000         135.000         206.000                  
G21  25560121.417    25560118.340    25560122.954                     4746373.765 7   4746373.769 6                   3698654.170 6        62.000          19.000          21.000                  
G22  19780941.589    19780940.558    19780940.587                   -25259988.588 9 -25259988.589 8                 -19683109.228 9       725.000         394.000         713.000                  
G23  24633170.979    24633170.913    24633171.331                     2150100.806 7   2150100.812 6                   1675400.387 6       100.000          25.000          27.000                  
G24  23170014.925    23170015.097    23170018.491                    -5807289.096 8  -5807289.096 7                  -4525162.992 9       174.000          77.000         537.000                  
G30  22421247.928    22421247.034    22421250.161                   -12186791.294 8 -12186791.295 8                  -9496201.229 8       254.000         154.000         387.000                  
> 2024 10 31 02 07 10.0000000  0 11
G02  25316010.240    25316008.544    25316006.859                     1251223.120 7   1251223.133 6                    974976.234 6        75.000          19.000          16.000                  
G13  19302924.393    19302923.933    19302924.024                   -25562256.128 9 -25562256.128 8                 -19918642.575 9       843.000         422.000         902.000                  
G14  20439554.223    20439553.773    20439554.612                   -22631224.583 9 -22631224.576 8                 -17634691.496 9       602.000         495.000         507.000                  
G15  20283426.360    20283426.165    20283426.426                   -21610703.391 9 -21610703.392 9                 -16839509.931 9       638.000         914.000        1043.000                  
G17  20389270.480    20389269.942    20389270.300                   -22626546.256 9 -22626546.258 9                 -17631074.788 9       661.000         937.000        1543.000                  
G19  21669995.729    21669994.268    21669994.124                   -12585856.588 8 -12585856.589 8                  -9807162.818 8       382.000         143.000         216.000                  
G21  25607959.262    25607954.869    25607960.899                     4997754.194 7   4997754.215 6                   3894528.778 6        59.000          21.000          15.000                  
G22  19798180.332    19798179.404    19798179.412                   -25169397.826 9 -25169397.827 8                 -19612519.039 9       721.000         408.000         721.000                  
G23  24694485.792    24694484.771    24694487.831                     2472310.763 7   2472310.757 6                   1926472.937 6        92.000          20.000          24.000                  
G24  23209607.019    23209606.487    23209610.125                    -5599234.209 8  -5599234.208 7                  -4363042.359 9       169.000          69.000         506.000                  
G30  22401708.970    22401708.322    22401711.745                   -12289466.993 8 -12289466.995 8                  -9576208.278 8       255.000         157.000         401.000                  
> 2024 10 31 02 07 20.0000000  0 11
G02  25343510.705    25343506.202    25343505.080                     1395726.950 7   1395726.963 6                   1087583.328 6        73.000          23.000          19.000                  
G13  19290533.925    19290533.581    19290533.610                   -25627368.316 9 -25627368.315 8                 -19969379.355 9       823.000         401.000         947.000                  
G14  20466435.313    20466435.091    20466435.895                   -22489962.719 9 -22489962.712 8                 -17524617.345 8       599.000         491.000         499.000                  
G15  20303792.010    20303791.739    20303792.019                   -21503681.468 9 -21503681.469 9                 -16756116.249 9       630.000         898.000        1013.000                  
G17  20357976.134    20357975.731    20357976.225                   -22790998.294 9 -22790998.297 9                 -17759219.238 9       660.000         944.000        1607.000                  
G19  21605378.714    21605377.281    21605377.188                   -12925420.484 8 -12925420.487 8                 -10071758.050 8       400.000         161.000         216.000                  
G21  25656103.954    25656101.026    25656106.816                     5250765.145 7   5250765.182 6                   4091678.229 6        55.000          21.000          14.000                  
G22  19816499.071    19816498.078    19816498.190                   -25073132.415 9 -25073132.415 8                 -19537507.044 9       723.000         406.000         695.000                  
G23  24755822.964    24755821.709    24755822.264                     2794635.079 7   2794635.075 6                   2177634.579 6        86.000          23.000          24.000                  
G24  23249537.384    23249536.574    23249540.097                    -5389401.379 8  -5389401.376 7                  -4199536.329 8       166.000          75.000         489.000                  
G30  22382632.152    22382631.709    22382635.168                   -12389715.081 8 -12389715.080 8                  -9654323.685 8       252.000         153.000         413.000                  
> 2024 10 31 02 07 30.0000000  0 11
G02  25371469.407    25371464.609    25371467.273                     1542649.591 7   1542649.568 6                   1202070.517 6        73.000          29.000          20.000                  
G13  19278888.920    19278888.547    19278888.605                   -25688563.543 9 -25688563.543 8                 -20017063.961 9       800.000         382.000         999.000                  
G14  20494186.694    20494186.210    20494186.930                   -22344130.133 9 -22344130.127 8                 -17410981.594 8       602.000         494.000         479.000                  
G15  20324725.696    20324725.363    20324725.642                   -21393674.726 9 -21393674.728 9                 -16670396.733 9       622.000         868.000         985.000                  
G17  20327729.135    20327728.906    20327729.201                   -22949947.207 9 -22949947.209 9                 -17883075.540 9       669.000         946.000        1635.000                  
G19  21541438.721    21541437.686    21541437.514                   -13261426.060 8 -13261426.059 8                 -10333580.565 8       416.000         169.000         226.000                  
G21  25704557.835    25704554.284    25704557.478                     5505389.637 7   5505389.651 6                   4290089.140 6        55.000          21.000          19.000                  
G22  19835896.523    19835895.439    19835895.586                   -24971198.926 9 -24971198.926 8                 -19458078.365 9       738.000         418.000         697.000                  
G23  24817178.508    24817177.921    24817180.657                     3117063.464 7   3117063.471 6                   2428877.332 6        83.000          27.000          30.000                  
G24  23289806.020    23289804.772    23289808.374                    -5177789.735 8  -5177789.743 7                  -4034644.206 8       166.000          67.000         464.000                  
G30  22364023.725    22364022.509    22364026.243                   -12487505.937 8 -12487505.938 8                  -9730524.370 8       250.000         154.000         418.000                  
> 2024 10 31 02 07 40.0000000  0 11
G02  25399875.753    25399871.740    25399876.259                     1691930.403 7   1691930.394 6                   1318393.024 6        74.000          22.000          20.000                  
G13  19267985.166    19267984.614    19267984.754                   -25745863.236 9 -25745863.237 8                 -20061713.087 9       790.000         366.000         983.000                  
G14  20522792.605    20522792.427    20522793.220                   -22193803.004 9 -22193802.999 8                 -17293843.599 8       595.000         474.000         463.000                  
G15  20346217.572    20346217.345    20346217.599                   -21280733.669 9 -21280733.670 9                 -16582390.735 9       618.000         851.000         984.000                  
G17  20298530.829    20298530.555    20298530.959                   -23103384.882 9 -23103384.884 9                 -18002637.371 9       671.000         955.000        1668.000                  
G19  21478183.984    21478182.395    21478182.156                   -13593833.875 8 -13593833.877 8                 -10592599.630 8       442.000         184.000         241.000                  
G21  25753303.570    25753300.218    25753301.957                     5761553.423 6   5761553.446 6                   4489678.546 6        50.000          19.000          17.000                  
G22  19856360.117    19856359.049    19856359.067                   -24863662.192 9 -24863662.194 8                 -19374283.528 9       756.000         437.000         688.000                  
G23  24878541.407    24878541.346    24878544.973                     3439528.987 7   3439528.970 6                   2680149.022 6        81.000          22.000          21.000                  
G24  23330401.977    23330401.400    23330404.599                    -4964455.420 8  -4964455.418 7                  -3868409.739 8       162.000          69.000         429.000                  
G30  22345876.361    22345876.261    22345879.474                   -12582867.156 8 -12582867.154 8                  -9804831.825 8       254.000         162.000         439.000                  
> 2024 10 31 02 07 50.0000000  0 11
G02  25428733.823    25428728.776    25428729.434                     1843576.175 7   1843576.189 6                   1436558.501 6        66.000          17.000          23.000                  
G13  19257831.421    19257830.749    19257830.963                   -25799221.812 9 -25799221.811 8                 -20103291.212 9       770.000         356.000         972.000                  
G14  20552252.683    20552252.234    20552252.999                   -22038990.597 9 -22038990.591 8                 -17173210.587 8       589.000         458.000         441.000                  
G15  20368271.205    20368270.969    20368271.192                   -21164841.529 9 -21164841.530 9                 -16492085.195 9       620.000         854.000         985.000                  
G17  20270395.882    20270395.407    20270395.646                   -23251236.693 9 -23251236.694 9                 -18117846.581 9       685.000         995.000        1685.000                  
G19  21415634.091    21415632.318    21415632.016                   -13922536.789 8 -13922536.791 8                 -10848731.757 8       462.000         205.000         246.000                  
G21  25802344.030    25802338.315    25802341.103                     6019248.845 7   6019248.852 6                   4690449.373 6        54.000          23.000          16.000                  
G22  19877890.274    19877889.128    19877889.265                   -24750520.722 9 -24750520.723 8                 -19286121.362 9       773.000         457.000         679.000                  
G23  24939912.728    24939912.736    24939914.398                     3762032.875 7   3762032.884 6                   2931450.548 6        77.000          22.000          21.000                  
G24  23371327.793    23371327.238    23371330.843                    -4749386.898 8  -4749386.892 7                  -3700823.950 8       158.000          64.000         402.000                  
G30  22328199.994    22328199.243    22328203.123                   -12675758.921 8 -12675758.922 8                  -9877215.037 8       256.000         156.000         453.000                  
> 2024 10 31 02 08  0.0000000  0 10
G02  25458030.076    25458024.623    25458025.578                     1997530.049 7   1997530.032 6                   1556525.274 6        69.000          22.000          17.000                  
G13  19248424.131    19248423.515    19248423.677                   -25848657.480 9 -25848657.480 8                 -20141812.529 9       764.000         348.000         974.000                  
G14  20582552.109    20582551.666    20582552.343                   -21879766.279 9 -21879766.271 8                 -17049139.719 8       588.000         459.000         429.000                  
G15  20390877.483    20390877.177    20390877.423                   -21046044.966 9 -21046044.967 9                 -16399516.471 9       618.000         847.000         970.000                  
G17  20243325.242    20243324.920    20243325.269                   -23393492.764 9 -23393492.767 9                 -18228695.479 9       677.000         989.000        1712.000                  
G19  21353797.294    21353795.724    21353795.313                   -14247491.029 8 -14247491.031 8                 -11101942.844 8       476.000         217.000         266.000                  
G22  19900474.841    19900473.799    19900473.882                   -24631837.751 9 -24631837.751 8                 -19193641.148 9       785.000         476.000         668.000                  
G23  25001277.544    25001277.449    25001279.941                     4084513.371 7   4084513.358 6                   3182733.934 6        72.000          22.000          19.000                  
G24  23412574.456    23412573.656    23412577.161                    -4532636.006 8  -4532636.008 7                  -3531927.225 8       160.000          61.000         388.000                  
G30  22310988.879    22310988.335    22310991.634                   -12766204.953 8 -12766204.951 8                  -9947692.490 8       260.000         166.000         459.000                  
> 2024 10 31 02 08 10.0000000  0 10
G02  25487762.894    25487759.183    25487760.097                     2153782.389 7   2153782.411 6                   1678289.486 6        70.000          19.000          18.000                  
G13  19239768.709    19239768.245    19239768.305                   -25894141.801 9 -25894141.800 8                 -20177254.874 9       769.000         355.000         941.000                  
G14  20613686.037    20613685.563    20613686.347                   -21716156.668 9 -21716156.662 8                 -16921651.745 8       579.000         450.000         426.000                  
G15  20414036.351    20414036.183    20414036.383                   -20924343.562 9 -20924343.563 9                 -16304684.234 9       602.000         811.000         970.000                  
G17  20217330.442    20217330.046    20217330.362                   -23530096.953 9 -23530096.957 9                 -18335140.314 9       674.000         967.000        1764.000                  
G19  21292691.279    21292689.704    21292689.327                   -14568605.302 8 -14568605.305 8                 -11352161.748 8       492.000         237.000         302.000                  
G22  19924110.880    19924109.805    19924109.830                   -24507630.347 9 -24507630.348 8                 -19096856.181 9       803.000         484.000         637.000                  
G23  25062636.825    25062636.716    25062637.852                     4406956.617 7   4406956.623 6                   3433988.257 6        65.000          25.000          14.000                  
G24  23454140.043    23454139.380    23454142.823                    -4314207.126 8  -4314207.125 7                  -3361722.981 8       153.000          58.000         359.000                  
G30  22294247.478    22294246.650    22294250.133                   -12854181.783 8 -12854181.780 8                 -10016245.890 8       269.000         166.000         464.000                  
> 2024 10 31 02 08 20.0000000  0 10
G02  25517932.258    25517927.874    25517931.565                     2312318.885 7   2312318.888 6                   1801824.198 6        69.000          19.000          20.000                  
G13  19231869.756    19231869.392    19231869.469                   -25935650.591 9 -25935650.592 8                 -20209599.406 9       774.000         363.000         918.000                  
G14  20645648.416    20645648.091    20645648.786                   -21548192.849 9 -21548192.842 8                 -16790770.877 8       572.000         443.000         409.000                  
G15  20437747.428    20437747.256    20437747.568                   -20799740.821 9 -20799740.821 9                 -16207591.217 9       594.000         787.000         982.000                  
G17  20192420.666    20192420.312    20192420.681                   -23660998.286 9 -23660998.289 9                 -18437141.363 9       672.000         962.000        1806.000                  
G19  21232332.481    21232330.932    21232331.030                   -14885792.235 9 -14885792.236 8                 -11599320.387 8       502.000         241.000         334.000                  
G22  19948793.730    19948792.824    19948792.763                   -24377920.643 9 -24377920.645 8                 -18995783.711 9       803.000         489.000         615.000                  
G23  25123984.942    25123985.925    25123988.089                     4729345.322 7   4729345.349 6                   3685199.980 6        62.000          23.000          21.000                  
G24  23496023.634    23496022.938    23496026.210                    -4094108.380 8  -4094108.393 7                  -3190217.547 8       148.000          60.000         337.000                  
G30  22277979.458    22277979.016    22277982.503                   -12939669.914 8 -12939669.914 8                 -10082860.044 8       268.000         171.000         471.000                  
> 2024 10 31 02 08 30.0000000  0 10
G02  25548522.228    25548517.991    25548520.160                     2473070.250 7   2473070.221 6                   1927084.907 6        72.000          27.000          15.000                  
G13  19224721.357    19224720.857    19224720.834                   -25973216.687 9 -25973216.686 8                 -20238871.709 9       788.000         375.000         911.000                  
G14  20678422.696    20678422.391    20678422.976                   -21375962.955 9 -21375962.948 8                 -16656565.801 8       571.000         431.000         402.000                  
G15  20461999.251    20461999.078    20461999.490                   -20672296.923 9 -20672296.925 9                 -16108284.317 9       592.000         784.000         987.000                  
G17  20168594.941    20168594.503    20168594.896                   -23786203.461 9 -23786203.463 9                 -18534703.851 9       657.000         931.000        1818.000                  
G19  21172727.259    21172725.653    21172725.455                   -15199020.862 9 -15199020.863 8                 -11843394.639 8       511.000         263.000         357.000                  
G22  19974508.592    19974507.544    19974507.505                   -24242788.346 9 -24242788.347 8                 -18890485.845 9       800.000         490.000         603.000                  
G23  25185310.311    25185310.545    25185310.682                     5051606.294 7   5051606.290 6                   3936312.271 6        61.000          23.000          17.000                  
G24  23538211.671    23538211.669    23538215.165                    -3872404.339 8  -3872404.333 7                  -3017461.239 8       145.000          53.000         334.000                  
G30  22262178.621    22262177.746    22262181.063                   -13022706.492 8 -13022706.491 8                 -10147563.899 8       268.000         180.000         472.000                  
> 2024 10 31 02 08 40.0000000  0 10
G02  25579536.173    25579531.744    25579534.199                     2636046.596 7   2636046.602 6                   2054079.373 6        73.000          25.000          22.000                  
G13  19218332.156    19218331.589    19218331.639                   -26006792.548 9 -26006792.548 8                 -20265034.736 9       806.000         383.000         910.000                  
G14  20712007.195    20712007.114    20712007.835                   -21199474.525 9 -21199474.517 8                 -16519042.388 8       568.000         436.000         393.000                  
G15  20486795.804    20486795.482    20486795.914                   -20541991.102 9 -20541991.104 9                 -16006747.346 9       585.000         776.000        1010.000                  
G17  20145866.938    20145866.645    20145866.999                   -23905639.421 9 -23905639.424 9                 -18627770.846 9       657.000         916.000        1828.000                  
G19  21113896.415    21113894.881    21113894.500                   -15508179.138 9 -15508179.136 8                 -12084297.186 8       519.000         260.000         371.000                  
G22  20001255.339    20001254.371    20001254.412                   -24102233.249 9 -24102233.251 8                 -18780962.422 9       798.000         495.000         600.000                  
G23  25246613.222    25246611.924    25246613.741                     5373747.929 7   5373747.971 6                   4187329.467 6        55.000          26.000          15.000                  
G24  23580709.526    23580709.116    23580712.527                    -3649078.255 8  -3649078.259 6                  -2843441.000 8       144.000          49.000         307.000                  
G30  22246852.291    22246851.287    22246854.704                   -13103247.677 8 -13103247.677 8                 -10210323.302 8       277.000         182.000         465.000                  
> 2024 10 31 02 08 50.0000000  0  9
G02  25610964.204    25610960.633    25610964.053                     2801208.744 7   2801208.752 6                   2182777.157 6        75.000          24.000          19.000                  
G13  19212701.569    19212701.138    19212701.214                   -26036380.565 9 -26036380.566 8                 -20288090.353 9       808.000         374.000         915.000                  
G14  20746391.392    20746391.093    20746391.770                   -21018785.204 9 -21018785.196 8                 -16378245.550 8       555.000         417.000         379.000                  
G15  20512131.199    20512130.961    20512131.475                   -20408852.222 9 -20408852.223 9                 -15903002.797 9       582.000         761.000        1024.000                  
G17  20124241.261    20124240.705    20124241.086                   -24019284.102 9 -24019284.103 9                 -18716325.157 9       661.000         941.000        1851.000                  
G19  21055851.978    21055850.353    21055850.168                   -15813204.578 9 -15813204.579 8                 -12321979.341 8       533.000         266.000         389.000                  
G22  20029024.497    20029023.473    20029023.407                   -23956305.716 9 -23956305.717 8                 -18667252.683 9       802.000         488.000         595.000                  
G24  23623509.841    23623509.404    23623512.786                    -3424162.962 8  -3424162.974 6                  -2668182.423 8       140.000          49.000         302.000                  
G30  22231999.168    22231998.622    22232001.994                   -13181299.374 8 -13181299.372 8                 -10271142.845 8       277.000         191.000         456.000                  
> 2024 10 31 02 09  0.0000000  0  9
G02  25642802.719    25642796.902    25642799.538                     2968508.900 7   2968508.899 6                   2313140.686 6        78.000          22.000          21.000                  
G13  19207827.775    19207827.446    19207827.487                   -26061992.440 9 -26061992.440 8                 -20308047.680 9       809.000         390.000         925.000                  
G14  20781562.293    20781561.808    20781562.593                   -20833961.777 9 -20833961.769 8                 -16234227.334 8       552.000         408.000         355.000                  
G15  20537998.827    20537998.450    20537999.024                   -20272917.840 9 -20272917.841 9                 -15797079.944 9       577.000         752.000        1017.000                  
G17  20103719.699    20103719.272    20103719.690                   -24127125.439 9 -24127125.442 9                 -18800357.386 9       675.000         977.000        1916.000                  
G19  20998604.090    20998602.447    20998602.590                   -16114043.530 9 -16114043.532 8                 -12556399.298 8       539.000         277.000         415.000                  
G22  20057804.422    20057803.429    20057803.476                   -23805065.884 9 -23805065.886 8                 -18549403.492 9       796.000         487.000         592.000                  
G24  23666604.569    23666603.995    23666607.412                    -3197699.725 8  -3197699.737 7                  -2491717.657 8       138.000          57.000         305.000                  
G30  22217617.487    22217616.788    22217620.268                   -13256876.245 8 -13256876.243 8                 -10330033.950 8       284.000         192.000         454.000                  
> 2024 10 31 02 09 10.0000000  0  9
G02  25675043.426    25675040.388    25675042.159                     3137943.190 7   3137943.160 6                   2445167.195 6        82.000          22.000          18.000                  
G13  19203716.777    19203716.472    19203716.413                   -26083596.328 9 -26083596.327 8                 -20324881.901 9       808.000         388.000         979.000                  
G14  20817515.124    20817514.982    20817515.515                   -20645027.409 9 -20645027.400 8                 -16087005.785 8       544.000         404.000         330.000                  
G15  20564399.308    20564399.033    20564399.599                   -20134181.837 9 -20134181.838 9                 -15688974.015 9       568.000         727.000         981.000                  
G17  20084312.958    20084312.557    20084312.914                   -24229108.675 9 -24229108.678 9                 -18879824.859 9       691.000        1036.000        1950.000                  
G19  20942171.757    20942170.057    20942169.902                   -16410598.428 9 -16410598.430 8                 -12787481.034 8       543.000         289.000         440.000                  
G22  20087592.168    20087591.050    20087591.059                   -23648530.886 9 -23648530.886 8                 -18427428.196 9       792.000         484.000         581.000                  
G24  23709993.648    23709993.660    23709997.463                    -2969685.697 8  -2969685.696 6                  -2314044.483 8       138.000          48.000         309.000                  
G30  22203712.320    22203711.564    22203714.920                   -13329949.085 8 -13329949.084 8                 -10386973.868 8       284.000         195.000         451.000                  
> 2024 10 31 02 09 20.0000000  0 10
G02  25707685.616    25707681.147    25707684.118                     3309472.140 7   3309472.154 6                   2578826.047 6        82.000          25.000          23.000                  
G05  24737504.849    24737503.572    24737520.756                     -195901.306 7   -195901.291 6                   -152654.701 6        95.000          29.000          22.000                  
G13  19200367.640    19200367.194    19200367.363                   -26101196.449 9 -26101196.448 8                 -20338596.304 9       790.000         370.000        1030.000                  
G14  20854239.252    20854239.018    20854239.656                   -20452041.146 9 -20452041.138 8                 -15936626.918 8       532.000         373.000         302.000                  
G15  20591327.477    20591327.267    20591327.658                   -19992673.503 9 -19992673.504 9                 -15578707.827 9       557.000         700.000         912.000                  
G17  20066024.373    20066023.925    20066024.380                   -24325215.954 9 -24325215.957 9                 -18954713.665 9       706.000        1066.000        2014.000                  
G19  20886566.203    20886564.794    20886564.368                   -16702807.306 9 -16702807.307 8                 -13015176.260 8       554.000         302.000         441.000                  
G22  20118377.100    20118376.218    20118376.238                   -23486754.229 9 -23486754.230 8                 -18301368.494 9       791.000         479.000         580.000                  
G24  23753672.324    23753672.315    23753676.208                    -2740153.340 8  -2740153.329 6                  -2135188.196 8       134.000          44.000         301.000                  
G30  22190282.109    22190281.546    22190284.937                   -13400524.273 8 -13400524.276 8                 -10441967.564 8       290.000         198.000         443.000                  
> 2024 10 31 02 09 30.0000000  0 10
G02  25740718.253    25740713.691    25740716.195                     3483059.757 7   3483059.770 6                   2714089.013 6        83.000          22.000          25.000                  
G05  24707297.064    24707296.546    24707298.645                     -354639.777 7   -354639.775 6                   -276344.191 7        99.000          28.000          89.000                  
G13  19197780.131    19197779.778    19197779.788                   -26114793.803 9 -26114793.804 8                 -20349191.672 9       793.000         361.000        1067.000                  
G14  20891723.950    20891723.634    20891723.908                   -20255058.806 9 -20255058.799 8                 -15783134.226 8       527.000         369.000         284.000                  
G15  20618778.258    20618777.964    20618778.467                   -19848418.639 9 -19848418.639 9                 -15466301.485 9       534.000         641.000         878.000                  
G17  20048857.717    20048857.364    20048857.762                   -24415427.200 9 -24415427.203 9                 -19025008.165 9       718.000        1115.000        2059.000                  
G19  20831800.016    20831798.645    20831798.260                   -16990604.642 9 -16990604.643 8                 -13239433.920 8       569.000         313.000         466.000                  
G22  20150149.978    20150149.036    20150149.109                   -23319786.723 9 -23319786.723 8                 -18171263.976 9       789.000         473.000         573.000                  
G24  23797634.604    23797634.394    23797638.165                    -2509131.346 8  -2509131.344 6                  -1955171.167 8       129.000          45.000         298.000                  
G30  22177327.000    22177326.056    22177329.787                   -13468604.638 8 -13468604.636 8                 -10495017.245 8       288.000         197.000         434.000                  
> 2024 10 31 02 09 40.0000000  0 10
G02  25774139.361    25774135.265    25774137.937                     3658691.286 7   3658691.274 6                   2850944.581 6        81.000          22.000          25.000                  
G05  24677175.388    24677175.112    24677177.060                     -512930.336 8   -512930.340 6                   -399687.527 7       101.000          29.000          86.000                  
G13  19195958.087    19195957.855    19195957.772                   -26124368.741 9 -26124368.739 8                 -20356652.690 9       779.000         369.000        1088.000                  
G14  20929962.220    20929961.881    20929962.476                   -20054115.302 9 -20054115.295 8                 -15626554.919 8       511.000         355.000         281.000                  
G15  20646750.770    20646750.533    20646751.155                   -19701421.863 9 -19701421.863 9                 -15351758.591 9       513.000         612.000         858.000                  
G17  20032820.682    20032820.347    20032820.695                   -24499702.603 9 -24499702.605 9                 -19090677.331 9       726.000        1134.000        2085.000                  
G19  20777890.086    20777888.643    20777888.308                   -17273904.017 9 -17273904.018 8                 -13460186.676 8       584.000         328.000         478.000                  
G22  20182904.947    20182903.861    20182904.051                   -23147658.886 9 -23147658.887 8                 -18037138.420 9       783.000         478.000         553.000                  
G24  23841879.404    23841878.835    23841882.626                    -2276627.024 8  -2276627.013 6                  -1773999.077 8       128.000          50.000         289.000                  
G30  22164849.919    22164849.375    22164852.744                   -13534171.980 8 -13534171.979 8                 -10546108.716 8       288.000         202.000         433.000                  
> 2024 10 31 02 09 50.0000000  0 10
G02  25807939.551    25807935.857    25807939.448                     3836312.447 7   3836312.435 6                   2989350.596 6        80.000          26.000          16.000                  
G05  24647137.310    24647136.858    24647138.986                     -670779.649 8   -670779.633 6                   -522687.024 7       103.000          33.000          95.000                  
G13  19194897.587    19194897.093    19194897.242                   -26129941.810 9 -26129941.810 8                 -20360995.363 9       778.000         354.000        1105.000                  
G14  20968939.857    20968939.671    20968940.286                   -19849285.420 8 -19849285.414 8                 -15466947.266 8       497.000         335.000         269.000                  
G15  20675236.535    20675236.566    20675237.059                   -19551727.226 9 -19551727.228 9                 -15235113.471 9       515.000         598.000         836.000                  
G17  20017913.113    20017912.565    20017912.975                   -24578043.181 9 -24578043.184 9                 -19151721.964 9       732.000        1144.000        2120.000                  
G19  20724845.081    20724843.320    20724842.965                   -17552658.688 9 -17552658.688 8                 -13677398.102 8       590.000         335.000         486.000                  
G22  20216628.202    20216627.225    20216627.407                   -22970441.607 9 -22970441.609 8                 -17899047.064 9       773.000         463.000         540.000                  
G24  23886395.673    23886395.793    23886399.887                    -2042687.033 8  -2042687.019 6                  -1591708.287 8       122.000          42.000         282.000                  
G30  22152846.817    22152846.389    22152849.838                   -13597247.680 8 -13597247.677 8                 -10595258.652 8       289.000         210.000         442.000                  
> 2024 10 31 02 10  0.0000000  0 10
G02  25842116.559    25842114.085    25842117.515                     4015920.736 7   4015920.739 6                   3129304.948 6        80.000          22.000          19.000                  
G05  24617191.974    24617192.353    24617193.903                     -828142.169 8   -828142.176 6                   -645307.209 7       106.000          32.000          90.000                  
G13  19194604.450    19194604.065    19194604.306                   -26131482.049 9 -26131482.051 8                 -20362195.574 9       786.000         362.000        1109.000                  
G14  21008652.862    21008652.625    21008653.197                   -19640592.287 8 -19640592.278 8                 -15304329.293 8       479.000         302.000         264.000                  
G15  20704237.842    20704237.437    20704237.948                   -19399327.045 9 -19399327.046 9                 -15116360.135 9       512.000         591.000         810.000                  
G17  20004143.987    20004143.544    20004144.049                   -24650399.775 9 -24650399.777 9                 -19208103.755 9       734.000        1155.000        2120.000                  
G19  20672683.156    20672681.488    20672681.282                   -17826770.320 9 -17826770.323 8                 -13890991.576 8       595.000         338.000         489.000                  
G22  20251316.278    20251315.148    20251315.446                   -22788154.677 9 -22788154.677 8                 -17757005.334 9       763.000         449.000         516.000                  
G24  23931187.364    23931187.302    23931191.400                    -1807305.950 8  -1807305.930 6                  -1408294.585 8       119.000          37.000         257.000                  
G30  22141324.219    22141323.438    22141326.897                   -13657801.402 8 -13657801.401 8                 -10642443.415 8       294.000         205.000         449.000                  
> 2024 10 31 02 10 10.0000000  0 10
G02  25876663.486    25876660.424    25876663.501                     4197460.323 7   4197460.356 6                   3270764.117 6        74.000          23.000          19.000                  
G05  24587339.180    24587338.322    24587339.955                     -985025.484 8   -985025.475 6                   -767553.996 8       110.000          33.000         106.000                  
G13  19195074.616    19195074.008    19195074.191                   -26129012.512 9 -26129012.513 8                 -20360271.285 9       791.000         371.000        1092.000                  
G14  21049086.638    21049086.125    21049086.818                   -19428112.659 8 -19428112.649 8                 -15138760.804 8       474.000         305.000         265.000                  
G15  20733744.559    20733744.294    20733745.057                   -19244267.046 9 -19244267.046 9                 -14995534.209 9       503.000         570.000         799.000                  
G17  19991512.543    19991512.172    19991512.733                   -24716777.988 9 -24716777.990 9                 -19259827.063 9       724.000        1136.000        2137.000                  
G19  20621413.518    20621411.880    20621411.744                   -18096194.337 9 -18096194.338 8                 -14100932.365 9       607.000         351.000         516.000                  
G22  20286955.099    20286953.980    20286954.168                   -22600872.108 9 -22600872.107 8                 -17611070.898 9       755.000         434.000         501.000                  
G24  23976245.530    23976244.337    23976248.383                    -1570531.542 8  -1570531.558 6                  -1223795.171 8       120.000          41.000         252.000                  
G30  22130276.861    22130275.989    22130279.446                   -13715856.195 8 -13715856.197 8                 -10687680.956 8       288.000         205.000         460.000                  
> 2024 10 31 02 10 20.0000000  0 10
G02  25911577.066    25911572.970    25911578.127                     4380924.601 7   4380924.591 6                   3413727.702 6        74.000          21.000          17.000                  
G05  24557583.988    24557583.574    24557585.700                    -1141387.514 8  -1141387.512 6                   -889394.585 8       109.000          35.000         112.000                  
G13  19196312.410    19196311.853    19196312.097                   -26122507.599 9 -26122507.598 8                 -20355202.548 9       793.000         373.000        1064.000                  
G14  21090235.216    21090234.933    21090235.905                   -19211874.328 8 -19211874.321 8                 -14970263.454 8       471.000         291.000         271.000                  
G15  20763758.325    20763758.061    20763758.873                   -19086543.832 8 -19086543.832 9                 -14872633.053 9       494.000         550.000         797.000                  
G17  19980026.982    19980026.516    19980027.070                   -24777135.656 9 -24777135.659 9                 -19306859.033 9       733.000        1153.000        2117.000                  
G19  20571053.450    20571051.883    20571051.885                   -18360837.365 9 -18360837.366 8                 -14307147.714 9       619.000         370.000         535.000                  
G22  20323539.560    20323538.581    20323538.630                   -22408619.370 9 -22408619.370 8                 -17461263.607 8       749.000         433.000         490.000                  
G24  24021566.531    24021566.412    24021570.356                    -1332362.229 8  -1332362.231 6                  -1038208.824 8       117.000          35.000         229.000                  
G30  22119709.479    22119708.938    22119712.564                   -13771386.147 8 -13771386.148 8                 -10730951.095 8       288.000         199.000         475.000                  
> 2024 10 31 02 10 30.0000000  0 10
G02  25946841.816    25946839.105    25946841.537                     4566248.691 7   4566248.679 6                   3558139.330 6        69.000          24.000          23.000                  
G05  24527925.742    24527924.802    24527927.507                    -1297243.721 8  -1297243.734 6                  -1010841.040 8       108.000          34.000         112.000                  
G13  19198311.787    19198311.368    19198311.546                   -26112000.246 9 -26112000.246 8                 -20347015.027 9       804.000         388.000        1034.000                  
G14  21132083.259    21132082.719    21132083.758                   -18991963.431 8 -18991963.426 8                 -14798904.363 8       456.000         284.000         270.000                  
G15  20794268.530    20794268.320    20794269.153                   -18926212.057 8 -18926212.058 9                 -14747699.252 9       491.000         530.000         791.000                  
G17  19969683.698    19969683.230    19969683.705                   -24831490.252 9 -24831490.255 9                 -19349213.287 9       737.000        1173.000        2113.000                  
G19  20521610.095    20521608.556    20521608.407                   -18620664.410 9 -18620664.412 8                 -14509610.361 9       628.000         380.000         554.000                  
G22  20361053.696    20361052.659    20361053.061                   -22211480.784 9 -22211480.784 8                 -17307649.160 8       751.000         433.000         480.000                  
G24  24067143.576    24067143.519    24067147.585                    -1092854.341 8  -1092854.328 6                   -851579.435 8       115.000          34.000         218.000                  
G30  22109617.134    22109616.146    22109619.988                   -13824423.531 8 -13824423.531 8                 -10772278.987 8       287.000         199.000         488.000                  
> 2024 10 31 02 10 40.0000000  0 10
G02  25982462.319    25982459.194    25982463.220                     4753433.596 7   4753433.602 6                   3703997.560 6        66.000          18.000          22.000                  
G05  24498370.793    24498372.526    24498374.742                    -1452543.660 8  -1452543.677 6                  -1131854.045 8       112.000          36.000         122.000                  
G13  19201079.184    19201078.714    19201078.924                   -26097458.200 9 -26097458.200 8                 -20335683.591 9       815.000         386.000         999.000                  
G14  21174625.782    21174625.551    21174626.087                   -18768400.448 8 -18768400.442 8                 -14624699.494 8       443.000         259.000         274.000                  
G15  20825277.073    20825276.902    20825277.813                   -18763260.585 8 -18763260.587 9                 -14620724.134 9       480.000         524.000         779.000                  
G17  19960491.522    19960491.119    19960491.642                   -24879795.062 9 -24879795.064 9                 -19386853.435 9       742.000        1189.000        2097.000                  
G19  20473102.097    20473100.606    20473100.529                   -18875575.133 9 -18875575.135 8                 -14708242.107 9       642.000         398.000         558.000                  
G22  20399494.177    20399493.089    20399493.303                   -22009475.641 9 -22009475.640 8                 -17150242.593 8       751.000         436.000         484.000                  
G24  24112977.771    24112977.509    24112980.716                     -851998.174 8   -851998.170 6                   -663899.456 8       111.000          42.000         203.000                  
G30  22100005.209    22100004.299    22100008.055                   -13874934.848 8 -13874934.849 8                 -10811638.516 9       282.000         190.000         509.000                  
> 2024 10 31 02 10 50.0000000  0 10
G02  26018425.533    26018422.861    26018426.166                     4942421.526 7   4942421.524 6                   3851260.496 6        60.000          23.000          20.000                  
G05  24468926.119    24468924.165    24468926.727                    -1607295.347 8  -1607295.368 6                  -1252439.808 8       114.000          33.000         128.000                  
G13  19204609.099    19204608.576    19204608.720                   -26078908.716 9 -26078908.717 8                 -20321229.481 9       815.000         399.000         952.000                  
G14  21217848.285    21217847.797    21217848.682                   -18541264.913 8 -18541264.907 8                 -14447710.821 8       426.000         237.000         285.000                  
G15  20856775.269    20856774.963    20856775.972                   -18597737.149 8 -18597737.150 9                 -14491744.889 9       477.000         512.000         759.000                  
G17  19952448.152    19952447.744    19952448.219                   -24922063.791 9 -24922063.794 9                 -19419790.144 9       760.000        1233.000        2077.000                  
G19  20425537.659    20425536.101    20425535.807                   -19125528.653 9 -19125528.654 8                 -14903011.092 9       655.000         410.000         570.000                  
G22  20438845.313    20438844.542    20438844.870                   -21802682.729 9 -21802682.730 8                 -16989105.298 8       750.000         436.000         474.000                  
G24  24159058.675    24159057.949    24159061.430                     -609842.777 8   -609842.781 6                   -475207.099 8       110.000          30.000         186.000                  
G30  22090868.718    22090868.279    22090871.871                   -13922945.684 8 -13922945.681 8                 -10849049.611 9       280.000         197.000         537.000                  
> 2024 10 31 02 11  0.0000000  0 10
G02  26054729.947    26054726.291    26054729.588                     5133194.944 7   5133194.962 6                   3999906.646 6        58.000          18.000          18.000                  
G05  24439587.541    24439586.538    24439588.821                    -1761465.642 8  -1761465.639 6                  -1372572.509 8       116.000          43.000         124.000                  
G13  19208904.046    19208903.606    19208903.686                   -26056338.767 9 -26056338.765 8                 -20303642.538 9       822.000         395.000         925.000                  
G14  21261742.919    21261742.833    21261743.884                   -18310595.713 8 -18310595.708 8                 -14267968.642 8       409.000         225.000         303.000                  
G15  20888761.542    20888761.199    20888762.156                   -18429648.868 8 -18429648.868 9                 -14360767.062 9       477.000         516.000         732.000                  
G17  19945558.108    19945557.748    19945558.236                   -24958271.048 9 -24958271.050 9                 -19448003.619 9       768.000        1248.000        2080.000                  
G19  20378931.621    20378930.294    20378930.090                   -19370443.931 9 -19370443.931 8                 -15093854.171 9       665.000         420.000         597.000                  
G22  20479100.720    20479099.713    20479099.950                   -21591140.535 9 -21591140.537 8                 -16824267.261 8       744.000         427.000         456.000                  
G24  24205383.231    24205383.758    24205387.875                     -366396.205 8   -366396.214 6                   -285508.639 8       107.000          36.000         180.000                  
G30  22082211.240    22082210.732    22082214.661                   -13968440.965 8 -13968440.962 8                 -10884500.527 9       282.000         195.000         564.000                  
> 2024 10 31 02 11 10.0000000  0 11
G02  26091365.833    26091363.647    26091364.446                     5325720.736 7   5325720.765 6                   4149913.860 6        56.000          19.000          17.000                  
G05  24410362.918    24410362.992    24410365.055                    -1915038.057 8  -1915038.037 6                  -1492239.276 8       116.000          39.000         124.000                  
G12  25031220.802    25031219.890    25031245.691                     -158656.186 7   -158656.178 6                   -123632.819 6        97.000          30.000          19.000                  
G13  19213963.171    19213962.771    19213962.866                   -26029752.664 9 -26029752.666 8                 -20282926.122 9       808.000         389.000         917.000                  
G14  21306299.886    21306299.535    21306300.750                   -18076448.842 8 -18076448.838 8                 -14085516.592 8       395.000         215.000         305.000                  
G15  20921231.337    20921230.967    20921231.749                   -18259019.731 8 -18259019.731 9                 -14227809.349 9       477.000         510.000         728.000                  
G17  19939822.904    19939822.593    19939822.959                   -24988410.050 9 -24988410.053 9                 -19471488.579 9       780.000        1301.000        2040.000                  
G19  20333296.629    20333295.260    20333295.071                   -19610257.478 9 -19610257.479 8                 -15280721.878 9       675.000         433.000         609.000                  
G22  20520248.717    20520247.805    20520248.318                   -21374905.367 9 -21374905.368 8                 -16655772.362 8       728.000         417.000         445.000                  
G24  24251952.365    24251951.594    24251955.536                     -121683.326 8   -121683.296 6                    -94823.452 8       111.000          30.000         164.000                  
G30  22074032.289    22074031.657    22074035.652                   -14011422.767 8 -14011422.765 8                 -10917992.889 9       287.000         196.000         588.000                  
> 2024 10 31 02 11 20.0000000  0 11
G02  26128326.528    26128323.977    26128324.645                     5519950.271 7   5519950.280 6                   4301260.282 6        55.000          23.000          16.000                  
G05  24381254.004    24381252.768    24381255.520                    -2068009.999 8  -2068010.017 6                  -1611438.151 8       122.000          33.000         132.000                  
G12  25009175.579    25009174.402    25009176.607                     -274502.029 8   -274502.019 6                   -213901.123 6       101.000          28.000          48.000                  
G13  19219782.873    19219782.464    19219782.610                   -25999169.730 9 -25999169.729 8                 -20259095.294 9       808.000         378.000         925.000                  
G14  21351505.037    21351504.594    21351505.790                   -17838894.416 8 -17838894.409 8                 -13900409.306 8       384.000         203.000         291.000                  
G15  20954177.351    20954176.926    20954177.747                   -18085887.732 8 -18085887.732 9                 -14092901.349 9       480.000         503.000         717.000                  
G17  19935240.713    19935240.449    19935240.890                   -25012489.450 9 -25012489.451 9                 -19490251.777 9       775.000        1292.000        2066.000                  
G19  20288641.828    20288640.293    20288640.311                   -19844920.427 9 -19844920.427 8                 -15463576.142 9       675.000         436.000         633.000                  
G22  20562276.566    20562275.590    20562276.088                   -21154047.966 9 -21154047.966 8                 -16483675.726 8       722.000         399.000         421.000                  
G24  24298754.310    24298753.136    24298756.546                      124257.162 8    124257.145 6                     96818.308 8       108.000          33.000         155.000                  
G30  22066328.438    22066327.829    22066331.644                   -14051907.303 8 -14051907.303 8                 -10949539.339 9       288.000         208.000         616.000                  
> 2024 10 31 02 11 30.0000000  0 11
G02  26165612.734    26165608.431    26165608.581                     5715879.293 7   5715879.264 6                   4453932.344 6        56.000          22.000          18.000                  
G05  24352267.872    24352266.539    24352268.861                    -2220335.243 8  -2220335.245 6                  -1730133.117 8       122.000          42.000         142.000                  
G12  24987513.990    24987512.403    24987514.510                     -388336.885 8   -388336.886 6                   -302603.604 6       102.000          38.000          41.000                  
G13  19226367.844    19226367.224    19226367.460                   -25964566.356 9 -25964566.354 8                 -20232131.662 9       804.000         382.000         935.000                  
G14  21397353.328    21397353.077    21397354.287                   -17597959.427 8 -17597959.418 8                 -13712667.816 8       368.000         187.000         282.000                  
G15  20987600.424    20987600.311    20987600.957                   -17910247.731 8 -17910247.731 9                 -13956039.062 9       472.000         505.000         722.000                  
G17  19931818.096    19931817.637    19931818.104                   -25030476.450 9 -25030476.453 9                 -19504267.657 9       768.000        1270.000        2080.000                  
G19  20244984.508    20244983.152    20244982.903                   -20074341.404 9 -20074341.408 8                 -15642345.763 9       684.000         453.000         654.000                  
G22  20605178.655    20605177.711    20605178.046                   -20928596.421 9 -20928596.422 8                 -16307999.240 8       717.000         393.000         394.000                  
G24  24345788.727    24345788.119    24345792.742                      371429.910 8    371429.892 6                    289420.258 8       110.000          34.000         149.000                  
G30  22059105.174    22059104.184    22059108.047                   -14089867.722 8 -14089867.725 8                 -10979118.951 9       289.000         204.000         637.000                  
> 2024 10 31 02 11 40.0000000  0 10
G05  24323400.243    24323400.148    24323401.954                    -2372030.936 8  -2372030.935 6                  -1848337.535 8       128.000          44.000         143.000                  
G12  24966232.665    24966231.756    24966234.400                     -500168.036 8   -500168.036 6                   -389744.805 6       105.000          37.000          40.000                  
G13  19233709.880    19233709.332    19233709.611                   -25925983.375 9 -25925983.375 8                 -20202067.036 9       801.000         375.000         950.000                  
G14  21443827.554    21443827.305    21443828.709                   -17353734.753 8 -17353734.748 8                 -13522362.947 8       355.000         174.000         282.000                  
G15  21021489.964    21021489.425    21021490.362                   -17732158.500 8 -17732158.499 8                 -13817268.281 9       456.000         465.000         738.000                  
G17  19929548.303    19929547.935    19929548.468                   -25042403.689 9 -25042403.691 9                 -19513561.655 9       756.000        1232.000        2049.000                  
G19  20202329.790    20202328.219    20202328.321                   -20298493.638 9 -20298493.641 8                 -15817009.867 9       687.000         440.000         678.000                  
G22  20648937.375    20648936.371    20648936.764                   -20698643.099 9 -20698643.100 8                 -16128814.883 8       705.000         386.000         374.000                  
G24  24393048.186    24393047.205    24393051.361                      619775.996 8    619776.002 6                    482936.497 8       105.000          35.000         141.000                  
G30  22052354.690    22052353.890    22052357.820                   -14125341.088 8 -14125341.088 8                 -11006760.586 9       295.000         206.000         641.000                  
> 2024 10 31 02 11 50.0000000  0 10
G05  24294662.325    24294661.669    24294663.798                    -2523049.934 8  -2523049.935 6                  -1966014.686 8       130.000          48.000         148.000                  
G12  24945344.021    24945342.780    24945345.802                     -609938.945 8   -609938.942 6                   -475280.589 6       103.000          28.000          45.000                  
G13  19241813.628    19241813.096    19241813.322                   -25883398.327 9 -25883398.328 8                 -20168883.915 9       794.000         369.000         989.000                  
G14  21490922.999    21490922.831    21490923.966                   -17106247.412 8 -17106247.405 8                 -13329515.741 8       351.000         169.000         283.000                  
G15  21055845.769    21055845.794    21055846.710                   -17551614.766 8 -17551614.767 8                 -13676584.907 9       433.000         421.000         759.000                  
G17  19928437.489    19928437.084    19928437.659                   -25048241.307 9 -25048241.310 9                 -19518110.490 9       754.000        1210.000        2029.000                  
G19  20160694.808    20160693.215    20160693.238                   -20517287.179 9 -20517287.181 8                 -15987498.358 9       695.000         471.000         696.000                  
G22  20693547.224    20693546.184    20693546.541                   -20464217.012 9 -20464217.011 8                 -15946145.256 8       697.000         374.000         357.000                  
G24  24440530.694    24440530.233    24440534.568                      869300.493 8    869300.508 6                    677370.969 8       104.000          35.000         134.000                  
G30  22046082.557    22046081.863    22046085.772                   -14158300.813 8 -14158300.811 8                 -11032443.533 9       298.000         219.000         641.000                  
> 2024 10 31 02 12  0.0000000  0 10
G05  24266052.474    24266052.117    24266054.312                    -2673395.075 8  -2673395.064 6                  -2083166.760 8       131.000          45.000         149.000                  
G12  24924847.483    24924847.172    24924849.886                     -717642.954 8   -717642.946 6                   -559205.829 6       101.000          30.000          50.000                  
G13  19250673.508    19250672.881    19250673.253                   -25836839.050 9 -25836839.050 8                 -20132603.994 9       811.000         385.000        1009.000                  
G14  21538624.687    21538624.435    21538625.594                   -16855574.242 8 -16855574.236 8                 -13134186.080 8       349.000         161.000         282.000                  
G15  21090660.934    21090660.804    21090661.720                   -17368661.091 8 -17368661.092 8                 -13534023.666 9       418.000         395.000         778.000                  
G17  19928481.358    19928480.879    19928481.454                   -25048011.421 9 -25048011.423 9                 -19517931.398 9       749.000        1214.000        2010.000                  
G19  20120086.861    20120085.467    20120085.444                   -20730682.827 9 -20730682.828 8                 -16153780.698 9       706.000         475.000         709.000                  
G22  20738993.162    20738992.165    20738992.462                   -20225397.417 9 -20225397.417 8                 -15760052.122 8       696.000         371.000         325.000                  
G24  24488229.088    24488228.968    24488233.314                     1119958.912 7   1119958.929 6                    872689.014 8        97.000          31.000         125.000                  
G30  22040284.678    22040283.849    22040287.635                   -14188770.247 8 -14188770.245 8                 -11056185.999 9       296.000         211.000         651.000                  
> 2024 10 31 02 12 10.0000000  0 11
G05  24237578.810    24237578.328    24237580.606                    -2823024.967 8  -2823024.965 7                  -2199761.502 8       134.000          54.000         150.000                  
G06  24685431.988    24685427.892    24685437.094                     -574900.274 7   -574900.252 6                   -447978.135 6        86.000          29.000          29.000                  
G12  24904755.259    24904754.467    24904757.094                     -823229.995 8   -823229.986 6                   -641481.507 6       101.000          32.000          45.000                  
G13  19260292.520    19260292.124    19260292.427                   -25786290.451 9 -25786290.451 8                 -20093215.514 9       818.000         397.000        1013.000                  
G14  21586926.363    21586925.980    21586927.211                   -16601748.578 8 -16601748.572 8                 -12936399.926 8       346.000         162.000         271.000                  
G15  21125934.426    21125934.320    21125935.112                   -17183298.433 8 -17183298.433 8                 -13389585.297 9       405.000         363.000         773.000                  
G17  19929683.544    19929682.967    19929683.600                   -25041694.012 9 -25041694.014 9                 -19513008.777 9       746.000        1201.000        1959.000                  
G19  20080521.817    20080520.378    20080520.276                   -20938598.772 9 -20938598.773 8                 -16315793.143 9       719.000         494.000         708.000                  
G22  20785268.260    20785267.382    20785267.498                   -19982220.455 9 -19982220.454 8                 -15570563.641 8       690.000         371.000         320.000                  
G24  24536143.855    24536143.461    24536147.795                     1371750.392 8   1371750.403 6                   1068889.951 8       103.000          34.000         119.000                  
G30  22034964.104    22034963.286    22034967.307                   -14216729.366 8 -14216729.365 8                 -11077972.377 9       295.000         217.000         653.000                  
> 2024 10 31 02 12 20.0000000  0 12
G05  24209240.210    24209240.262    24209242.360                    -2971945.404 8  -2971945.410 6                  -2315803.418 8       134.000          44.000         161.000                  
G06  24611796.387    24611795.650    24611800.287                     -961859.411 7   -961859.408 6                   -749503.914 6        85.000          29.000          33.000                  
G07  24562436.011    24562436.668    24562456.055                     -146163.048 7   -146163.036 6                   -113896.061 6        91.000          23.000          21.000                  
G12  24885066.427    24885065.721    24885068.398                     -926697.688 7   -926697.694 6                   -722105.734 7       100.000          26.000          51.000                  
G13  19270664.603    19270664.075    19270664.425                   -25731785.653 9 -25731785.654 8                 -20050744.283 9       834.000         410.000        1043.000                  
G14  21635812.314    21635811.806    21635813.003                   -16344851.274 8 -16344851.267 8                 -12736220.289 8       344.000         161.000         280.000                  
G15  21161656.834    21161656.667    21161657.597                   -16995575.439 8 -16995575.441 8                 -13243307.704 9       381.000         326.000         788.000                  
G17  19932038.531    19932038.127    19932038.708                   -25029318.128 9 -25029318.130 9                 -19503365.269 9       747.000        1202.000        1957.000                  
G19  20042006.028    20042004.484    20042004.329                   -21141001.684 9 -21141001.687 9                 -16473509.716 9       729.000         501.000         720.000                  
G22  20832356.686    20832355.513    20832355.873                   -19734770.162 9 -19734770.163 8                 -15377745.293 8       675.000         347.000         308.000                  
G24  24584266.457    24584264.501    24584268.839                     1624626.754 7   1624626.756 6                   1265936.231 8        90.000          31.000         105.000                  
G30  22030116.461    22030115.390    22030119.293                   -14242205.855 8 -14242205.854 8                 -11097824.241 9       302.000         218.000         660.000                  
> 2024 10 31 02 12 30.0000000  0 12
G05  24181044.470    24181044.330    24181046.284                    -3120116.049 8  -3120116.044 6                  -2431261.088 8       136.000          48.000         160.000                  
G06  24538342.831    24538341.807    24538346.598                    -1347863.776 7  -1347863.761 6                  -1050286.388 6        78.000          31.000          32.000                  
G07  24536969.755    24536970.624    24536972.208                     -279986.594 7   -279986.571 6                   -218172.305 6        93.000          27.000          39.000                  
G12  24865789.068    24865788.630    24865791.845                    -1027997.531 7  -1027997.523 6                   -801040.740 6        98.000          31.000          46.000                  
G13  19281791.836    19281791.274    19281791.664                   -25673311.968 9 -25673311.968 8                 -20005180.414 9       840.000         420.000        1048.000                  
G14  21685276.280    21685275.928    21685277.019                   -16084916.900 8 -16084916.894 8                 -12533674.100 8       341.000         165.000         278.000                  
G15  21197828.301    21197827.909    21197828.923                   -16805494.441 8 -16805494.442 8                 -13095192.709 9       364.000         303.000         791.000                  
G17  19935549.429    19935549.044    19935549.591                   -25010868.375 9 -25010868.378 9                 -19488988.879 9       748.000        1211.000        1908.000                  
G19  20004554.065    20004552.440    20004552.412                   -21337812.993 9 -21337812.996 9                 -16626869.196 9       728.000         515.000         726.000                  
G22  20880250.777    20880249.880    20880249.989                   -19483084.654 9 -19483084.655 8                 -15181626.781 8       665.000         343.000         302.000                  
G24  24632592.256    24632591.201    24632596.336                     1878586.184 7   1878586.194 6                   1463826.462 8        89.000          27.000         103.000                  
G30  22025744.350    22025743.439    22025747.315                   -14265181.320 8 -14265181.319 8                 -11115727.253 9       301.000         230.000         657.000                  
> 2024 10 31 02 12 40.0000000  0 12
G05  24152993.591    24152992.500    24152994.773                    -3267527.046 8  -3267527.051 6                  -2546126.831 8       138.000          50.000         164.000                  
G06  24465078.807    24465078.290    24465081.594                    -1732868.173 7  -1732868.185 6                  -1350289.651 6        76.000          28.000          26.000                  
G07  24511650.538    24511649.057    24511651.330                     -413048.372 7   -413048.365 6                   -321856.823 6        95.000          30.000          49.000                  
G12  24846929.333    24846927.432    24846930.744                    -1127112.030 8  -1127112.030 6                   -878272.881 6       102.000          30.000          43.000                  
G13  19293670.682    19293670.130    19293670.509                   -25610888.346 9 -25610888.347 8                 -19956538.677 9       839.000         415.000        1003.000                  
G14  21735305.716    21735305.279    21735306.565                   -15822010.911 8 -15822010.906 8                 -12328812.367 8       350.000         160.000         290.000                  
G15  21234441.610    21234441.532    21234442.636                   -16613088.697 8 -16613088.698 8                 -12945266.231 9       353.000         284.000         789.000                  
G17  19940213.005    19940212.585    19940213.004                   -24986361.901 9 -24986361.903 9                 -19469892.966 9       756.000        1241.000        1852.000                  
G19  19968174.944    19968173.489    19968173.456                   -21528986.023 9 -21528986.025 9                 -16775835.210 9       731.000         513.000         743.000                  
G22  20928937.638    20928936.686    20928937.034                   -19227233.426 9 -19227233.427 8                 -14982262.254 8       645.000         329.000         289.000                  
G24  24681117.408    24681118.374    24681122.661                     2133596.183 7   2133596.174 6                   1662535.295 7        86.000          23.000         100.000                  
G30  22021845.387    22021845.066    22021848.754                   -14285668.430 8 -14285668.432 8                 -11131691.294 9       305.000         230.000         651.000                  
> 2024 10 31 02 12 50.0000000  0 12
G05  24125085.231    24125086.175    24125088.329                    -3414176.369 8  -3414176.364 7                  -2660399.050 8       136.000          53.000         169.000                  
G06  24392010.269    24392011.562    24392014.982                    -2116835.081 7  -2116835.069 6                  -1649484.485 6        74.000          26.000          34.000                  
G07  24486471.770    24486471.494    24486473.609                     -545358.551 7   -545358.555 6                   -424955.703 6        98.000          31.000          40.000                  
G12  24828485.561    24828484.682    24828487.267                    -1224032.214 7  -1224032.206 6                   -953795.176 6        97.000          32.000          43.000                  
G13  19306295.827    19306295.422    19306295.813                   -25544542.391 9 -25544542.391 8                 -19904840.573 9       838.000         412.000         965.000                  
G14  21785886.568    21785886.099    21785887.276                   -15556206.984 8 -15556206.975 8                 -12121692.496 8       343.000         158.000         295.000                  
G15  21271489.862    21271489.656    21271490.774                   -16418399.667 8 -16418399.668 8                 -12793560.572 9       332.000         255.000         784.000                  
G17  19946023.792    19946023.447    19946023.840                   -24955825.714 9 -24955825.716 9                 -19446098.571 9       762.000        1246.000        1843.000                  
G19  19932876.062    19932874.448    19932874.541                   -21714483.434 9 -21714483.436 9                 -16920378.658 9       741.000         530.000         744.000                  
G22  20978402.435    20978401.331    20978401.786                   -18967294.470 9 -18967294.468 8                 -14779712.481 8       628.000         302.000         291.000                  
G24  24729838.704    24729837.685    24729842.393                     2389616.117 7   2389616.118 6                   1862031.077 7        79.000          28.000          98.000                  
G30  22018416.624    22018415.686    22018419.709                   -14303688.352 8 -14303688.351 8                 -11145732.842 9       306.000         220.000         654.000                  
> 2024 10 31 02 13  0.0000000  0 12
G05  24097336.289    24097335.712    24097337.865                    -3560006.494 8  -3560006.488 7                  -2774032.932 8       137.000          53.000         173.000                  
G06  24319158.744    24319160.355    24319164.648                    -2499671.246 7  -2499671.211 6                  -1947798.209 6        70.000          25.000          36.000                  
G07  24461444.080    24461446.048    24461448.169                     -676872.056 8   -676872.061 6                   -527433.776 6       102.000          29.000          50.000                  
G12  24810472.286    24810471.239    24810472.644                    -1318694.029 7  -1318694.036 6                  -1027557.707 6        98.000          33.000          44.000                  
G13  19319672.714    19319672.216    19319672.518                   -25474247.060 9 -25474247.061 8                 -19850065.034 9       838.000         418.000         930.000                  
G14  21837015.198    21837015.047    21837016.252                   -15287523.397 8 -15287523.390 8                 -11912328.734 8       341.000         154.000         305.000                  
G15  21308974.971    21308974.980    21308976.123                   -16221413.473 8 -16221413.470 8                 -12640064.915 9       324.000         249.000         783.000                  
G17  19952987.355    19952986.729    19952987.245                   -24919233.285 9 -24919233.288 9                 -19417585.026 9       757.000        1238.000        1878.000                  
G19  19898674.551    19898672.872    19898672.913                   -21894213.971 9 -21894213.974 9                 -17060428.440 9       751.000         546.000         753.000                  
G22  21028640.621    21028639.741    21028639.970                   -18703290.737 9 -18703290.736 8                 -14573995.346 8       618.000         289.000         276.000                  
G24  24778754.634    24778751.696    24778756.750                     2646660.770 7   2646660.748 6                   2062325.338 7        79.000          19.000          92.000                  
G30  22015463.378    22015462.842    22015466.634                   -14319207.092 8 -14319207.092 8                 -11157825.422 9       304.000         225.000         656.000                  
> 2024 10 31 02 13 10.0000000  0 12
G05  24069737.424    24069737.400    24069739.574                    -3705037.263 8  -3705037.262 6                  -2887043.939 8       139.000          50.000         174.000                  
G06  24246526.503    24246525.969    24246531.539                    -2881360.304 7  -2881360.284 6                  -2245218.197 6        71.000          25.000          46.000                  
G07  24436565.081    24436564.596    24436566.746                     -807621.035 7   -807621.018 6                   -629316.137 7        99.000          33.000          56.000                  
G12  24792885.399    24792885.165    24792886.829                    -1411111.010 7  -1411111.037 6                  -1099570.985 6        99.000          30.000          39.000                  
G13  19333791.211    19333790.855    19333791.226                   -25400053.344 9 -25400053.343 8                 -19792251.794 9       835.000         411.000         885.000                  
G14  21888673.906    21888673.506    21888674.835                   -15016055.800 8 -15016055.795 8                 -11700795.624 8       334.000         157.000         302.000                  
G15  21346885.394    21346885.359    21346886.451                   -16022193.689 8 -16022193.689 8                 -12484828.808 9       319.000         239.000         766.000                  
G17  19961093.132    19961092.547    19961093.018                   -24876637.148 9 -24876637.150 9                 -19384393.278 9       755.000        1219.000        1898.000                  
G19  19865572.752    19865571.282    19865571.204                   -22068164.837 9 -22068164.839 9                 -17195974.589 9       771.000         576.000         739.000                  
G22  21079633.289    21079632.429    21079632.759                   -18435322.859 9 -18435322.861 8                 -14365189.272 8       603.000         278.000         266.000                  
G24  24827849.851    24827848.983    24827853.877                     2904667.738 7   2904667.691 6                   2263369.419 7        73.000          20.000          84.000                  
G30  22012978.074    22012977.357    22012981.283                   -14332268.316 8 -14332268.317 8                 -11168003.057 9       302.000         226.000         642.000                  
> 2024 10 31 02 13 20.0000000  0 12
G05  24042298.481    24042297.607    24042300.016                    -3849233.817 8  -3849233.814 7                  -2999404.903 8       136.000          51.000         182.000                  
G06  24174126.252    24174124.041    24174131.160                    -3261831.258 7  -3261831.264 6                  -2541688.960 7        76.000          31.000          59.000                  
G07  24411833.604    24411833.571    24411836.064                     -937583.187 8   -937583.201 6                   -730585.383 6       104.000          33.000          49.000                  
G12  24775734.606    24775733.421    24775736.502                    -1501242.742 7  -1501242.737 6                  -1169803.578 6        96.000          27.000          43.000                  
G13  19348652.214    19348651.749    19348652.132                   -25321958.691 9 -25321958.691 8                 -19731398.861 9       824.000         400.000         850.000                  
G14  21940854.759    21940854.108    21940855.460                   -14741845.563 8 -14741845.558 8                 -11487125.392 8       326.000         146.000         303.000                  
G15  21385219.513    21385219.074    21385219.995                   -15820749.827 8 -15820749.827 8                 -12327859.652 9       320.000         231.000         758.000                  
G17  19970341.019    19970340.784    19970341.393                   -24828037.176 9 -24828037.178 9                 -19346523.220 9       743.000        1190.000        1956.000                  
G19  19833583.306    19833581.895    19833581.726                   -22236270.333 9 -22236270.334 9                 -17326965.910 9       787.000         594.000         733.000                  
G22  21131371.467    21131370.453    21131370.952                   -18163437.535 9 -18163437.536 8                 -14153330.644 8       588.000         263.000         254.000                  
G24  24877128.484    24877127.323    24877133.225                     3163628.841 7   3163628.844 6                   2465156.984 7        72.000          26.000          78.000                  
G30  22010962.432    22010961.573    22010965.344                   -14342861.666 8 -14342861.668 8                 -11176257.676 9       301.000         220.000         623.000                  
> 2024 10 31 02 13 30.0000000  0 12
G05  24015022.563    24015023.168    24015025.009                    -3992562.665 8  -3992562.662 7                  -3111089.749 8       143.000          59.000         183.000                  
G06  24101968.533    24101968.864    24101974.158                    -3641013.760 7  -3641013.752 6                  -2837155.754 7        80.000          30.000          69.000                  
G07  24387257.732    24387256.643    24387258.923                    -1066737.277 8  -1066737.260 6                   -831224.991 7       106.000          32.000          56.000                  
G12  24759024.830    24759023.845    24759027.195                    -1589050.072 7  -1589050.068 6                  -1238224.957 6        92.000          27.000          41.000                  
G13  19364255.656    19364255.174    19364255.715                   -25239962.007 9 -25239962.007 8                 -19667505.392 9       821.000         405.000         831.000                  
G14  21993548.952    21993548.577    21993549.912                   -14464934.998 8 -14464934.989 8                 -11271351.010 8       319.000         137.000         303.000                  
G15  21423973.964    21423973.906    21423974.877                   -15617092.364 8 -15617092.362 8                 -12169165.619 9       311.000         219.000         759.000                  
G17  19980731.511    19980731.140    19980731.766                   -24773436.032 9 -24773436.034 9                 -19303976.926 9       741.000        1170.000        1991.000                  
G19  19802718.322    19802716.953    19802716.748                   -22398467.140 9 -22398467.143 9                 -17453353.064 9       799.000         604.000         750.000                  
G22  21183845.915    21183844.917    21183845.257                   -17887682.721 9 -17887682.722 8                 -13938456.836 8       585.000         264.000         241.000                  
G24  24926585.589    24926586.045    24926591.803                     3423535.067 7   3423535.054 6                   2667680.985 7        67.000          26.000          79.000                  
G30  22009418.039    22009416.911    22009420.974                   -14350978.056 8 -14350978.055 8                 -11182582.193 9       305.000         220.000         624.000                  
> 2024 10 31 02 13 40.0000000  0 12
G05  23987912.790    23987911.405    23987913.589                    -4135034.970 8  -4135034.977 6                  -3222107.161 8       143.000          50.000         176.000                  
G06  24030063.760    24030063.446    24030068.705                    -4018882.168 7  -4018882.153 6                  -3131598.594 7        91.000          29.000          86.000                  
G07  24362829.719    24362828.596    24362830.231                    -1195107.201 8  -1195107.203 6                   -931253.544 6       107.000          31.000          50.000                  
G12  24742756.533    24742756.032    24742759.190                    -1674539.381 7  -1674539.394 6                  -1304840.091 6        93.000          25.000          45.000                  
G13  19380593.127    19380592.649    19380593.114                   -25154108.293 9 -25154108.293 8                 -19600606.444 9       819.000         403.000         808.000                  
G14  22046740.459    22046740.121    22046741.828                   -14185411.562 8 -14185411.554 8                 -11053540.634 8       312.000         133.000         287.000                  
G15  21463139.484    21463139.273    21463140.272                   -15411277.028 8 -15411277.027 8                 -12008790.128 9       297.000         205.000         770.000                  
G17  19992254.349    19992253.944    19992254.579                   -24712883.359 9 -24712883.361 9                 -19256793.082 9       735.000        1172.000        2016.000                  
G19  19772981.022    19772979.424    19772979.355                   -22554738.594 9 -22554738.597 9                 -17575123.060 9       799.000         618.000         765.000                  
G22  21237038.901    21237038.008    21237038.195                   -17608151.777 9 -17608151.777 8                 -13720640.589 8       580.000         257.000         217.000                  
G24  24976215.127    24976214.286    24976219.904                     3684332.186 7   3684332.160 6                   2870899.187 7        63.000          19.000          67.000                  
G30  22008337.593    22008336.918    22008340.997                   -14356653.884 8 -14356653.880 8                 -11187004.970 9       302.000         224.000         631.000                  
> 2024 10 31 02 13 50.0000000  0 12
G05  23960969.983    23960969.578    23960971.600                    -4276616.145 8  -4276616.147 7                  -3332430.204 8       142.000          51.000         177.000                  
G06  23958421.004    23958420.600    23958426.210                    -4395364.881 7  -4395364.886 6                  -3424961.660 8        99.000          33.000         108.000                  
G07  24338553.283    24338553.800    24338556.221                    -1322671.047 8  -1322671.039 6                  -1030653.986 7       108.000          38.000          53.000                  
G12  24726936.608    24726936.313    24726939.455                    -1757671.724 7  -1757671.743 6                  -1369618.639 6        97.000          29.000          42.000                  
G13  19397664.746    19397664.147    19397664.581                   -25064397.305 9 -25064397.305 8                 -19530701.830 9       831.000         401.000         784.000                  
G14  22100421.005    22100420.745    22100422.578                   -13903316.919 8 -13903316.906 8                 -10833726.722 8       313.000         129.000         278.000                  
G15  21502713.144    21502713.084    21502714.428                   -15203313.826 8 -15203313.825 8                 -11846740.983 9       289.000         189.000         763.000                  
G17  20004908.720    20004908.278    20004908.952                   -24646384.801 9 -24646384.802 9                 -19204976.082 9       739.000        1163.000        2038.000                  
G19  19744382.640    19744381.153    19744381.000                   -22705023.708 9 -22705023.711 9                 -17692228.377 9       799.000         609.000         788.000                  
G22  21290941.552    21290940.485    21290940.835                   -17324892.606 9 -17324892.607 8                 -13499919.240 8       577.000         261.000         203.000                  
G24  25026013.975    25026009.472    25026016.572                     3946011.870 7   3946011.868 6                   3074805.068 7        63.000          26.000          63.000                  
G30  22007723.721    22007722.921    22007727.134                   -14359880.104 8 -14359880.103 8                 -11189518.961 9       310.000         219.000         651.000                  
> 2024 10 31 02 14  0.0000000  0 12
G05  23934203.848    23934203.732    23934205.612                    -4417271.694 8  -4417271.696 7                  -3442031.958 8       144.000          59.000         176.000                  
G06  23887056.186    23887055.799    23887061.367                    -4770390.016 8  -4770390.018 6                  -3717188.970 8       107.000          41.000         133.000                  
G07  24314437.369    24314437.071    24314439.353                    -1449407.204 8  -1449407.222 6                  -1129409.497 7       105.000          34.000          57.000                  
G12  24711573.671    24711573.094    24711576.364                    -1838408.508 7  -1838408.518 6                  -1432530.519 6       100.000          31.000          45.000                  
G13  19415470.009    19415469.545    19415470.052                   -24970829.639 9 -24970829.640 8                 -19457792.018 9       845.000         420.000         755.000                  
G14  22154583.640    22154583.396    22154584.696                   -13618692.865 8 -13618692.858 8                 -10611941.848 8       311.000         137.000         259.000                  
G15  21542694.167    21542694.192    21542695.398                   -14993213.080 8 -14993213.082 8                 -11683026.221 9       283.000         190.000         762.000                  
G17  20018693.036    20018692.593    20018693.386                   -24573947.733 9 -24573947.734 9                 -19148531.673 9       738.000        1152.000        2038.000                  
G19  19716934.994    19716933.399    19716933.204                   -22849263.216 9 -22849263.218 9                 -17804622.828 9       793.000         606.000         795.000                  
G22  21345544.292    21345543.166    21345543.589                   -17037953.598 9 -17037953.598 8                 -13276330.492 8       568.000         243.000         186.000                  
G24  25075973.875    25075972.293    25075979.129                     4208565.608 7   4208565.600 6                   3279392.007 7        61.000          22.000          58.000                  
G30  22007577.683    22007577.137    22007580.885                   -14360648.126 8 -14360648.125 8                 -11190117.478 9       310.000         233.000         645.000                  
> 2024 10 31 02 14 10.0000000  0 12
G05  23907611.765    23907611.919    23907613.555                    -4557012.987 8  -4557012.969 7                  -3550921.310 8       147.000          57.000         179.000                  
G06  23815974.643    23815973.272    23815978.637                    -5143931.479 8  -5143931.476 6                  -4008260.196 8       117.000          46.000         155.000                  
G07  24290473.030    24290473.141    24290475.264                    -1575339.948 8  -1575339.959 6                  -1227538.990 7       112.000          35.000          55.000                  
G12  24696664.874    24696663.998    24696666.279                    -1916757.693 8  -1916757.696 6                  -1493581.935 6       104.000          34.000          42.000                  
G13  19434000.128    19433999.807    19434000.239                   -24873452.600 9 -24873452.600 8                 -19381913.862 9       853.000         441.000         755.000                  
G14  22209210.645    22209210.056    22209211.479                   -13331627.157 8 -13331627.152 8                 -10388254.394 8       312.000         135.000         245.000                  
G15  21583071.321    21583070.696    21583072.370                   -14781031.230 8 -14781031.230 8                 -11517689.817 9       280.000         178.000         754.000                  
G17  20033597.097    20033596.551    20033597.341                   -24495627.236 9 -24495627.238 9                 -19087502.772 9       725.000        1127.000        2058.000                  
G19  19690639.528    19690638.201    19690637.945                   -22987445.520 9 -22987445.521 9                 -17912297.379 9       787.000         586.000         830.000                  
G22  21400829.199    21400828.076    21400828.671                   -16747429.310 9 -16747429.311 8                 -13049948.015 8       545.000         233.000         178.000                  
G24  25126092.707    25126090.476    25126097.720                     4471938.857 7   4471938.863 6                   3484617.498 7        61.000          23.000          54.000                  
G30  22007892.248    22007891.615    22007895.466                   -14358995.727 8 -14358995.725 8                 -11188829.947 9       306.000         231.000         670.000                  
> 2024 10 31 02 14 20.0000000  0 12
G05  23881200.337    23881200.451    23881202.276                    -4695806.200 8  -4695806.208 7                  -3659071.899 8       151.000          61.000         190.000                  
G06  23745186.467    23745186.536    23745192.253                    -5515917.628 8  -5515917.631 7                  -4298119.496 8       126.000          51.000         182.000                  
G07  24266666.694    24266666.003    24266668.001                    -1700448.239 8  -1700448.245 6                  -1325026.068 7       110.000          36.000          53.000                  
G12  24682215.890    24682215.816    24682218.929                    -1992682.435 8  -1992682.438 6                  -1552744.170 6       108.000          37.000          48.000                  
G13  19453254.933    19453254.500    19453254.983                   -24772268.887 9 -24772268.886 8                 -19303069.467 9       875.000         452.000         764.000                  
G14  22264293.636    22264293.515    22264294.959                   -13042162.228 8 -13042162.225 8                 -10162697.415 8       315.000         134.000         235.000                  
G15  21623842.193    21623841.826    21623843.117                   -14566779.563 8 -14566779.563 8                 -11350740.570 9       275.000         175.000         746.000                  
G17  20049618.315    20049617.873    20049618.608                   -24411434.898 9 -24411434.901 9                 -19021898.406 9       717.000        1123.000        2010.000                  
G19  19665507.563    19665506.037    19665506.048                   -23119515.394 9 -23119515.395 9                 -18015208.997 9       775.000         573.000         871.000                  
G22  21456786.824    21456785.870    21456786.435                   -16453369.172 9 -16453369.173 8                 -12820810.335 8       520.000         217.000         170.000                  
G24  25176366.471    25176363.728    25176370.466                     4736122.406 7   4736122.405 6                   3690474.376 6        57.000          25.000          46.000                  
G30  22008668.874    22008667.839    22008671.947                   -14354915.760 8 -14354915.757 8                 -11185650.813 9       305.000         224.000         686.000                  
> 2024 10 31 02 14 30.0000000  0 12
G05  23854976.894    23854976.350    23854978.039                    -4833615.965 8  -4833615.959 7                  -3766456.169 8       155.000          61.000         190.000                  
G06  23674710.804    23674710.133    23674715.425                    -5886275.219 8  -5886275.215 7                  -4586709.795 8       132.000          53.000         209.000                  
G07  24243019.677    24243019.182    24243021.508                    -1824709.832 8  -1824709.832 6                  -1421853.400 7       106.000          27.000          57.000                  
G12  24668237.500    24668236.642    24668239.053                    -2066145.006 8  -2066144.992 6                  -1609987.830 6       110.000          35.000          50.000                  
G13  19473233.803    19473233.196    19473233.676                   -24667280.484 9 -24667280.485 8                 -19221260.381 9       898.000         475.000         768.000                  
G14  22319826.322    22319825.789    22319827.098                   -12750339.175 8 -12750339.170 8                  -9935302.941 8       312.000         128.000         225.000                  
G15  21665005.332    21665004.714    21665006.074                   -14350468.128 8 -14350468.125 8                 -11182186.311 9       269.000         177.000         743.000                  
G17  20066754.664    20066754.332    20066755.022                   -24321382.755 9 -24321382.757 9                 -18951727.968 9       721.000        1116.000        2008.000                  
G19  19641548.979    19641547.509    19641547.546                   -23245417.968 9 -23245417.970 9                 -18113314.928 9       760.000         556.000         922.000                  
G22  21513408.511    21513407.361    21513408.123                   -16155821.545 8 -16155821.546 8                 -12588955.128 8       500.000         196.000         179.000                  
G24  25226791.520    25226788.976    25226795.769                     5001108.292 7   5001108.270 6                   3896956.411 6        54.000          15.000          44.000                  
G30  22009908.514    22009907.820    22009911.948                   -14348400.074 8 -14348400.073 8                 -11180573.717 9       302.000         218.000         706.000                  
> 2024 10 31 02 14 40.0000000  0 11
G05  23828936.805    23828936.517    23828938.961                    -4970453.977 8  -4970453.979 7                  -3873083.241 8       158.000          67.000         200.000                  
G06  23604548.188    23604548.450    23604553.531                    -6254977.590 8  -6254977.592 7                  -4874010.326 8       141.000          63.000         236.000                  
G07  24219530.685    24219529.217    24219532.147                    -1948149.408 8  -1948149.390 6                  -1518040.213 7       107.000          31.000          53.000                  
G12  24654724.302    24654724.052    24654727.012                    -2137154.942 8  -2137154.959 6                  -1665320.356 6       115.000          40.000          45.000                  
G13  19493926.873    19493926.505    19493926.874                   -24558537.073 9 -24558537.073 8                 -19136525.318 9       910.000         478.000         771.000                  
G14  22375790.547    22375789.985    22375791.533                   -12456245.840 8 -12456245.836 8                  -9706139.425 8       314.000         131.000         210.000                  
G15  21706549.105    21706548.592    21706550.124                   -14132153.925 8 -14132153.930 8                 -11012071.468 9       280.000         170.000         755.000                  
G17  20084994.722    20084994.260    20084995.062                   -24225531.241 9 -24225531.242 9                 -18877038.539 9       707.000        1083.000        1997.000                  
G19  19618765.471    19618763.957    19618764.009                   -23365146.975 9 -23365146.977 9                 -18206610.295 9       769.000         563.000         971.000                  
G22  21570675.522    21570674.409    21570675.153                   -15854881.812 8 -15854881.810 8                 -12354456.728 8       473.000         166.000         174.000                  
G30  22011604.984    22011603.845    22011607.984                   -14339487.714 8 -14339487.712 8                 -11173629.093 9       304.000         219.000         716.000                  
> 2024 10 31 02 14 50.0000000  0 11
G05  23803088.174    23803088.013    23803090.125                    -5106289.918 8  -5106289.900 7                  -3978929.486 8       160.000          67.000         208.000                  
G06  23534713.950    23534714.731    23534720.165                    -6621955.901 8  -6621955.906 7                  -5159967.432 8       148.000          74.000         245.000                  
G07  24196200.873    24196199.740    24196202.291                    -2070749.660 8  -2070749.666 6                  -1613573.036 7       110.000          38.000          55.000                  
G12  24641684.681    24641684.137    24641686.816                    -2205680.309 8  -2205680.287 6                  -1718716.866 6       115.000          34.000          47.000                  
G13  19515333.010    19515332.694    19515333.144                   -24446046.888 9 -24446046.890 8                 -19048870.699 9       913.000         495.000         769.000                  
G14  22432178.188    22432177.578    22432178.996                   -12159928.017 8 -12159928.016 8                  -9475242.552 8       313.000         135.000         207.000                  
G15  21748471.094    21748470.724    21748472.239                   -13911852.048 8 -13911852.048 8                 -10840407.789 9       275.000         171.000         751.000                  
G17  20104334.650    20104334.017    20104334.820                   -24123900.436 9 -24123900.438 9                 -18797845.773 9       698.000        1048.000        1991.000                  
G19  19597165.352    19597163.930    19597164.042                   -23478655.992 9 -23478655.995 9                 -18295058.923 9       767.000         562.000        1023.000                  
G22  21628577.580    21628576.631    21628577.479                   -15550603.532 8 -15550603.534 8                 -12117356.865 8       451.000         170.000         177.000                  
G30  22013757.471    22013756.348    22013760.579                   -14328176.067 8 -14328176.067 8                 -11164814.902 9       304.000         213.000         719.000                  
> 2024 10 31 02 15  0.0000000  0 12
G05  23777438.606    23777438.590    23777440.885                    -5241079.623 8  -5241079.618 7                  -4083960.501 8       163.000          68.000         208.000                  
G06  23465225.232    23465224.935    23465230.100                    -6987127.585 8  -6987127.588 7                  -5444516.804 8       158.000          80.000         260.000                  
G07  24173035.621    24173036.024    24173037.535                    -2192479.871 8  -2192479.882 6                  -1708427.914 6       107.000          36.000          49.000                  
G12  24629126.391    24629125.564    24629128.941                    -2271676.174 8  -2271676.170 6                  -1770142.358 7       120.000          41.000          52.000                  
G13  19537453.155    19537452.734    19537453.240                   -24329805.338 9 -24329805.339 8                 -18958292.941 9       895.000         477.000         753.000                  
G14  22488982.351    22488982.391    22488983.708                   -11861417.904 8 -11861417.900 8                  -9242637.405 8       314.000         127.000         196.000                  
G15  21790771.153    21790770.857    21790772.373                   -13689564.212 8 -13689564.211 8                 -10667196.618 9       269.000         170.000         745.000                  
G17  20124772.331    20124771.954    20124772.840                   -24016498.572 9 -24016498.574 9                 -18714156.075 9       686.000        1016.000        2037.000                  
G19  19576760.115    19576758.678    19576758.697                   -23585886.787 9 -23585886.789 9                 -18378615.431 9       774.000         570.000        1044.000                  
G20  23897843.887    23897843.615    23897858.502                     -251283.683 8   -251283.677 6                   -195808.103 6       160.000          28.000          19.000                  
G22  21687107.525    21687106.604    21687107.465                   -15243026.858 8 -15243026.860 8                 -11877686.832 8       429.000         143.000         168.000                  
G30  22016369.471    22016368.674    22016372.784                   -14314449.390 8 -14314449.390 8                 -11154118.871 9       308.000         224.000         733.000                  
> 2024 10 31 02 15 10.0000000  0 12
G05  23751984.968    23751984.886    23751987.062                    -5374839.637 8  -5374839.628 7                  -4188189.169 8       164.000          73.000         226.000                  
G06  23396083.139    23396083.055    23396088.165                    -7350470.242 8  -7350470.245 7                  -5727640.974 8       162.000          78.000         269.000                  
G07  24150031.521    24150030.555    24150033.533                    -2313369.741 8  -2313369.750 6                  -1802628.001 7       110.000          36.000          51.000                  
G12  24617046.595    24617045.586    24617048.666                    -2335158.370 8  -2335158.349 6                  -1819609.168 6       121.000          45.000          46.000                  
G13  19560276.227    19560275.948    19560276.431                   -24209868.900 9 -24209868.899 8                 -18864836.053 9       883.000         459.000         732.000                  
G14  22546186.407    22546186.621    22546187.887                   -11560807.975 8 -11560807.973 8                  -9008396.045 8       307.000         129.000         183.000                  
G15  21833437.368    21833436.952    21833438.522                   -13465352.690 8 -13465352.691 8                 -10492486.481 9       269.000         161.000         731.000                  
G17  20146295.147    20146294.717    20146295.655                   -23903395.916 9 -23903395.918 9                 -18626024.204 9       676.000         982.000        2043.000                  
G19  19557548.799    19557547.246    19557547.340                   -23686843.568 9 -23686843.569 9                 -18457283.098 9       771.000         564.000        1084.000                  
G20  23841781.877    23841780.531    23841783.408                     -545893.422 8   -545893.402 6                   -425372.204 6       168.000          30.000          35.000                  
G22  21746246.131    21746245.036    21746245.942                   -14932252.389 8 -14932252.391 8                 -11635525.019 8       420.000         138.000         171.000                  
G30  22019432.770    22019431.734    22019435.950                   -14298352.707 8 -14298352.706 8                 -11141576.094 9       308.000         233.000         735.000                  
> 2024 10 31 02 15 20.0000000  0 12
G05  23726734.038    23726733.783    23726736.220                    -5507534.138 8  -5507534.145 7                  -4291587.580 8       164.000          71.000         221.000                  
G06  23327303.871    23327303.700    23327308.638                    -7711909.163 8  -7711909.166 7                  -6009281.732 8       165.000          87.000         271.000                  
G07  24127192.007    24127191.218    24127193.761                    -2433396.855 8  -2433396.864 6                  -1896155.839 6       116.000          40.000          48.000                  
G12  24605450.970    24605450.696    24605453.371                    -2396091.155 8  -2396091.163 6                  -1867089.435 7       123.000          36.000          54.000                  
G13  19583801.681    19583801.288    19583801.767                   -24086242.584 9 -24086242.583 8                 -18768503.945 9       873.000         460.000         723.000                  
G14  22603783.527    22603782.646    22603784.278                   -11258138.450 8 -11258138.444 8                  -8772549.817 8       301.000         125.000         187.000                  
G15  21876467.352    21876467.182    21876468.831                   -13239227.706 8 -13239227.705 8                 -10316285.342 9       270.000         168.000         720.000                  
G17  20168899.103    20168898.512    20168899.494                   -23784612.128 9 -23784612.129 9                 -18533465.486 9       673.000         983.000        2057.000                  
G19  19539540.071    19539538.526    19539538.681                   -23781480.104 9 -23781480.106 9                 -18531025.906 9       782.000         574.000        1100.000                  
G20  23785829.830    23785828.411    23785831.252                     -839923.790 8   -839923.784 6                   -654486.800 6       174.000          32.000          38.000                  
G22  21805983.920    21805983.114    21805984.040                   -14618328.690 8 -14618328.691 8                 -11390909.270 8       408.000         134.000         163.000                  
G30  22022948.113    22022947.374    22022951.476                   -14279879.185 8 -14279879.186 8                 -11127181.247 9       310.000         242.000         739.000                  
> 2024 10 31 02 15 30.0000000  0 12
G05  23701693.116    23701692.109    23701694.746                    -5639128.620 8  -5639128.624 7                  -4394128.849 8       168.000          71.000         233.000                  
G06  23258900.454    23258900.369    23258905.444                    -8071370.704 8  -8071370.707 7                  -6289381.698 8       170.000          91.000         280.000                  
G07  24104518.699    24104518.930    24104520.738                    -2552540.153 8  -2552540.152 6                  -1988995.069 6       113.000          41.000          45.000                  
G12  24594347.844    24594346.978    24594350.450                    -2454440.643 8  -2454440.637 6                  -1912556.763 7       118.000          33.000          53.000                  
G13  19608027.935    19608027.507    19608028.154                   -23958933.376 9 -23958933.378 8                 -18669302.063 9       861.000         444.000         727.000                  
G14  22661763.860    22661763.209    22661764.494                   -10953450.755 8 -10953450.750 8                  -8535130.996 8       297.000         111.000         181.000                  
G15  21919859.973    21919859.443    21919861.100                   -13011200.815 8 -13011200.813 8                 -10138602.211 9       271.000         175.000         717.000                  
G17  20192579.578    20192579.260    20192580.253                   -23660169.719 9 -23660169.720 9                 -18436497.461 9       669.000         972.000        2095.000                  
G19  19522742.399    19522740.743    19522740.730                   -23869753.428 9 -23869753.429 9                 -18599810.375 9       787.000         591.000        1080.000                  
G20  23729997.529    23729996.646    23729998.603                    -1133323.962 8  -1133323.954 6                   -883110.367 6       178.000          36.000          41.000                  
G22  21866311.839    21866310.438    21866311.546                   -14301305.805 8 -14301305.807 8                 -11143878.581 8       398.000         122.000         153.000                  
G30  22026917.142    22026916.120    22026920.304                   -14259023.646 8 -14259023.646 8                 -11110930.303 9       311.000         238.000         741.000                  
> 2024 10 31 02 15 40.0000000  0 12
G05  23676858.876    23676858.030    23676860.410                    -5769634.150 8  -5769634.149 7                  -4495821.593 8       168.000          80.000         236.000                  
G06  23190878.630    23190878.605    23190883.733                    -8428826.546 8  -8428826.548 7                  -6567918.813 8       172.000          96.000         303.000                  
G07  24082010.963    24082010.452    24082012.878                    -2670824.157 8  -2670824.165 6                  -2081164.744 7       108.000          32.000          53.000                  
G12  24583734.198    24583732.898    24583736.253                    -2510218.851 8  -2510218.859 6                  -1956020.512 7       118.000          40.000          52.000                  
G13  19632944.828    19632944.463    19632944.986                   -23827994.265 9 -23827994.264 8                 -18567271.689 9       844.000         424.000         695.000                  
G14  22720111.251    22720110.631    22720112.767                   -10646831.589 8 -10646831.579 8                  -8296207.160 8       277.000         108.000         183.000                  
G15  21963602.923    21963602.815    21963604.448                   -12781329.071 8 -12781329.071 8                  -9959481.547 9       272.000         164.000         710.000                  
G17  20217323.995    20217323.506    20217324.644                   -23530138.086 9 -23530138.089 9                 -18335174.210 9       679.000         988.000        2091.000                  
G19  19507154.425    19507153.022    19507153.078                   -23951668.009 9 -23951668.011 9                 -18663639.987 9       788.000         586.000        1077.000                  
G20  23674286.110    23674285.060    23674287.598                    -1426088.397 8  -1426088.404 6                  -1111238.574 6       184.000          35.000          45.000                  
G22  21927211.147    21927209.722    21927210.661                   -13981279.063 8 -13981279.061 8                 -10894507.235 8       383.000         124.000         136.000                  
G30  22031331.154    22031330.440    22031334.650                   -14235826.668 8 -14235826.669 8                 -11092854.874 9       312.000         237.000         748.000                  
> 2024 10 31 02 15 50.0000000  0 12
G05  23652238.565    23652237.527    23652240.175                    -5899015.649 8  -5899015.648 7                  -4596638.492 8       176.000          77.000         244.000                  
G06  23123253.348    23123252.808    23123258.275                    -8784202.009 8  -8784202.008 7                  -6844834.888 8       170.000          89.000         315.000                  
G07  24059669.977    24059669.379    24059672.679                    -2788227.134 8  -2788227.132 6                  -2172647.953 6       114.000          31.000          46.000                  
G12  24573615.189    24573614.616    24573617.979                    -2563392.147 8  -2563392.136 6                  -1997454.498 7       122.000          41.000          58.000                  
G13  19658551.284    19658550.761    19658551.415                   -23693432.502 9 -23693432.503 8                 -18462418.477 9       828.000         406.000         676.000                  
G14  22778819.036    22778818.544    22778820.441                   -10338321.339 8 -10338321.341 7                  -8055809.771 8       267.000          94.000         179.000                  
G15  22007695.326    22007694.909    22007696.633                   -12549623.494 8 -12549623.498 8                  -9778931.933 9       268.000         162.000         679.000                  
G17  20243127.185    20243126.701    20243127.704                   -23394542.196 9 -23394542.198 9                 -18229515.192 9       689.000        1025.000        2085.000                  
G19  19492784.220    19492782.718    19492782.917                   -24027184.015 9 -24027184.017 9                 -18722483.708 9       800.000         606.000        1074.000                  
G20  23618705.542    23618704.872    23618707.247                    -1718165.199 8  -1718165.213 6                  -1338830.966 6       192.000          34.000          40.000                  
G22  21988672.027    21988671.351    21988672.299                   -13658297.708 8 -13658297.710 8                 -10642833.612 8       370.000         105.000         129.000                  
G30  22036192.059    22036191.384    22036195.660                   -14210283.046 8 -14210283.045 8                 -11072950.907 9       309.000         232.000         750.000                  
> 2024 10 31 02 16  0.0000000  0 12
G05  23627838.314    23627837.874    23627840.389                    -6027238.346 8  -6027238.341 7                  -4696552.444 8       179.000          77.000         258.000                  
G06  23056037.691    23056037.460    23056042.645                    -9137422.607 8  -9137422.599 7                  -7120071.874 8       169.000          93.000         327.000                  
G07  24037500.315    24037500.289    24037503.792                    -2904727.819 8  -2904727.808 6                  -2263428.163 6       120.000          40.000          43.000                  
G12  24563998.790    24563998.385    24564001.558                    -2613927.905 8  -2613927.906 6                  -2036833.279 7       123.000          38.000          59.000                  
G13  19684845.237    19684844.866    19684845.624                   -23555256.394 9 -23555256.394 8                 -18354748.905 9       822.000         407.000         652.000                  
G14  22837878.580    22837878.098    22837880.191                   -10027960.541 8 -10027960.533 7                  -7813970.419 8       262.000          94.000         178.000                  
G15  22052134.339    22052134.265    22052135.737                   -12316095.502 8 -12316095.502 8                  -9596962.280 9       259.000         162.000         658.000                  
G17  20269984.282    20269983.628    20269984.636                   -23253408.544 9 -23253408.546 9                 -18119541.047 9       687.000        1022.000        2012.000                  
G19  19479638.778    19479637.456    19479637.397                   -24096263.911 9 -24096263.913 9                 -18776312.289 9       810.000         612.000        1094.000                  
G20  23563266.599    23563265.281    23563267.460                    -2009502.480 8  -2009502.467 6                  -1565847.171 6       199.000          33.000          45.000                  
G22  22050686.524    22050685.351    22050686.515                   -13332411.339 8 -13332411.342 7                 -10388896.362 8       351.000          98.000         124.000                  
G30  22041500.035    22041499.721    22041504.018                   -14182388.187 8 -14182388.189 8                 -11051214.828 9       310.000         234.000         739.000                  
> 2024 10 31 02 16 10.0000000  0 12
G05  23603656.455    23603656.848    23603659.093                    -6154313.362 8  -6154313.362 7                  -4795572.127 8       182.000          83.000         261.000                  
G06  22989237.569    22989237.592    22989242.713                    -9488459.802 8  -9488459.794 7                  -7393607.538 8       173.000          93.000         342.000                  
G07  24015498.989    24015498.055    24015501.389                    -3020351.147 8  -3020351.155 6                  -2353524.776 6       117.000          43.000          44.000                  
G12  24554881.142    24554880.830    24554885.061                    -2661839.943 8  -2661839.941 6                  -2074167.645 7       125.000          44.000          54.000                  
G13  19711816.658    19711816.253    19711817.010                   -23413521.071 9 -23413521.071 8                 -18244305.932 9       819.000         397.000         632.000                  
G14  22897274.312    22897273.978    22897275.864                    -9715835.688 8  -9715835.691 7                  -7570756.517 8       258.000          87.000         172.000                  
G15  22096909.377    22096909.039    22096910.523                   -12080802.675 8 -12080802.674 8                  -9413617.453 9       253.000         154.000         636.000                  
G17  20297880.809    20297880.298    20297881.339                   -23106811.102 9 -23106811.105 9                 -18005309.428 9       685.000        1009.000        1947.000                  
G19  19467716.164    19467714.760    19467714.824                   -24158918.403 9 -24158918.406 9                 -18825134.074 9       833.000         664.000        1123.000                  
G20  23507969.721    23507967.406    23507970.090                    -2300094.310 8  -2300094.315 6                  -1792282.515 6       201.000          38.000          45.000                  
G22  22113235.767    22113234.250    22113235.327                   -13003715.602 8 -13003715.598 7                 -10132770.015 8       328.000          95.000         117.000                  
G30  22047248.469    22047247.494    22047251.904                   -14152183.925 8 -14152183.926 8                 -11027679.233 9       312.000         234.000         720.000                  
> 2024 10 31 02 16 20.0000000  0 12
G05  23579701.347    23579700.240    23579702.844                    -6280205.449 8  -6280205.453 7                  -4893670.079 8       185.000          90.000         268.000                  
G06  22922867.259    22922867.002    22922872.630                    -9837238.406 8  -9837238.403 8                  -7665383.298 8       180.000         106.000         367.000                  
G07  23993668.172    23993667.546    23993671.119                    -3135075.499 8  -3135075.486 6                  -2442920.981 7       121.000          34.000          55.000                  
G12  24546270.004    24546269.474    24546273.212                    -2707096.122 8  -2707096.128 6                  -2109432.553 7       124.000          44.000          62.000                  
G13  19739463.774    19739463.271    19739464.191                   -23268235.599 9 -23268235.598 8                 -18131096.621 9       826.000         409.000         618.000                  
G14  22956997.640    22956997.605    22956999.825                    -9401986.512 8  -9401986.500 7                  -7326199.019 8       250.000          81.000         164.000                  
G15  22142018.170    22142017.702    22142019.269                   -11843756.071 8 -11843756.070 8                  -9228906.076 9       249.000         139.000         598.000                  
G17  20326811.869    20326811.326    20326812.249                   -22954778.774 9 -22954778.777 9                 -17886842.844 9       673.000         986.000        1902.000                  
G19  19457022.938    19457021.173    19457021.376                   -24215113.662 9 -24215113.663 9                 -18868922.705 9       856.000         686.000        1129.000                  
G20  23452822.915    23452821.609    23452824.235                    -2589887.983 8  -2589887.994 6                  -2018095.992 6       212.000          45.000          48.000                  
G22  22176309.328    22176308.424    22176309.725                   -12672259.432 8 -12672259.429 7                  -9874492.704 8       301.000          71.000         112.000                  
G30  22053436.300    22053435.762    22053439.948                   -14119665.891 8 -14119665.893 8                 -11002340.727 9       315.000         226.000         718.000                  
> 2024 10 31 02 16 30.0000000  0 12
G05  23555975.738    23555975.849    23555978.269                    -6404879.739 8  -6404879.739 7                  -4990819.137 8       192.000          86.000         279.000                  
G06  22856941.578    22856941.068    22856946.469                   -10183683.327 8 -10183683.332 8                  -7935340.632 8       189.000         122.000         397.000                  
G07  23972013.086    23972011.904    23972014.991                    -3248879.467 8  -3248879.484 6                  -2531600.089 6       126.000          41.000          49.000                  
G12  24538169.683    24538169.179    24538172.782                    -2749665.307 8  -2749665.312 6                  -2142603.762 7       124.000          45.000          60.000                  
G13  19767784.512    19767783.989    19767784.883                   -23119409.705 9 -23119409.706 8                 -18015128.556 9       819.000         398.000         595.000                  
G14  23017042.189    23017041.753    23017044.243                    -9086452.765 8  -9086452.766 7                  -7080328.915 8       243.000          76.000         148.000                  
G15  22187458.310    22187457.876    22187459.605                   -11604967.159 8 -11604967.165 8                  -9042837.085 9       246.000         140.000         581.000                  
G17  20356771.118    20356770.651    20356771.612                   -22797342.036 9 -22797342.038 9                 -17764165.057 9       678.000         989.000        1860.000                  
G19  19447564.351    19447562.866    19447563.030                   -24264818.196 9 -24264818.197 9                 -18907653.648 9       866.000         721.000        1167.000                  
G20  23397838.827    23397838.023    23397840.881                    -2878830.659 8  -2878830.668 6                  -2243246.367 7       218.000          41.000          55.000                  
G22  22239899.513    22239898.341    22239899.896                   -12338092.110 8 -12338092.109 7                  -9614102.839 7       280.000          72.000          98.000                  
G30  22060065.715    22060065.011    22060069.325                   -14084830.248 8 -14084830.247 8                 -10975196.328 9       313.000         236.000         705.000                  
> 2024 10 31 02 16 40.0000000  0 12
G05  23532481.743    23532480.700    23532483.596                    -6528347.447 8  -6528347.456 7                  -5087028.037 8       197.000          95.000         282.000                  
G06  22791464.521    22791464.861    22791470.057                   -10527765.483 8 -10527765.481 8                  -8203456.872 8       200.000         127.000         411.000                  
G07  23950527.121    23950526.774    23950531.033                    -3361787.819 8  -3361787.828 6                  -2619581.425 6       127.000          35.000          48.000                  
G12  24530578.344    24530577.233    24530581.130                    -2789562.593 8  -2789562.597 6                  -2173693.013 7       124.000          41.000          57.000                  
G13  19796768.174    19796767.779    19796768.785                   -22967099.855 9 -22967099.857 8                 -17896445.739 9       810.000         400.000         587.000                  
G14  23077390.465    23077390.782    23077392.727                    -8769320.101 8  -8769320.098 7                  -6833212.950 8       242.000          84.000         144.000                  
G15  22233219.392    22233218.574    22233220.510                   -11364493.388 8 -11364493.390 8                  -8855455.249 9       241.000         140.000         568.000                  
G17  20387744.186    20387743.681    20387744.727                   -22634578.668 9 -22634578.672 9                 -17637336.676 9       671.000         970.000        1850.000                  
G19  19439338.073    19439336.560    19439336.815                   -24308048.508 9 -24308048.511 9                 -18941339.758 9       881.000         744.000        1202.000                  
G20  23343019.152    23343017.095    23343020.416                    -3166915.518 8  -3166915.524 6                  -2467728.353 7       226.000          42.000          57.000                  
G22  22303987.141    22303986.187    22303987.660                   -12001308.814 8 -12001308.813 7                  -9351674.595 7       266.000          62.000          96.000                  
G30  22067128.009    22067127.095    22067131.511                   -14047719.549 8 -14047719.547 8                 -10946279.197 9       305.000         229.000         691.000                  
> 2024 10 31 02 16 50.0000000  0 12
G05  23509222.994    23509222.319    23509224.943                    -6650573.575 8  -6650573.571 7                  -5182269.511 8       200.000          97.000         284.000                  
G06  22726452.463    22726452.224    22726457.775                   -10869409.488 8 -10869409.491 8                  -8469673.282 8       203.000         131.000         445.000                  
G07  23929216.551    23929215.964    23929220.179                    -3473779.233 8  -3473779.268 6                  -2706848.350 6       132.000          41.000          50.000                  
G12  24523501.919    24523499.643    24523503.732                    -2826757.945 8  -2826757.937 6                  -2202676.922 7       120.000          39.000          60.000                  
G13  19826412.852    19826412.517    19826413.511                   -22811316.849 9 -22811316.848 8                 -17775056.587 9       810.000         389.000         578.000                  
G14  23138036.646    23138036.134    23138038.286                    -8450627.748 8  -8450627.749 7                  -6584881.704 8       234.000          75.000         131.000                  
G15  22279298.043    22279298.053    22279300.121                   -11122346.118 8 -11122346.117 8                  -8666769.422 9       243.000         136.000         558.000                  
G17  20419724.364    20419723.948    20419725.186                   -22466521.588 9 -22466521.592 9                 -17506383.346 9       663.000         952.000        1836.000                  
G19  19432348.896    19432347.437    19432347.822                   -24344777.072 9 -24344777.073 9                 -18969959.592 9       891.000         757.000        1215.000                  
G20  23288371.981    23288370.339    23288373.246                    -3454089.313 8  -3454089.304 6                  -2691500.455 7       233.000          42.000          62.000                  
G22  22368563.750    22368562.856    22368564.334                   -11661958.419 8 -11661958.415 7                  -9087246.034 7       257.000          53.000          89.000                  
G30  22074623.282    22074622.806    22074627.332                   -14008330.473 8 -14008330.474 8                 -10915586.747 9       302.000         217.000         681.000                  
> 2024 10 31 02 17  0.0000000  0 12
G05  23486206.959    23486206.741    23486209.523                    -6771523.127 8  -6771523.133 7                  -5276516.279 8       202.000          98.000         300.000                  
G06  22661918.629    22661918.094    22661923.736                   -11208540.026 8 -11208540.034 8                  -8733931.159 8       209.000         140.000         488.000                  
G07  23908084.597    23908084.635    23908088.400                    -3584832.397 8  -3584832.410 6                  -2793384.242 7       133.000          41.000          52.000                  
G12  24516942.079    24516941.433    24516945.541                    -2861221.771 8  -2861221.749 6                  -2229532.419 7       122.000          43.000          65.000                  
G13  19856716.324    19856715.905    19856716.930                   -22652072.161 9 -22652072.161 8                 -17650970.040 9       797.000         382.000         564.000                  
G14  23198971.135    23198970.718    23198973.403                    -8130414.801 8  -8130414.794 7                  -6335365.622 8       233.000          76.000         125.000                  
G15  22325693.804    22325693.674    22325695.852                   -10878536.773 8 -10878536.776 8                  -8476788.514 9       244.000         135.000         540.000                  
G17  20452705.605    20452705.235    20452706.422                   -22293205.121 9 -22293205.123 9                 -17371331.811 9       668.000         938.000        1774.000                  
G19  19426601.812    19426600.577    19426600.774                   -24374978.476 9 -24374978.478 9                 -18993493.345 9       900.000         776.000        1220.000                  
G20  23233907.756    23233906.721    23233910.131                    -3740298.710 8  -3740298.722 6                  -2914521.078 7       236.000          45.000          68.000                  
G22  22433619.714    22433618.616    22433620.309                   -11320089.714 8 -11320089.702 6                  -8820855.206 7       244.000          45.000          97.000                  
G30  22082553.495    22082552.581    22082557.273                   -13966660.062 8 -13966660.061 8                 -10883116.663 9       295.000         209.000         662.000                  
> 2024 10 31 02 17 10.0000000  0 12
G05  23463431.697    23463431.572    23463434.824                    -6891206.697 8  -6891206.696 8                  -5369776.599 8       202.000         106.000         307.000                  
G06  22597868.276    22597867.779    22597873.681                   -11545127.209 8 -11545127.216 8                  -8996207.206 9       216.000         145.000         541.000                  
G07  23887125.796    23887126.495    23887129.935                    -3694971.644 8  -3694971.638 6                  -2879208.031 7       138.000          46.000          56.000                  
G12  24510903.436    24510900.144    24510904.628                    -2892970.472 8  -2892970.468 6                  -2254272.285 7       123.000          37.000          56.000                  
G13  19887667.595    19887667.115    19887668.310                   -22489423.141 9 -22489423.141 8                 -17524230.785 9       777.000         366.000         558.000                  
G14  23260179.618    23260179.006    23260181.701                    -7808765.640 8  -7808765.631 7                  -6084730.487 8       228.000          72.000         111.000                  
G15  22372395.327    22372395.010    22372396.874                   -10633122.483 8 -10633122.485 8                  -8285557.038 9       246.000         134.000         520.000                  
G17  20486672.449    20486671.992    20486673.137                   -22114710.186 9 -22114710.189 9                 -17232245.139 9       668.000         964.000        1705.000                  
G19  19422092.748    19422091.365    19422091.684                   -24398675.004 9 -24398675.006 9                 -19011958.380 9       904.000         786.000        1196.000                  
G20  23179629.503    23179627.997    23179631.929                    -4025535.617 8  -4025535.618 6                  -3136783.926 7       234.000          50.000          67.000                  
G22  22499136.489    22499135.262    22499137.524                   -10975796.833 8 -10975796.829 6                  -8552575.443 7       238.000          49.000          91.000                  
G30  22090909.391    22090908.394    22090913.245                   -13922751.156 8 -13922751.154 8                 -10848902.330 9       290.000         208.000         656.000                  
> 2024 10 31 02 17 20.0000000  0 12
G05  23440904.891    23440904.551    23440907.741                    -7009589.524 8  -7009589.531 7                  -5462023.356 8       202.000          97.000         317.000                  
G06  22534316.909    22534316.172    22534321.939                   -11879095.657 8 -11879095.655 8                  -9256442.682 9       225.000         148.000         579.000                  
G07  23866347.000    23866346.094    23866350.633                    -3804175.866 8  -3804175.855 6                  -2964303.232 7       134.000          46.000          54.000                  
G12  24505382.917    24505381.189    24505386.053                    -2921975.529 8  -2921975.524 6                  -2276874.263 7       124.000          40.000          67.000                  
G13  19919264.303    19919263.802    19919265.128                   -22323382.173 9 -22323382.173 8                 -17394848.470 9       757.000         349.000         559.000                  
G14  23321653.665    23321653.416    23321656.241                    -7485718.880 8  -7485718.878 7                  -5833006.373 7       225.000          65.000         100.000                  
G15  22419399.059    22419399.282    22419401.408                   -10386114.765 8 -10386114.763 8                  -8093083.961 8       243.000         133.000         484.000                  
G17  20521617.347    20521617.190    20521618.404                   -21931073.450 9 -21931073.453 9                 -17089151.886 9       670.000         977.000        1637.000                  
G19  19418825.776    19418824.116    19418824.478                   -24415845.493 9 -24415845.495 9                 -19025338.204 9       918.000         800.000        1188.000                  
G20  23125546.051    23125544.935    23125548.526                    -4309746.312 8  -4309746.296 6                  -3358247.121 7       242.000          48.000          70.000                  
G22  22565105.712    22565104.953    22565106.810                   -10629128.528 8 -10629128.517 6                  -8282444.737 7       234.000          43.000          95.000                  
G30  22099691.667    22099690.887    22099695.702                   -13876601.466 8 -13876601.465 8                 -10812941.972 9       289.000         211.000         652.000                  
> 2024 10 31 02 17 30.0000000  0 12
G05  23418631.736    23418631.379    23418634.791                    -7126636.895 8  -7126636.887 8                  -5553229.501 8       202.000         105.000         316.000                  
G06  22471277.922    22471276.957    22471282.846                   -12210369.890 8 -12210369.897 8                  -9514578.753 9       229.000         166.000         620.000                  
G07  23845748.455    23845747.517    23845752.404                    -3912423.818 8  -3912423.819 6                  -3048653.253 7       135.000          50.000          54.000                  
G12  24500390.021    24500389.816    24500394.174                    -2948209.098 8  -2948209.106 6                  -2297316.666 7       124.000          46.000          62.000                  
G13  19951503.987    19951503.498    19951504.938                   -22153962.193 9 -22153962.193 8                 -17262833.170 9       746.000         339.000         570.000                  
G14  23383386.678    23383386.360    23383388.915                    -7161312.870 8  -7161312.873 7                  -5580223.150 7       223.000          59.000          88.000                  
G15  22466704.821    22466704.647    22466706.784                   -10137525.223 8 -10137525.223 8                  -7899378.334 8       247.000         141.000         475.000                  
G17  20557534.121    20557533.564    20557534.822                   -21742332.662 9 -21742332.665 9                 -16942081.465 9       662.000         946.000        1537.000                  
G19  19416803.920    19416802.453    19416802.776                   -24426470.930 9 -24426470.932 9                 -19033617.994 9       918.000         803.000        1196.000                  
G20  23071668.471    23071667.015    23071671.360                    -4592876.808 8  -4592876.802 7                  -3578868.578 7       244.000          58.000          74.000                  
G22  22631517.829    22631516.615    22631518.638                   -10280133.072 8 -10280133.070 6                  -8010500.711 7       233.000          44.000          91.000                  
G30  22108900.590    22108899.853    22108904.957                   -13828208.915 8 -13828208.915 8                 -10775233.963 9       283.000         199.000         652.000                  
> 2024 10 31 02 17 40.0000000  0 12
G05  23396610.558    23396610.579    23396613.654                    -7242359.885 8  -7242359.893 8                  -5643403.653 8       208.000         107.000         323.000                  
G06  22408756.475    22408756.234    22408761.955                   -12538920.542 8 -12538920.542 8                  -9770592.525 9       224.000         165.000         666.000                  
G07  23825327.563    23825327.044    23825330.966                    -4019740.556 8  -4019740.554 6                  -3132277.558 7       135.000          47.000          63.000                  
G12  24495922.878    24495922.257    24495926.536                    -2971689.954 8  -2971689.964 6                  -2315614.085 7       125.000          39.000          63.000                  
G13  19984375.332    19984375.150    19984376.466                   -21981222.512 9 -21981222.512 8                 -17128231.102 9       729.000         317.000         588.000                  
G14  23445362.719    23445361.864    23445364.703                    -6835631.722 8  -6835631.722 7                  -5326446.376 7       213.000          55.000          68.000                  
G15  22514300.220    22514299.888    22514302.562                    -9887411.544 8  -9887411.543 8                  -7704485.089 8       247.000         135.000         477.000                  
G17  20594405.564    20594405.135    20594406.428                   -21548572.612 9 -21548572.614 9                 -16791099.943 9       647.000         910.000        1437.000                  
G19  19416022.184    19416020.582    19416021.064                   -24430580.443 9 -24430580.446 9                 -19036820.443 9       925.000         817.000        1200.000                  
G20  23017998.085    23017996.541    23018000.158                    -4874919.004 8  -4874919.002 7                  -3798641.971 7       252.000          51.000          79.000                  
G22  22698355.032    22698354.078    22698355.811                    -9928904.683 8  -9928904.689 6                  -7736816.761 7       228.000          48.000          89.000                  
G30  22118528.269    22118527.196    22118532.650                   -13777617.722 8 -13777617.721 8                 -10735812.740 9       284.000         198.000         647.000                  
> 2024 10 31 02 17 50.0000000  0 12
G05  23374849.028    23374847.983    23374851.538                    -7356723.096 8  -7356723.096 8                  -5732518.199 8       208.000         101.000         327.000                  
G06  22346768.376    22346767.654    22346773.875                   -12864671.367 8 -12864671.367 8                 -10024424.569 9       220.000         147.000         705.000                  
G07  23805087.662    23805087.195    23805091.839                    -4126104.106 8  -4126104.086 6                  -3215159.000 7       134.000          44.000          63.000                  
G12  24491984.807    24491983.203    24491987.645                    -2992390.457 8  -2992390.436 6                  -2331744.971 7       130.000          41.000          64.000                  
G13  20017876.277    20017875.776    20017877.327                   -21805176.064 9 -21805176.064 8                 -16991052.338 9       708.000         296.000         609.000                  
G14  23507574.456    23507573.439    23507575.804                    -6508712.413 8  -6508712.407 7                  -5071704.824 7       207.000          62.000          68.000                  
G15  22562183.913    22562183.678    22562186.067                    -9635784.450 8  -9635784.451 8                  -7508412.578 8       244.000         133.000         480.000                  
G17  20632224.759    20632224.453    20632225.698                   -21349832.473 9 -21349832.475 9                 -16636237.839 9       638.000         865.000        1352.000                  
G19  19416483.176    19416481.591    19416482.139                   -24428158.414 9 -24428158.415 9                 -19034933.373 9       925.000         813.000        1174.000                  
G20  22964544.879    22964543.324    22964546.900                    -5155817.725 8  -5155817.734 7                  -4017524.295 7       259.000          53.000          87.000                  
G22  22765607.992    22765606.463    22765608.998                    -9575490.441 8  -9575490.437 6                  -7461429.575 7       226.000          44.000          85.000                  
G30  22128574.852    22128573.978    22128579.100                   -13724825.566 8 -13724825.565 8                 -10694676.487 9       285.000         198.000         644.000                  
> 2024 10 31 02 18  0.0000000  0 12
G05  23353351.328    23353351.100    23353354.687                    -7469691.740 8  -7469691.740 8                  -5820546.039 8       208.000         111.000         326.000                  
G06  22285327.121    22285326.445    22285332.862                   -13187547.021 8 -13187547.027 8                 -10276016.167 9       213.000         143.000         748.000                  
G07  23785033.146    23785032.786    23785038.348                    -4231493.579 8  -4231493.589 6                  -3297281.284 7       133.000          47.000          61.000                  
G12  24488578.672    24488578.921    24488583.753                    -3010284.603 8  -3010284.602 6                  -2345689.047 7       139.000          45.000          65.000                  
G13  20052003.595    20052003.101    20052004.665                   -21625837.078 9 -21625837.078 8                 -16851307.963 9       689.000         291.000         611.000                  
G14  23570013.359    23570013.191    23570016.338                    -6180592.490 8  -6180592.481 7                  -4816027.789 7       197.000          58.000          66.000                  
G15  22610353.016    22610352.929    22610355.444                    -9382655.559 8  -9382655.556 8                  -7311169.846 8       243.000         135.000         489.000                  
G17  20670984.008    20670983.556    20670984.932                   -21146153.067 9 -21146153.070 9                 -16477526.954 9       625.000         834.000        1299.000                  
G19  19418189.516    19418188.058    19418188.553                   -24419192.158 9 -24419192.160 9                 -19027946.898 9       920.000         817.000        1170.000                  
G20  22911319.447    22911318.111    22911322.033                    -5435518.564 8  -5435518.566 7                  -4235473.152 7       260.000          60.000          92.000                  
G22  22833267.471    22833266.583    22833268.402                    -9219938.139 8  -9219938.146 6                  -7184376.378 7       223.000          47.000          81.000                  
G30  22139040.336    22139039.349    22139044.705                   -13669831.144 8 -13669831.142 8                 -10651824.166 9       288.000         189.000         657.000                  
> 2024 10 31 02 18 10.0000000  0 12
G05  23332117.830    23332117.260    23332120.942                    -7581277.341 8  -7581277.344 8                  -5907496.140 8       211.000         111.000         339.000                  
G06  22224438.653    22224438.389    22224444.611                   -13507518.089 8 -13507518.092 8                 -10525344.401 9       207.000         138.000         780.000                  
G07  23765160.827    23765158.774    23765163.981                    -4335934.025 8  -4335934.042 6                  -3378663.969 7       131.000          50.000          72.000                  
G12  24485704.738    24485704.681    24485708.944                    -3025392.850 8  -3025392.839 6                  -2357462.234 7       135.000          49.000          65.000                  
G13  20086745.872    20086745.409    20086746.997                   -21443266.071 9 -21443266.070 8                 -16709045.124 9       677.000         276.000         601.000                  
G14  23632666.035    23632665.393    23632669.343                    -5851355.054 8  -5851355.052 6                  -4559479.985 7       192.000          49.000          59.000                  
G15  22658797.462    22658796.720    22658799.827                    -9128082.327 8  -9128082.330 8                  -7112801.653 8       244.000         139.000         483.000                  
G17  20710666.445    20710665.750    20710667.428                   -20937622.103 9 -20937622.105 9                 -16315035.633 9       602.000         786.000        1219.000                  
G19  19421134.434    19421132.921    19421133.577                   -24403717.016 9 -24403717.018 9                 -19015888.554 9       906.000         776.000        1194.000                  
G20  22858323.661    22858322.582    22858326.361                    -5714012.696 8  -5714012.695 7                  -4452481.659 7       265.000          65.000          94.000                  
G22  22901317.722    22901314.711    22901317.893                    -8862341.071 8  -8862341.087 6                  -6905729.873 7       224.000          46.000          79.000                  
G30  22149916.174    22149915.296    22149920.865                   -13612679.358 8 -13612679.355 8                 -10607290.764 9       278.000         186.000         652.000                  
> 2024 10 31 02 18 20.0000000  0 12
G05  23311153.793    23311153.336    23311156.908                    -7691444.979 8  -7691444.985 8                  -5993341.294 8       212.000         112.000         344.000                  
G06  22164117.247    22164116.911    22164123.326                   -13824508.988 8 -13824508.986 8                 -10772350.381 9       207.000         134.000         798.000                  
G07  23745470.874    23745469.670    23745474.772                    -4439404.325 8  -4439404.333 6                  -3459290.592 7       131.000          47.000          80.000                  
G12  24483364.919    24483364.620    24483369.727                    -3037689.935 8  -3037689.934 6                  -2367044.857 7       137.000          48.000          67.000                  
G13  20122100.388    20122099.871    20122101.695                   -21257477.808 9 -21257477.808 8                 -16564275.323 9       663.000         265.000         604.000                  
G14  23695524.098    23695523.536    23695527.088                    -5521036.663 8  -5521036.661 6                  -4302089.895 7       183.000          47.000          54.000                  
G15  22707513.755    22707513.455    22707516.650                    -8872076.088 8  -8872076.086 8                  -6913316.830 8       240.000         132.000         466.000                  
G17  20751263.741    20751263.307    20751265.034                   -20724281.984 9 -20724281.986 9                 -16148796.909 9       588.000         749.000        1146.000                  
G19  19425319.646    19425318.170    19425318.906                   -24381724.170 9 -24381724.171 9                 -18998751.466 9       889.000         749.000        1211.000                  
G20  22805568.506    22805567.348    22805570.929                    -5991244.908 8  -5991244.911 7                  -4668506.812 7       270.000          61.000          91.000                  
G22  22969745.672    22969743.962    22969747.636                    -8502746.054 8  -8502746.048 6                  -6625526.529 7       220.000          45.000          78.000                  
G30  22161202.836    22161202.348    22161207.595                   -13553369.158 8 -13553369.157 8                 -10561075.460 9       274.000         183.000         651.000                  
> 2024 10 31 02 18 30.0000000  0 12
G05  23290465.681    23290465.733    23290469.455                    -7800159.890 8  -7800159.888 8                  -6078054.416 8       212.000         113.000         344.000                  
G06  22104376.884    22104376.941    22104383.420                   -14138444.281 8 -14138444.285 8                 -11016975.341 9       206.000         136.000         817.000                  
G07  23725969.168    23725968.616    23725973.882                    -4541883.396 8  -4541883.396 6                  -3539144.766 7       133.000          41.000          86.000                  
G12  24481565.484    24481564.724    24481569.688                    -3047151.280 8  -3047151.286 6                  -2374417.780 7       137.000          50.000          79.000                  
G13  20158064.166    20158063.798    20158065.596                   -21068487.370 9 -21068487.370 8                 -16417010.316 9       663.000         262.000         617.000                  
G14  23758580.804    23758580.693    23758584.564                    -5189673.615 8  -5189673.615 6                  -4043885.813 7       179.000          47.000          53.000                  
G15  22756501.230    22756501.008    22756504.175                    -8614648.125 8  -8614648.129 8                  -6712724.167 8       237.000         130.000         458.000                  
G17  20792768.280    20792767.787    20792769.513                   -20506176.054 9 -20506176.057 9                 -15978844.562 9       587.000         731.000        1128.000                  
G19  19430746.440    19430745.009    19430745.759                   -24353206.924 9 -24353206.925 9                 -18976530.420 9       874.000         734.000        1206.000                  
G20  22753063.550    22753062.261    22753065.815                    -6267159.931 8  -6267159.940 7                  -4883505.558 7       278.000          73.000          95.000                  
G22  23038545.962    23038544.795    23038547.151                    -8141199.832 8  -8141199.831 6                  -6343802.780 7       213.000          43.000          71.000                  
G30  22172900.236    22172899.553    22172905.235                   -13491899.702 8 -13491899.703 8                 -10513177.605 9       274.000         185.000         670.000                  
> 2024 10 31 02 18 40.0000000  0 12
G05  23270052.708    23270052.649    23270056.218                    -7907433.116 8  -7907433.116 8                  -6161644.112 8       215.000         116.000         340.000                  
G06  22045224.355    22045224.234    22045230.568                   -14449294.445 8 -14449294.449 8                 -11259196.272 9       205.000         128.000         826.000                  
G07  23706652.021    23706651.287    23706657.263                    -4643396.134 8  -4643396.120 6                  -3618245.895 7       128.000          43.000          91.000                  
G12  24480300.977    24480300.061    24480305.235                    -3053798.761 8  -3053798.776 6                  -2379598.009 7       133.000          42.000          69.000                  
G13  20194626.025    20194625.558    20194627.182                   -20876355.997 9 -20876355.998 8                 -16267297.823 9       669.000         273.000         591.000                  
G14  23821821.206    23821820.456    23821824.944                    -4857347.720 8  -4857347.704 6                  -3784931.471 6       170.000          40.000          46.000                  
G15  22805747.646    22805747.958    22805751.250                    -8355855.561 8  -8355855.564 8                  -6511068.175 8       236.000         129.000         446.000                  
G17  20835162.487    20835162.007    20835163.867                   -20283394.246 9 -20283394.248 9                 -15805248.662 9       580.000         726.000        1147.000                  
G19  19437406.729    19437405.473    19437406.315                   -24318206.569 9 -24318206.571 9                 -18949257.587 9       858.000         699.000        1169.000                  
G20  22700811.131    22700809.879    22700813.028                    -6541747.990 8  -6541747.992 7                  -5097470.264 7       279.000          62.000          96.000                  
G22  23107700.647    23107698.794    23107701.773                    -7777794.452 8  -7777794.443 6                  -6060630.346 7       206.000          40.000          71.000                  
G30  22185000.275    22184999.461    22185005.276                   -13428316.274 8 -13428316.275 8                 -10463632.480 9       273.000         182.000         686.000                  
> 2024 10 31 02 18 50.0000000  0 12
G05  23249920.385    23249919.941    23249923.773                    -8013230.443 8  -8013230.440 8                  -6244083.726 8       217.000         121.000         340.000                  
G06  21986673.140    21986672.667    21986679.157                   -14756984.581 8 -14756984.586 8                 -11498954.821 9       216.000         144.000         817.000                  
G07  23687522.573    23687522.355    23687528.028                    -4743921.798 8  -4743921.792 6                  -3696577.836 7       127.000          48.000          98.000                  
G12  24479574.938    24479574.804    24479580.318                    -3057609.376 8  -3057609.395 6                  -2382567.660 7       132.000          45.000          73.000                  
G13  20231782.292    20231781.772    20231783.460                   -20681099.873 9 -20681099.872 8                 -16115150.447 9       672.000         267.000         578.000                  
G14  23885237.954    23885236.720    23885241.433                    -4524094.959 8  -4524094.960 6                  -3525254.944 6       162.000          34.000          44.000                  
G15  22855253.317    22855252.621    22855255.976                    -8095709.938 8  -8095709.937 8                  -6308357.847 8       236.000         137.000         436.000                  
G17  20878437.992    20878437.453    20878439.328                   -20055981.854 9 -20055981.857 9                 -15628044.510 9       568.000         698.000        1126.000                  
G19  19445301.452    19445299.931    19445300.843                   -24276720.945 9 -24276720.948 9                 -18916931.290 9       848.000         690.000        1128.000                  
G20  22648821.800    22648820.709    22648824.416                    -6814953.815 8  -6814953.821 7                  -5310357.881 7       283.000          73.000          92.000                  
G22  23177198.928    23177198.108    23177201.145                    -7412576.348 8  -7412576.345 6                  -5776045.398 7       200.000          38.000          57.000                  
G30  22197502.581    22197501.321    22197507.461                   -13362618.817 8 -13362618.819 8                 -10412440.030 9       266.000         179.000         695.000                  
> 2024 10 31 02 19  0.0000000  0 12
G05  23230075.514    23230075.026    23230078.636                    -8117516.985 8  -8117516.988 8                  -6325346.076 8       220.000         128.000         338.000                  
G06  21928736.366    21928736.968    21928743.270                   -15061439.369 8 -15061439.374 8                 -11736192.297 9       221.000         156.000         822.000                  
G07  23668583.874    23668584.948    23668590.917                    -4843439.224 8  -4843439.228 6                  -3774124.095 8       127.000          39.000         107.000                  
G12  24479395.698    24479394.156    24479399.441                    -3058560.243 8  -3058560.250 6                  -2383308.895 7       131.000          47.000          76.000                  
G13  20269530.074    20269529.579    20269531.278                   -20482734.917 9 -20482734.916 8                 -15960580.598 9       671.000         265.000         572.000                  
G14  23948823.312    23948823.152    23948828.177                    -4189950.397 8  -4189950.403 6                  -3264883.504 6       153.000          36.000          42.000                  
G15  22905013.081    22905012.592    22905015.993                    -7834222.110 8  -7834222.111 8                  -6104601.641 8       239.000         130.000         428.000                  
G17  20922585.779    20922585.324    20922587.286                   -19823984.246 9 -19823984.249 9                 -15447267.453 9       555.000         663.000        1135.000                  
G19  19454430.220    19454428.858    19454429.722                   -24228749.289 9 -24228749.291 9                 -18879550.934 9       841.000         667.000        1102.000                  
G20  22597106.145    22597104.928    22597108.235                    -7086721.320 8  -7086721.324 7                  -5522124.705 7       280.000          74.000          94.000                  
G22  23247035.046    23247033.686    23247036.931                    -7045591.006 8  -7045590.990 6                  -5490083.378 7       195.000          38.000          58.000                  
G30  22210406.533    22210405.775    22210411.945                   -13294807.011 8 -13294807.010 8                 -10359600.022 9       270.000         180.000         698.000                  
> 2024 10 31 02 19 10.0000000  0 12
G05  23210515.573    23210515.160    23210519.046                    -8220304.193 8  -8220304.196 8                  -6405440.091 8       230.000         131.000         335.000                  
G06  21871423.141    21871422.093    21871428.571                   -15362629.884 8 -15362629.889 8                 -11970886.161 9       228.000         167.000         810.000                  
G07  23649834.370    23649834.212    23649840.494                    -4941973.373 8  -4941973.384 6                  -3850904.124 8       120.000          40.000         111.000                  
G12  24479752.857    24479753.007    24479758.691                    -3056675.190 8  -3056675.190 6                  -2381840.293 7       139.000          45.000          72.000                  
G13  20307857.476    20307856.889    20307858.730                   -20281323.663 9 -20281323.662 8                 -15803637.002 9       669.000         273.000         558.000                  
G14  24012564.338    24012563.823    24012568.626                    -3854995.028 8  -3854995.018 6                  -3003880.324 6       142.000          33.000          37.000                  
G15  22955017.257    22955016.952    22955020.585                    -7571449.253 8  -7571449.250 8                  -5899844.113 8       237.000         134.000         408.000                  
G17  20967588.476    20967588.116    20967590.289                   -19587493.874 9 -19587493.877 9                 -15262989.533 9       541.000         639.000        1115.000                  
G19  19464784.375    19464782.773    19464783.788                   -24174339.235 9 -24174339.238 9                 -18837153.635 9       837.000         666.000        1054.000                  
G20  22545666.060    22545664.749    22545668.460                    -7357040.505 8  -7357040.499 7                  -5732762.959 8       279.000          68.000         108.000                  
G22  23317189.004    23317187.767    23317191.368                    -6676929.879 8  -6676929.876 6                  -5202815.570 6       187.000          34.000          49.000                  
G30  22223704.668    22223703.742    22223710.037                   -13224926.915 8 -13224926.914 8                 -10305148.331 9       269.000         171.000         684.000                  
> 2024 10 31 02 19 20.0000000  0 12
G05  23191247.518    23191247.338    23191251.219                    -8321558.091 8  -8321558.088 8                  -6484339.288 8       235.000         136.000         337.000                  
G06  21814742.861    21814742.919    21814749.078                   -15660481.731 8 -15660481.734 8                 -12202978.446 9       239.000         185.000         788.000                  
G07  23631275.070    23631275.243    23631281.582                    -5039503.663 8  -5039503.666 6                  -3926901.894 8       117.000          35.000         126.000                  
G12  24480655.599    24480655.617    24480661.322                    -3051933.058 8  -3051933.084 6                  -2378145.351 7       137.000          46.000          67.000                  
G13  20346761.592    20346760.865    20346762.789                   -20076883.203 9 -20076883.203 8                 -15644332.980 9       673.000         282.000         532.000                  
G14  24076453.503    24076451.880    24076457.001                    -3519263.793 8  -3519263.783 6                  -2742272.592 6       139.000          33.000          37.000                  
G15  23005263.727    23005263.591    23005267.367                    -7307402.853 8  -7307402.860 8                  -5694094.204 8       232.000         131.000         388.000                  
G17  21013437.597    21013436.907    21013439.062                   -19346558.380 9 -19346558.381 9                 -15075247.877 9       537.000         624.000        1083.000                  
G19  19476362.635    19476361.152    19476362.168                   -24113494.755 9 -24113494.758 9                 -18789742.489 9       825.000         650.000        1011.000                  
G20  22494512.214    22494510.617    22494514.597                    -7625855.533 8  -7625855.542 7                  -5942229.118 8       279.000          62.000         113.000                  
G22  23387653.179    23387651.828    23387655.333                    -6306638.393 8  -6306638.409 6                  -4914277.371 6       175.000          34.000          40.000                  
G30  22237395.743    22237395.161    22237401.361                   -13152979.194 8 -13152979.193 8                 -10249085.483 9       262.000         175.000         696.000                  
> 2024 10 31 02 19 30.0000000  0 12
G05  23172278.349    23172277.836    23172281.750                    -8421243.802 8  -8421243.800 8                  -6562016.501 8       240.000         148.000         333.000                  
G06  21758713.482    21758713.363    21758719.184                   -15954919.946 8 -15954919.950 8                 -12432410.738 9       249.000         192.000         788.000                  
G07  23612911.925    23612910.989    23612917.214                    -5136008.805 8  -5136008.798 6                  -4002100.808 8       116.000          39.000         132.000                  
G12  24482106.928    24482105.819    24482111.431                    -3044312.532 8  -3044312.540 6                  -2372207.473 7       133.000          46.000          74.000                  
G13  20386238.510    20386238.023    20386240.026                   -19869430.073 9 -19869430.072 8                 -15482681.415 9       681.000         279.000         514.000                  
G14  24140482.333    24140481.741    24140487.016                    -3182790.542 8  -3182790.548 6                  -2480086.698 6       129.000          37.000          34.000                  
G15  23055751.234    23055750.572    23055754.518                    -7042093.539 8  -7042093.534 8                  -5487360.206 8       230.000         117.000         379.000                  
G17  21060123.104    21060122.480    21060124.723                   -19101224.990 9 -19101224.993 9                 -14884079.282 9       517.000         578.000        1032.000                  
G19  19489164.578    19489163.117    19489164.057                   -24046221.000 9 -24046221.002 9                 -18737321.507 9       822.000         632.000         958.000                  
G20  22443654.968    22443654.115    22443657.448                    -7893109.713 8  -7893109.714 7                  -6150479.022 8       282.000          65.000         116.000                  
G22  23458420.468    23458418.264    23458422.371                    -5934760.735 8  -5934760.734 6                  -4624503.192 6       165.000          26.000          42.000                  
G30  22251480.829    22251480.063    22251486.382                   -13078963.899 8 -13078963.898 8                 -10191411.522 9       263.000         171.000         694.000                  
> 2024 10 31 02 19 40.0000000  0 12
G05  23153604.140    23153603.999    23153607.827                    -8519375.898 8  -8519375.895 8                  -6638483.086 8       244.000         146.000         331.000                  
G06  21703337.750    21703337.848    21703343.820                   -16245919.004 8 -16245919.007 8                 -12659163.157 9       258.000         193.000         811.000                  
G07  23594736.119    23594736.179    23594742.791                    -5231516.707 8  -5231516.698 6                  -4076522.634 8       117.000          40.000         139.000                  
G12  24484099.566    24484098.742    24484104.243                    -3033841.983 8  -3033841.969 6                  -2364048.785 7       135.000          42.000          79.000                  
G13  20426276.590    20426275.855    20426277.986                   -19659030.416 9 -19659030.416 8                 -15318733.844 8       690.000         291.000         479.000                  
G14  24204636.772    24204636.516    24204643.074                    -2845657.955 8  -2845657.961 6                  -2217387.043 6       124.000          29.000          36.000                  
G15  23106466.397    23106466.891    23106470.648                    -6775581.151 8  -6775581.151 8                  -5279688.742 8       222.000         111.000         363.000                  
G17  21107626.917    21107626.432    21107628.751                   -18851590.831 8 -18851590.835 9                 -14689559.436 9       495.000         526.000         974.000                  
G19  19503179.275    19503177.696    19503178.632                   -23972574.330 9 -23972574.332 9                 -18679934.609 9       805.000         623.000         928.000                  
G20  22393096.594    22393095.381    22393099.459                    -8158795.368 8  -8158795.372 7                  -6357506.680 8       283.000          71.000         125.000                  
G22  23529471.461    23529468.622    23529472.332                    -5561390.057 8  -5561390.081 6                  -4333565.636 6       150.000          28.000          36.000                  
G30  22265949.569    22265949.019    22265955.415                   -13002930.514 8 -13002930.521 8                 -10132165.008 9       257.000         165.000         693.000                  
> 2024 10 31 02 19 50.0000000  0 12
G05  23135234.533    23135234.530    23135238.089                    -8615908.779 8  -8615908.774 8                  -6713703.509 8       246.000         150.000         330.000                  
G06  21648633.198    21648633.208    21648639.214                   -16533393.470 8 -16533393.472 8                 -12883169.123 9       268.000         218.000         839.000                  
G07  23576758.748    23576757.987    23576763.822                    -5325995.113 8  -5325995.115 6                  -4150142.219 8       117.000          38.000         141.000                  
G12  24486640.473    24486639.676    24486644.649                    -3020490.485 8  -3020490.487 6                  -2353645.161 7       128.000          39.000          81.000                  
G13  20466873.786    20466873.251    20466875.422                   -19445690.516 9 -19445690.516 8                 -15152495.165 8       696.000         284.000         442.000                  
G14  24268912.969    24268913.447    24268918.742                    -2507888.149 8  -2507888.146 6                  -1954190.924 6       118.000          26.000          34.000                  
G15  23157411.934    23157411.552    23157416.014                    -6507865.187 8  -6507865.190 8                  -5071079.427 8       213.000         112.000         352.000                  
G17  21155941.793    21155941.639    21155944.030                   -18597693.437 8 -18597693.438 8                 -14491717.582 9       472.000         484.000         945.000                  
G19  19518406.762    19518405.342    19518406.357                   -23892552.973 9 -23892552.975 9                 -18617580.416 9       787.000         590.000         935.000                  
G20  22342849.705    22342848.556    22342852.213                    -8422844.560 8  -8422844.555 7                  -6563259.162 8       284.000          62.000         123.000                  
G22  23600799.615    23600796.806    23600801.410                    -5186559.012 8  -5186558.996 6                  -4041490.124 6       144.000          24.000          35.000                  
G30  22280804.972    22280804.021    22280810.333                   -12924868.536 8 -12924868.533 8                 -10071337.751 9       251.000         154.000         683.000                  
> 2024 10 31 02 20  0.0000000  0 12
G05  23117171.638    23117171.537    23117174.960                    -8710831.072 8  -8710831.072 8                  -6787668.913 8       251.000         160.000         316.000                  
G06  21594608.978    21594608.996    21594614.896                   -16817292.260 8 -16817292.264 8                 -13104388.838 9       274.000         231.000         864.000                  
G07  23558975.040    23558974.860    23558980.854                    -5419445.888 8  -5419445.899 6                  -4222961.014 8       113.000          32.000         147.000                  
G12  24489728.546    24489727.818    24489733.176                    -3004261.707 8  -3004261.716 6                  -2340999.481 7       125.000          42.000          84.000                  
G13  20508023.251    20508022.605    20508024.735                   -19229450.971 9 -19229450.969 8                 -14983997.014 8       694.000         285.000         403.000                  
G14  24333300.712    24333300.747    24333306.322                    -2169536.981 8  -2169536.983 6                  -1690541.760 6       114.000          26.000          35.000                  
G15  23208579.794    23208579.735    23208583.866                    -6238979.254 8  -6238979.251 7                  -4861558.445 8       210.000          93.000         336.000                  
G17  21205054.816    21205054.439    21205056.972                   -18339604.912 8 -18339604.915 8                 -14290609.909 9       459.000         456.000         915.000                  
G19  19534840.977    19534839.470    19534840.647                   -23806191.028 9 -23806191.031 9                 -18550285.492 9       778.000         581.000         930.000                  
G20  22292920.473    22292919.109    22292922.960                    -8685223.306 8  -8685223.300 7                  -6767709.987 8       283.000          68.000         130.000                  
G22  23672393.092    23672390.875    23672394.911                    -4810333.883 8  -4810333.906 6                  -3748328.351 6       135.000          30.000          33.000                  
G30  22296040.918    22296040.159    22296046.803                   -12844801.697 8 -12844801.695 8                 -10008948.248 9       252.000         160.000         676.000                  
> 2024 10 31 02 20 10.0000000  0 12
G05  23099416.037    23099415.879    23099419.333                    -8804136.882 8  -8804136.883 8                  -6860374.701 8       252.000         159.000         318.000                  
G06  21541273.948    21541273.527    21541279.770                   -17097570.121 8 -17097570.125 8                 -13322787.040 9       282.000         237.000         919.000                  
G07  23541386.633    23541385.439    23541391.961                    -5511876.433 8  -5511876.426 6                  -4294984.798 8       115.000          30.000         151.000                  
G12  24493363.169    24493361.390    24493367.511                    -2985165.396 8  -2985165.401 6                  -2326119.335 7       125.000          43.000          80.000                  
G13  20549715.183    20549714.824    20549716.787                   -19010358.069 9 -19010358.069 8                 -14813275.464 8       694.000         292.000         369.000                  
G14  24397787.666    24397785.727    24397793.144                    -1830665.471 8  -1830665.430 6                  -1426487.202 6       110.000          26.000          32.000                  
G15  23259962.695    23259962.167    23259966.915                    -5968962.336 8  -5968962.337 7                  -4651156.177 8       205.000          92.000         327.000                  
G17  21254950.638    21254950.016    21254952.535                   -18077403.402 8 -18077403.404 8                 -14086297.306 9       453.000         442.000         886.000                  
G19  19552473.722    19552472.312    19552473.555                   -23713530.145 9 -23713530.148 9                 -18478082.296 9       769.000         573.000         905.000                  
G20  22243314.888    22243313.327    22243317.160                    -8945902.944 8  -8945902.937 7                  -6970836.812 8       283.000          72.000         134.000                  
G22  23744238.670    23744236.057    23744240.901                    -4432786.156 8  -4432786.132 6                  -3454136.005 6       127.000          24.000          30.000                  
G30  22311652.575    22311652.452    22311659.081                   -12762759.445 8 -12762759.447 8                  -9945019.447 9       250.000         156.000         651.000                  
> 2024 10 31 02 20 20.0000000  0 12
G05  23081977.185    23081976.731    23081980.464                    -8895779.250 8  -8895779.253 8                  -6931784.279 8       253.000         162.000         316.000                  
G06  21488644.263    21488644.030    21488649.881                   -17374140.883 8 -17374140.887 8                 -13538296.578 9       290.000         264.000         968.000                  
G07  23523997.614    23523997.270    23524003.820                    -5603252.938 8  -5603252.905 6                  -4366187.225 8       111.000          32.000         159.000                  
G12  24497546.996    24497547.198    24497552.997                    -2963170.703 8  -2963170.700 6                  -2308980.683 7       118.000          36.000          87.000                  
G13  20591949.149    20591948.667    20591950.986                   -18788417.110 9 -18788417.111 8                 -14640334.635 8       687.000         281.000         337.000                  
G14  24462367.977    24462367.336    24462374.554                    -1491293.001 8  -1491292.991 6                  -1162042.302 6       103.000          25.000          33.000                  
G15  23311560.979    23311560.712    23311565.761                    -5697812.155 8  -5697812.160 7                  -4439870.836 8       200.000          92.000         307.000                  
G17  21305621.613    21305620.989    21305623.539                   -17811126.335 8 -17811126.339 8                 -13878808.931 9       446.000         423.000         885.000                  
G19  19571304.850    19571303.503    19571304.560                   -23614572.492 9 -23614572.495 9                 -18400972.518 9       774.000         579.000         868.000                  
G20  22194045.535    22194044.136    22194048.052                    -9204813.521 8  -9204813.512 7                  -7172585.132 8       286.000          64.000         143.000                  
G22  23816329.486    23816327.600    23816331.627                    -4053945.495 8  -4053945.500 6                  -3158936.153 6       121.000          22.000          25.000                  
G30  22327643.464    22327642.805    22327649.482                   -12678730.135 8 -12678730.135 8                  -9879542.271 9       250.000         152.000         639.000                  
> 2024 10 31 02 20 30.0000000  0 12
G05  23064852.780    23064852.089    23064855.701                    -8985769.792 8  -8985769.793 8                  -7001906.696 8       256.000         160.000         310.000                  
G06  21436724.817    21436724.821    21436730.652                   -17646977.413 8 -17646977.416 8                 -13750896.313 9       303.000         281.000         991.000                  
G07  23506805.507    23506804.567    23506810.768                    -5693600.496 8  -5693600.497 6                  -4436587.840 8       111.000          39.000         159.000                  
G12  24502280.550    24502278.294    24502284.435                    -2938306.100 8  -2938306.107 6                  -2289605.699 7       111.000          33.000          86.000                  
G13  20634713.129    20634712.678    20634714.730                   -18563692.220 9 -18563692.222 8                 -14465224.501 8       675.000         273.000         295.000                  
G14  24527030.886    24527029.304    24527036.057                    -1151497.238 8  -1151497.234 6                   -897267.578 6       101.000          23.000          35.000                  
G15  23363364.934    23363364.305    23363369.323                    -5425584.970 8  -5425584.969 7                  -4227746.273 8       194.000          92.000         296.000                  
G17  21357049.595    21357049.198    21357051.889                   -17540870.046 8 -17540870.049 8                 -13668219.856 9       431.000         409.000         894.000                  
G19  19591322.342    19591320.629    19591321.936                   -23509380.833 9 -23509380.837 9                 -18319005.063 9       780.000         575.000         834.000                  
G20  22145115.029    22145113.649    22145117.606                    -9461943.592 8  -9461943.596 7                  -7372946.028 8       296.000          75.000         147.000                  
G22  23888650.619    23888648.494    23888653.361                    -3673900.074 8  -3673900.106 6                  -2862797.558 6       114.000          26.000          25.000                  
G30  22344003.720    22344002.414    22344009.074                   -12592760.967 8 -12592760.968 8                  -9812553.500 9       255.000         151.000         622.000                  
> 2024 10 31 02 20 40.0000000  0 12
G05  23048048.117    23048047.698    23048051.345                    -9074076.257 8  -9074076.257 8                  -7070716.830 8       254.000         162.000         309.000                  
G06  21385529.873    21385529.636    21385535.543                   -17916008.721 8 -17916008.725 8                 -13960530.928 9       317.000         309.000        1021.000                  
G07  23489811.778    23489811.744    23489817.842                    -5782899.578 8  -5782899.581 6                  -4506171.428 8       116.000          39.000         161.000                  
G12  24507560.947    24507559.043    24507564.898                    -2910556.414 8  -2910556.417 6                  -2267982.589 7       113.000          37.000          84.000                  
G13  20678003.081    20678002.419    20678004.501                   -18336203.555 9 -18336203.557 8                 -14287960.764 8       662.000         264.000         265.000                  
G14  24591765.882    24591764.537    24591773.679                     -811311.257 7   -811311.262 6                   -632188.840 6        94.000          23.000          31.000                  
G15  23415371.053    23415370.601    23415375.657                    -5152292.872 8  -5152292.869 7                  -4014791.907 8       193.000          87.000         270.000                  
G17  21409225.038    21409224.613    21409227.550                   -17266687.193 8 -17266687.196 8                 -13454571.108 9       423.000         384.000         909.000                  
G19  19612522.086    19612520.457    19612521.688                   -23397975.551 9 -23397975.553 9                 -18232195.818 9       780.000         579.000         809.000                  
G20  22096533.932    22096532.956    22096536.326                    -9717237.439 8  -9717237.439 7                  -7571876.085 8       304.000          72.000         142.000                  
G22  23961193.137    23961189.221    23961194.625                    -3292693.443 8  -3292693.427 6                  -2565754.196 6       112.000          19.000          19.000                  
G30  22360731.015    22360730.505    22360737.170                   -12504855.105 8 -12504855.098 8                  -9744055.590 9       254.000         148.000         609.000                  
> 2024 10 31 02 20 50.0000000  0 12
G05  23031570.688    23031570.497    23031573.909                    -9160665.593 8  -9160665.594 8                  -7138188.921 8       255.000         163.000         308.000                  
G06  21335072.426    21335072.201    21335078.111                   -18181163.350 8 -18181163.355 8                 -14167144.742 9       329.000         337.000        1056.000                  
G07  23473022.123    23473021.645    23473027.973                    -5871130.055 8  -5871130.073 6                  -4574922.305 8       119.000          32.000         168.000                  
G12  24513392.915    24513391.743    24513397.552                    -2879906.186 8  -2879906.158 6                  -2244099.283 7       113.000          37.000          88.000                  
G13  20721814.951    20721814.420    20721816.503                   -18105970.563 9 -18105970.563 8                 -14108558.575 8       628.000         239.000         249.000                  
G14  24656569.083    24656569.070    24656578.192                     -470766.855 7   -470766.890 6                   -366830.858 6        96.000          31.000          33.000                  
G15  23467578.255    23467577.735    23467582.357                    -4877946.853 8  -4877946.857 7                  -3801016.300 8       192.000          82.000         251.000                  
G17  21462137.618    21462137.253    21462140.349                   -16988629.821 8 -16988629.822 8                 -13237903.240 9       409.000         356.000         933.000                  
G19  19634900.178    19634898.699    19634899.869                   -23280377.944 9 -23280377.947 9                 -18140561.377 9       783.000         597.000         774.000                  
G20  22048313.519    22048312.328    22048315.488                    -9970638.366 8  -9970638.363 7                  -7769331.125 8       314.000          83.000         136.000                  
G22  24033947.484    24033944.187    24033949.987                    -2910367.734 8  -2910367.712 6                  -2267838.715 6       108.000          20.000          20.000                  
G30  22377827.562    22377826.571    22377833.389                   -12415014.888 8 -12415014.886 8                  -9674050.375 9       250.000         163.000         598.000                  
> 2024 10 31 02 21  0.0000000  0 12
G05  23015417.405    23015417.072    23015420.570                    -9245550.689 8  -9245550.690 8                  -7204333.003 8       253.000         156.000         302.000                  
G06  21285357.501    21285357.456    21285363.190                   -18442416.047 8 -18442416.051 8                 -14370718.074 9       354.000         381.000        1068.000                  
G07  23456430.272    23456429.895    23456436.591                    -5958317.495 8  -5958317.502 6                  -4642860.400 8       120.000          40.000         169.000                  
G12  24519770.589    24519770.748    24519776.300                    -2846386.387 8  -2846386.401 6                  -2217979.922 7       117.000          38.000          91.000                  
G13  20766136.606    20766135.938    20766138.338                   -17873058.577 9 -17873058.578 8                 -13927068.844 8       602.000         213.000         227.000                  
G14  24721429.318    24721426.552    24721435.736                     -129941.180 7   -129941.187 6                   -101253.738 6        84.000          22.000          23.000                  
G15  23519974.227    23519974.245    23519978.983                    -4602603.594 8  -4602603.589 7                  -3586463.613 8       185.000          83.000         235.000                  
G17  21515769.154    21515768.663    21515771.655                   -16706796.173 8 -16706796.177 8                 -13018292.811 9       394.000         339.000         945.000                  
G19  19658443.576    19658442.019    19658443.196                   -23156656.720 9 -23156656.722 9                 -18044155.275 9       784.000         586.000         719.000                  
G20  22000454.984    22000453.742    22000456.956                   -10222135.414 8 -10222135.421 7                  -7965302.602 8       318.000          80.000         135.000                  
G22  24106897.788    24106895.138    24106901.638                    -2527010.393 8  -2527010.421 6                  -1969119.461 6       105.000          20.000          21.000                  
G30  22395282.786    22395281.939    22395288.472                   -12323288.679 8 -12323288.678 8                  -9602575.527 9       252.000         152.000         584.000                  
> 2024 10 31 02 21 10.0000000  0 12
G05  22999594.989    22999594.919    22999598.147                    -9328696.955 8  -9328696.955 8                  -7269122.132 8       253.000         157.000         297.000                  
G06  21236398.933    21236399.003    21236404.403                   -18699694.631 8 -18699694.632 8                 -14571194.680 9       381.000         443.000        1072.000                  
G07  23440042.415    23440041.676    23440047.741                    -6044440.226 8  -6044440.222 6                  -4709968.814 8       122.000          47.000         169.000                  
G12  24526699.106    24526698.138    24526703.899                    -2809981.230 8  -2809981.249 6                  -2189612.220 7       115.000          38.000          96.000                  
G13  20810964.574    20810964.123    20810966.529                   -17637485.794 9 -17637485.796 8                 -13743505.752 8       572.000         194.000         213.000                  
G14  24786332.858    24786332.016    24786342.255                      211136.353 7    211136.331 6                    164519.613 6        81.000          22.000          29.000                  
G15  23572558.899    23572558.223    23572563.481                    -4326272.340 8  -4326272.342 7                  -3371141.056 8       177.000          73.000         220.000                  
G17  21570109.424    21570108.782    21570111.875                   -16421237.353 8 -16421237.356 8                 -12795779.637 9       378.000         318.000         941.000                  
G19  19683147.829    19683146.406    19683147.469                   -23026834.996 9 -23026834.998 9                 -17942995.526 9       784.000         591.000         684.000                  
G20  21952969.530    21952968.761    21952972.043                   -10471670.029 8 -10471670.032 7                  -8159744.897 8       320.000          80.000         147.000                  
G22  24180037.621    24180035.303    24180040.530                    -2142661.167 7  -2142661.166 6                  -1669627.377 6        96.000          22.000          17.000                  
G30  22413096.453    22413095.518    22413102.059                   -12229677.541 8 -12229677.541 8                  -9529631.885 9       259.000         157.000         577.000                  
