     3.03           OBSERVATION DATA    M (MIXED)           RINEX VERSION / TYPE
BJPP                CNES                20241031 110226 UTC PGM / RUN BY / DATE 
MARKER                                                      MARKER NAME         
SPACECRAFT                                                  MARKER TYPE         
OBSERVER            CNES                                    OBSERVER / AGENCY   
RECNUM              BLACKJACK           RECVERS             REC # / TYPE / VERS 
ANTNUM              BLACKJACK                               ANT # / TYPE        
        0.0000        0.0000        0.0000                  ANTENNA: DELTA H/E/N
G   12 C1C C1W C2W C2X L1C L1W L2X L2W S1C S1W S2W S2X      SYS / # / OBS TYPES 
DBHZ                                                        SIGNAL STRENGTH UNIT
This rinex produced from the following file(s):             COMMENT             
/tmp/mesos_work/slaves/d197f515-9ebc-49f2-8adc-fe7a9d3e6458-COMMENT             
S5/frameworks/8c1b9f46-52ed-4aff-9edf-38d17bf6761e-2970/execCOMMENT             
utors/toil-62248/runs/06bf7176-74b4-4b18-b223-5a6f300836d0/cCOMMENT             
a2182e6ee3553bf9b59b054c5b8e478/da0c/9e85/tmpcvyx6y6n2n8vothCOMMENT             
p/stg7a861221-164c-42f8-ab34-1e7fe2af0a03/SWOT_KRX_20241031TCOMMENT             
102031_20241031T082719_20241031T095949_O_APID1280.PTM_0     COMMENT             
  2024    10    31     8    27    0.0000000                 TIME OF FIRST OBS   
G L1C                                                       SYS / PHASE SHIFT   
G L1W -0.25000                                              SYS / PHASE SHIFT   
G L2W                                                       SYS / PHASE SHIFT   
G L2X  0.25000                                              SYS / PHASE SHIFT   
                                                            END OF HEADER       
> 2024 10 31 08 27  0.0000000  0 11
G05  22484764.487    22484764.849    22484765.184                   -12166954.463 8 -12166954.462 8                  -9480742.940 8       301.000         214.000         456.000                  
G06  20305177.697    20305177.545    20305180.736                   -23608980.822 9 -23608980.824 9                 -18396607.111 9       681.000        1412.000        2567.000                  
G07  23817619.800    23817619.415    23817620.353                    -5720517.812 8  -5720517.812 7                  -4457548.556 8       201.000          94.000         133.000                  
G09  22612513.522    22612513.279    22612515.687                    -7068325.933 8  -7068325.932 8                  -5507788.811 9       253.000         190.000         520.000                  
G11  20637337.535    20637337.282    20637337.809                    -5784612.901 9  -5784612.900 8                  -4507492.664 9       635.000         494.000         576.000                  
G12  25030037.297    25030037.230    25030038.834                      325032.852 7    325032.853 6                    253272.315 6        83.000          26.000          47.000                  
G13  22674900.916    22674899.919    22674901.514                   -10640664.413 8 -10640664.433 6                  -8291332.458 7       149.000          25.000          51.000                  
G17  23249065.120    23249064.205    23249064.805                    -5532046.044 8  -5532046.050 8                  -4310679.643 8       218.000         104.000         219.000                  
G19  20907020.462    20907019.040    20907019.428                   -14017230.477 8 -14017230.479 8                 -10922513.996 8       456.000         211.000         259.000                  
G20  20779525.170    20779524.115    20779524.626                   -21102735.177 9 -21102735.179 8                 -16443688.117 8       610.000         309.000         253.000                  
G30  23428444.716    23428444.584    23428448.317                    -6396692.943 8  -6396692.937 7                  -4984430.495 8       203.000          99.000         186.000                  
> 2024 10 31 08 27 10.0000000  0 11
G05  22482450.843    22482450.391    22482450.839                   -12179116.216 8 -12179116.213 8                  -9490219.568 8       304.000         225.000         466.000                  
G06  20288574.605    20288574.485    20288577.940                   -23696229.202 9 -23696229.205 9                 -18464592.841 9       661.000        1345.000        2572.000                  
G07  23804769.979    23804769.387    23804770.687                    -5788044.721 8  -5788044.719 7                  -4510166.892 8       202.000          94.000         132.000                  
G09  22561985.274    22561984.583    22561986.872                    -7333856.282 8  -7333856.284 8                  -5714695.516 9       257.000         201.000         529.000                  
G11  20594703.434    20594703.149    20594703.854                    -6008655.897 9  -6008655.895 8                  -4682071.562 9       640.000         498.000         610.000                  
G12  25059535.404    25059534.136    25059535.393                      480039.294 7    480039.288 6                    374056.567 6        84.000          22.000          42.000                  
G13  22733184.082    22733184.276    22733185.024                   -10334381.491 8 -10334381.514 6                  -8052670.452 6       144.000          23.000          43.000                  
G17  23319133.610    23319133.071    23319133.628                    -5163831.906 8  -5163831.903 7                  -4023759.579 8       208.000          95.000         196.000                  
G19  20967968.691    20967967.013    20967967.335                   -13696946.063 8 -13696946.063 8                 -10672941.735 8       428.000         178.000         262.000                  
G20  20749948.001    20749946.562    20749946.976                   -21258165.580 9 -21258165.581 8                 -16564802.672 8       622.000         309.000         261.000                  
G30  23454449.488    23454448.975    23454452.707                    -6260039.072 8  -6260039.072 8                  -4877946.970 8       199.000         101.000         186.000                  
> 2024 10 31 08 27 20.0000000  0 11
G05  22480566.143    22480565.996    22480566.263                   -12189019.024 8 -12189019.024 8                  -9497935.993 8       306.000         220.000         468.000                  
G06  20272994.587    20272994.488    20272997.749                   -23778103.446 9 -23778103.448 9                 -18528390.924 9       675.000        1386.000        2510.000                  
G07  23792148.591    23792147.972    23792149.164                    -5854370.981 8  -5854370.986 7                  -4561849.659 8       200.000          99.000         132.000                  
G09  22511748.725    22511748.203    22511750.629                    -7597849.910 8  -7597849.915 8                  -5920404.783 9       263.000         204.000         535.000                  
G11  20552929.365    20552929.110    20552929.673                    -6228180.536 9  -6228180.534 9                  -4853129.678 9       645.000         508.000         616.000                  
G12  25089500.353    25089498.190    25089499.050                      637501.240 7    637501.220 6                    496754.142 6        82.000          26.000          41.000                  
G13  22791718.044    22791717.413    22791718.379                   -10026786.597 8 -10026786.625 6                  -7812986.151 6       136.000          26.000          47.000                  
G17  23389490.803    23389489.769    23389490.349                    -4794104.079 8  -4794104.077 7                  -3735660.005 8       197.000          91.000         173.000                  
G19  21029622.549    21029620.754    21029621.290                   -13372952.995 8 -13372952.998 8                 -10420479.611 8       410.000         165.000         259.000                  
G20  20721025.035    20721023.551    20721024.142                   -21410156.502 9 -21410156.503 8                 -16683237.106 8       631.000         325.000         267.000                  
G30  23480689.784    23480688.877    23480692.748                    -6122146.106 8  -6122146.098 7                  -4770497.920 8       195.000          90.000         183.000                  
> 2024 10 31 08 27 30.0000000  0 11
G05  22479116.252    22479116.165    22479116.431                   -12196637.976 8 -12196637.977 8                  -9503872.793 8       302.000         218.000         477.000                  
G06  20258443.316    20258443.157    20258446.398                   -23854571.141 9 -23854571.144 9                 -18587976.111 9       700.000        1489.000        2491.000                  
G07  23779759.741    23779759.059    23779759.958                    -5919474.327 8  -5919474.330 7                  -4612579.505 8       198.000          94.000         134.000                  
G09  22461812.865    22461812.550    22461815.023                    -7860262.808 8  -7860262.807 8                  -6124882.312 9       261.000         200.000         560.000                  
G11  20512028.498    20512028.408    20512028.959                    -6443115.072 9  -6443115.068 9                  -5020611.100 9       652.000         514.000         632.000                  
G12  25119928.643    25119927.245    25119928.324                      797408.516 7    797408.529 6                    621357.180 6        81.000          29.000          36.000                  
G13  22850497.926    22850496.423    22850497.870                    -9717898.888 8  -9717898.868 6                  -7572294.435 6       124.000          21.000          41.000                  
G17  23460126.312    23460125.410    23460126.316                    -4422912.249 8  -4422912.252 7                  -3446419.667 8       191.000          83.000         160.000                  
G19  21091970.647    21091969.009    21091969.374                   -13045311.689 8 -13045311.689 8                 -10165174.701 8       398.000         158.000         274.000                  
G20  20692766.022    20692764.885    20692765.153                   -21558657.838 9 -21558657.841 8                 -16798952.397 8       646.000         335.000         281.000                  
G30  23507164.785    23507164.268    23507168.271                    -5983017.054 8  -5983017.052 7                  -4662085.688 8       194.000          94.000         178.000                  
> 2024 10 31 08 27 40.0000000  0 11
G05  22478096.361    22478096.119    22478096.645                   -12201996.899 8 -12201996.896 8                  -9508048.520 8       301.000         215.000         477.000                  
G06  20244917.402    20244917.427    20244920.597                   -23925649.575 9 -23925649.577 9                 -18643361.872 9       721.000        1573.000        2450.000                  
G07  23767598.551    23767598.063    23767599.267                    -5983380.692 8  -5983380.695 7                  -4662376.637 8       202.000         100.000         136.000                  
G09  22412177.423    22412177.132    22412179.484                    -8121099.197 8  -8121099.201 8                  -6328131.396 9       260.000         201.000         580.000                  
G11  20472005.855    20472005.381    20472006.038                    -6653436.749 9  -6653436.746 9                  -5184498.091 9       652.000         510.000         642.000                  
G12  25150812.673    25150810.937    25150811.519                      959702.383 7    959702.393 6                    747819.887 6        78.000          31.000          31.000                  
G13  22909509.874    22909508.507    22909510.308                    -9407785.694 8  -9407785.710 6                  -7330647.789 6       124.000          22.000          41.000                  
G17  23531021.270    23531020.924    23531021.634                    -4050354.012 8  -4050354.011 7                  -3156114.601 8       182.000          74.000         144.000                  
G19  21154992.057    21154990.556    21154990.993                   -12714130.935 8 -12714130.935 8                  -9907111.784 8       381.000         142.000         284.000                  
G20  20665171.486    20665170.206    20665170.631                   -21703668.338 9 -21703668.339 8                 -16911947.562 8       647.000         338.000         292.000                  
G30  23533866.100    23533865.023    23533868.819                    -5842703.159 8  -5842703.163 7                  -4552750.194 8       189.000          91.000         174.000                  
> 2024 10 31 08 27 50.0000000  0 11
G05  22477515.294    22477514.580    22477514.972                   -12205053.580 8 -12205053.580 8                  -9510430.290 8       302.000         221.000         478.000                  
G06  20232426.192    20232426.148    20232429.288                   -23991291.392 9 -23991291.396 9                 -18694511.312 9       732.000        1637.000        2398.000                  
G07  23755673.028    23755672.590    23755673.611                    -6046050.014 8  -6046050.015 7                  -4711209.836 8       200.000          94.000         135.000                  
G09  22362853.783    22362853.314    22362855.692                    -8380297.085 8  -8380297.088 8                  -6530103.722 9       262.000         204.000         613.000                  
G11  20432877.437    20432877.165    20432877.626                    -6859057.459 9  -6859057.454 9                  -5344721.982 9       654.000         510.000         640.000                  
G12  25182151.806    25182150.240    25182151.687                     1124389.977 7   1124389.970 6                    876147.890 6        73.000          29.000          31.000                  
G13  22968755.130    22968754.435    22968755.958                    -9096448.002 8  -9096448.018 6                  -7088047.039 6       119.000          24.000          42.000                  
G17  23602170.961    23602170.648    23602171.386                    -3676460.311 8  -3676460.321 7                  -2864768.909 8       172.000          65.000         131.000                  
G19  21218678.918    21218677.545    21218677.811                   -12379453.429 8 -12379453.428 8                  -9646324.135 8       361.000         133.000         277.000                  
G20  20638253.824    20638252.556    20638253.173                   -21845121.019 9 -21845121.019 8                 -17022170.402 8       651.000         341.000         326.000                  
G30  23560795.111    23560794.276    23560797.959                    -5701189.558 8  -5701189.555 7                  -4442479.859 8       184.000          84.000         166.000                  
> 2024 10 31 08 28  0.0000000  0 11
G05  22477367.796    22477367.153    22477367.687                   -12205827.337 8 -12205827.340 8                  -9511033.162 8       298.000         215.000         472.000                  
G06  20220966.709    20220966.609    20220969.775                   -24051511.433 9 -24051511.436 9                 -18741435.986 9       740.000        1681.000        2333.000                  
G07  23743978.174    23743978.248    23743979.306                    -6107503.095 8  -6107503.093 7                  -4759095.317 8       200.000          91.000         137.000                  
G09  22313841.714    22313841.550    22313843.925                    -8637855.253 8  -8637855.254 8                  -6730798.342 9       266.000         205.000         625.000                  
G11  20394648.417    20394648.486    20394649.007                    -7059950.624 9  -7059950.621 9                  -5501262.067 9       652.000         519.000         651.000                  
G12  25213934.960    25213934.275    25213935.671                     1291417.162 7   1291417.146 6                   1006298.885 6        74.000          20.000          31.000                  
G13  23028222.529    23028222.335    23028222.620                    -8783947.414 8  -8783947.401 6                  -6844540.126 6       118.000          23.000          38.000                  
G17  23673557.683    23673557.164    23673557.846                    -3301322.494 8  -3301322.497 7                  -2572453.778 8       164.000          57.000         123.000                  
G19  21283011.995    21283010.389    21283010.673                   -12041382.663 8 -12041382.666 8                  -9382892.387 8       360.000         131.000         270.000                  
G20  20612014.322    20612013.119    20612013.791                   -21983010.138 9 -21983010.140 8                 -17129616.423 8       652.000         341.000         334.000                  
G30  23587943.172    23587942.757    23587946.731                    -5558522.126 8  -5558522.121 7                  -4331310.441 8       184.000          81.000         161.000                  
> 2024 10 31 08 28 10.0000000  0 11
G05  22477658.501    22477657.826    22477658.283                   -12204299.589 8 -12204299.584 8                  -9509842.657 8       292.000         202.000         462.000                  
G06  20210542.973    20210542.840    20210545.875                   -24106288.442 9 -24106288.444 9                 -18784119.339 9       729.000        1630.000        2216.000                  
G07  23732519.131    23732518.803    23732520.015                    -6167722.959 8  -6167722.961 7                  -4806019.853 8       197.000          97.000         138.000                  
G09  22265149.694    22265149.227    22265151.607                    -8893734.833 8  -8893734.838 8                  -6930184.978 9       268.000         209.000         626.000                  
G11  20357331.564    20357331.240    20357331.986                    -7256052.885 9  -7256052.882 9                  -5654068.976 9       656.000         524.000         672.000                  
G12  25246160.979    25246160.376    25246161.683                     1460767.184 7   1460767.179 6                   1138259.955 6        72.000          19.000          25.000                  
G13  23087906.128    23087905.960    23087906.315                    -8470307.780 8  -8470307.824 6                  -6600145.610 6       114.000          19.000          31.000                  
G17  23745170.953    23745170.173    23745170.984                    -2924993.878 8  -2924993.877 7                  -2279210.768 8       157.000          51.000         118.000                  
G19  21347978.001    21347976.433    21347976.548                   -11699984.431 8 -11699984.433 8                  -9116867.800 8       354.000         123.000         279.000                  
G20  20586461.252    20586459.876    20586460.435                   -22117292.931 9 -22117292.932 8                 -17234252.328 8       648.000         336.000         350.000                  
G30  23615310.727    23615309.441    23615313.220                    -5414709.064 8  -5414709.071 7                  -4219248.323 8       185.000          77.000         152.000                  
> 2024 10 31 08 28 20.0000000  0 11
G05  22478392.935    22478392.751    22478392.971                   -12200438.393 8 -12200438.396 8                  -9506833.917 8       291.000         202.000         450.000                  
G06  20201161.551    20201161.390    20201164.380                   -24155588.611 9 -24155588.615 9                 -18822535.024 9       745.000        1688.000        2225.000                  
G07  23721299.879    23721299.923    23721301.096                    -6226678.748 8  -6226678.751 8                  -4851959.385 8       198.000         102.000         140.000                  
G09  22216786.895    22216786.390    22216788.842                    -9147882.923 8  -9147882.925 8                  -7128222.403 9       262.000         205.000         623.000                  
G11  20320940.753    20320940.537    20320941.041                    -7447287.810 9  -7447287.807 9                  -5803083.173 9       666.000         542.000         673.000                  
G12  25278828.536    25278828.054    25278829.851                     1632436.654 7   1632436.674 6                   1272028.388 6        69.000          28.000          31.000                  
G13  23147804.260    23147803.484    23147804.746                    -8155538.761 8  -8155538.776 6                  -6354871.078 6       110.000          21.000          30.000                  
G17  23817002.580    23817002.531    23817003.413                    -2547513.240 8  -2547513.230 6                  -1985070.083 8       143.000          47.000         114.000                  
G19  21413567.207    21413565.621    21413565.855                   -11355310.297 8 -11355310.296 8                  -8848290.563 8       343.000         119.000         273.000                  
G20  20561605.233    20561603.706    20561604.223                   -22247913.122 9 -22247913.124 8                 -17336034.244 8       635.000         335.000         354.000                  
G30  23642896.655    23642895.637    23642899.118                    -5269744.558 8  -5269744.553 7                  -4106288.972 8       183.000          82.000         148.000                  
> 2024 10 31 08 28 30.0000000  0 11
G05  22479565.493    22479565.431    22479565.817                   -12194275.055 8 -12194275.055 8                  -9502031.290 8       290.000         193.000         428.000                  
G06  20192816.259    20192816.128    20192819.341                   -24199442.493 9 -24199442.495 9                 -18856706.851 9       726.000        1621.000        2308.000                  
G07  23710315.967    23710315.432    23710316.439                    -6284402.518 8  -6284402.519 7                  -4896938.901 8       204.000          99.000         145.000                  
G09  22168751.272    22168751.027    22168753.588                    -9400309.458 8  -9400309.458 8                  -7324918.358 9       256.000         198.000         615.000                  
G11  20285478.612    20285478.434    20285478.781                    -7633642.658 9  -7633642.654 9                  -5948294.721 9       684.000         558.000         678.000                  
G12  25311924.870    25311924.008    25311925.859                     1806359.316 7   1806359.339 6                   1407552.511 6        68.000          23.000          30.000                  
G13  23207903.460    23207903.293    23207905.007                    -7839712.679 8  -7839712.694 6                  -6108772.863 6       112.000          23.000          30.000                  
G17  23889034.924    23889034.517    23889035.483                    -2168981.846 8  -2168981.862 6                  -1690110.638 8       135.000          42.000         102.000                  
G19  21479758.099    21479756.533    21479756.760                   -11007474.769 8 -11007474.773 8                  -8577249.893 8       351.000         124.000         264.000                  
G20  20537444.280    20537443.147    20537443.657                   -22374877.887 9 -22374877.886 8                 -17434967.784 8       633.000         330.000         355.000                  
G30  23670690.629    23670689.691    23670693.236                    -5123685.635 8  -5123685.633 7                  -3992476.833 8       189.000          87.000         150.000                  
> 2024 10 31 08 28 40.0000000  0 11
G05  22481184.287    22481184.267    22481184.570                   -12185768.259 8 -12185768.257 8                  -9495402.572 8       282.000         191.000         422.000                  
G06  20185515.244    20185515.155    20185518.258                   -24237809.466 9 -24237809.468 9                 -18886603.161 9       721.000        1598.000        2339.000                  
G07  23699573.342    23699573.095    23699574.104                    -6340853.773 8  -6340853.773 7                  -4940926.860 8       209.000          96.000         136.000                  
G09  22121055.869    22121055.357    22121058.057                    -9650951.682 8  -9650951.684 8                  -7520223.943 9       258.000         201.000         651.000                  
G11  20250960.943    20250961.016    20250961.387                    -7815032.901 9  -7815032.898 9                  -6089637.749 9       697.000         591.000         698.000                  
G12  25345451.234    25345450.190    25345451.581                     1982541.164 7   1982541.146 6                   1544837.089 6        63.000          22.000          26.000                  
G13  23268205.658    23268205.354    23268205.715                    -7522829.001 8  -7522828.990 6                  -5861850.538 6       109.000          21.000          24.000                  
G17  23961262.702    23961261.334    23961262.305                    -1789427.791 8  -1789427.788 6                  -1394354.308 7       127.000          40.000          93.000                  
G19  21546542.396    21546541.144    21546541.356                   -10656519.495 8 -10656519.493 8                  -8303778.256 8       365.000         138.000         261.000                  
G20  20513991.566    20513990.345    20513990.865                   -22498122.373 9 -22498122.371 8                 -17531002.406 8       630.000         322.000         359.000                  
G30  23698696.191    23698695.288    23698698.101                    -4976516.582 8  -4976516.578 7                  -3877799.669 8       190.000          90.000         152.000                  
> 2024 10 31 08 28 50.0000000  0 11
G05  22483244.759    22483244.389    22483244.775                   -12174941.539 8 -12174941.536 8                  -9486966.121 8       278.000         182.000         411.000                  
G06  20179253.451    20179253.418    20179256.592                   -24270714.828 9 -24270714.831 9                 -18912243.673 9       720.000        1594.000        2359.000                  
G07  23689068.515    23689068.352    23689069.315                    -6396056.262 8  -6396056.256 7                  -4983941.749 8       210.000          97.000         141.000                  
G09  22073699.415    22073698.952    22073701.551                    -9899811.230 8  -9899811.232 8                  -7714140.433 9       267.000         207.000         687.000                  
G11  20217392.172    20217391.997    20217392.478                    -7991439.434 9  -7991439.430 9                  -6227097.358 9       707.000         602.000         720.000                  
G12  25379397.073    25379394.859    25379396.328                     2160923.342 7   2160923.355 6                   1683836.210 6        64.000          23.000          23.000                  
G13  23328696.265    23328695.439    23328696.262                    -7204951.492 8  -7204951.499 6                  -5614153.817 6       113.000          20.000          29.000                  
G17  24033666.330    24033665.094    24033666.088                    -1408943.002 8  -1408942.998 6                  -1097872.720 7       117.000          35.000          81.000                  
G19  21613900.817    21613899.158    21613899.499                   -10302550.440 8 -10302550.444 8                  -8027958.211 8       365.000         132.000         249.000                  
G20  20491246.822    20491245.704    20491246.065                   -22617646.678 9 -22617646.680 8                 -17624138.186 8       626.000         313.000         363.000                  
G30  23726903.116    23726902.353    23726906.078                    -4828286.041 8  -4828286.043 7                  -3762295.385 8       190.000          84.000         155.000                  
> 2024 10 31 08 29  0.0000000  0 11
G05  22485752.928    22485752.190    22485752.626                   -12161762.215 8 -12161762.217 8                  -9476696.444 8       273.000         185.000         400.000                  
G06  20174036.840    20174036.727    20174039.868                   -24298128.560 9 -24298128.562 9                 -18933604.989 9       730.000        1606.000        2329.000                  
G07  23678807.616    23678807.348    23678808.643                    -6449977.099 8  -6449977.099 8                  -5025957.964 8       214.000         113.000         129.000                  
G09  22026692.959    22026692.312    22026694.921                   -10146832.911 8 -10146832.910 8                  -7906624.815 9       267.000         212.000         720.000                  
G11  20184785.830    20184785.492    20184785.953                    -8162787.297 9  -8162787.293 9                  -6360615.139 9       720.000         627.000         744.000                  
G12  25413759.195    25413759.529    25413761.594                     2341503.453 7   2341503.489 6                   1824547.976 6        65.000          21.000          27.000                  
G13  23389373.843    23389372.873    23389373.007                    -6886086.844 8  -6886086.841 6                  -5365687.830 6       110.000          19.000          24.000                  
G17  24106240.584    24106239.245    24106240.480                    -1027562.244 8  -1027562.237 6                   -800692.976 7       108.000          33.000          80.000                  
G19  21681822.990    21681821.793    21681821.781                    -9945616.526 8  -9945616.527 8                  -7749827.904 8       352.000         118.000         245.000                  
G20  20469220.690    20469219.331    20469219.876                   -22733394.643 9 -22733394.644 8                 -17714331.368 8       628.000         318.000         375.000                  
G30  23755314.108    23755313.768    23755317.118                    -4678985.798 8  -4678985.795 7                  -3645957.565 8       187.000          80.000         153.000                  
> 2024 10 31 08 29 10.0000000  0 11
G05  22488708.464    22488708.290    22488708.505                   -12146228.675 8 -12146228.675 8                  -9464592.310 8       270.000         180.000         384.000                  
G06  20169864.524    20169864.523    20169867.660                   -24320053.579 9 -24320053.582 9                 -18950689.385 9       737.000        1657.000        2326.000                  
G07  23668791.664    23668791.056    23668791.932                    -6502614.760 8  -6502614.756 8                  -5066974.293 8       218.000         107.000         131.000                  
G09  21980040.228    21980039.850    21980042.484                   -10391992.949 8 -10391992.952 8                  -8097658.567 9       262.000         205.000         733.000                  
G11  20153149.978    20153149.816    20153150.249                    -8329034.018 9  -8329034.014 9                  -6490158.005 9       731.000         647.000         758.000                  
G12  25448534.294    25448533.905    25448535.348                     2524247.378 7   2524247.358 6                   1966945.841 6        65.000          21.000          27.000                  
G13  23450233.817    23450231.154    23450232.117                    -6566273.012 8  -6566273.006 6                  -5116482.288 6       101.000          22.000          24.000                  
G17  24178971.378    24178971.439    24178972.653                     -645351.211 7   -645351.206 6                   -502866.280 7        95.000          32.000          61.000                  
G19  21750294.561    21750292.671    21750293.058                    -9585797.846 8  -9585797.850 8                  -7469449.723 8       339.000         116.000         227.000                  
G20  20447917.638    20447916.592    20447917.045                   -22845342.159 9 -22845342.160 8                 -17801563.158 8       631.000         325.000         391.000                  
G30  23783925.140    23783923.760    23783927.188                    -4528638.964 8  -4528638.969 7                  -3528804.221 8       186.000          92.000         157.000                  
> 2024 10 31 08 29 20.0000000  0 11
G05  22492110.485    22492110.249    22492110.542                   -12128350.584 8 -12128350.584 8                  -9450661.233 8       267.000         174.000         370.000                  
G06  20166734.023    20166733.990    20166737.067                   -24336504.880 9 -24336504.882 9                 -18963508.544 9       748.000        1715.000        2303.000                  
G07  23659017.333    23659016.729    23659017.673                    -6553978.387 8  -6553978.387 8                  -5106997.872 8       220.000         114.000         135.000                  
G09  21933744.774    21933744.049    21933746.693                   -10635278.186 8 -10635278.187 8                  -8287231.428 9       262.000         195.000         726.000                  
G11  20122490.990    20122490.743    20122491.088                    -8490148.716 9  -8490148.712 9                  -6615701.877 9       745.000         666.000         771.000                  
G12  25483714.852    25483711.523    25483713.797                     2709110.120 7   2709110.103 6                   2110994.742 6        64.000          27.000          28.000                  
G13  23511263.366    23511261.168    23511263.029                    -6245558.367 7  -6245558.374 6                  -4866574.819 6       100.000          25.000          24.000                  
G17  24251849.503    24251846.341    24251848.968                     -262385.637 7   -262385.655 6                   -204451.628 7        88.000          29.000          60.000                  
G19  21819297.459    21819295.741    21819295.830                    -9223184.978 8  -9223184.976 8                  -7186894.258 8       334.000         109.000         220.000                  
G20  20427340.342    20427339.235    20427339.784                   -22953476.339 9 -22953476.338 8                 -17885823.511 8       632.000         316.000         399.000                  
G30  23812726.877    23812726.430    23812729.918                    -4377279.260 8  -4377279.263 7                  -3410861.645 8       181.000          83.000         156.000                  
> 2024 10 31 08 29 30.0000000  0 11
G05  22495964.760    22495965.002    22495964.980                   -12108093.893 8 -12108093.896 8                  -9434876.736 8       267.000         177.000         372.000                  
G06  20164650.370    20164650.258    20164653.325                   -24347454.651 9 -24347454.654 9                 -18972040.790 9       748.000        1694.000        2298.000                  
G07  23649492.113    23649491.780    23649492.318                    -6604032.685 8  -6604032.684 8                  -5146001.181 8       228.000         116.000         129.000                  
G09  21887816.643    21887816.054    21887818.737                   -10876631.075 8 -10876631.076 8                  -8475298.563 9       266.000         212.000         729.000                  
G11  20092822.499    20092822.266    20092822.550                    -8646057.366 9  -8646057.361 9                  -6737189.096 9       753.000         675.000         767.000                  
G12  25519297.301    25519293.324    25519294.932                     2896090.991 7   2896090.988 6                   2256694.147 6        68.000          27.000          21.000                  
G13  23572463.876    23572462.359    23572463.954                    -5923946.639 7  -5923946.634 6                  -4615968.338 6        95.000          20.000          24.000                  
G17  24324862.414    24324860.858    24324862.266                      121303.675 7    121303.683 6                     94526.978 7        84.000          23.000          59.000                  
G19  21888823.111    21888821.594    21888821.743                    -8857823.804 8  -8857823.805 8                  -6902197.261 8       328.000         108.000         210.000                  
G20  20407499.730    20407498.491    20407498.944                   -23057740.686 9 -23057740.686 8                 -17967068.413 8       648.000         339.000         409.000                  
G30  23841725.025    23841724.154    23841727.603                    -4224895.888 8  -4224895.880 7                  -3292121.382 8       186.000          87.000         154.000                  
> 2024 10 31 08 29 40.0000000  0 11
G05  22500266.962    22500266.711    22500266.788                   -12085487.440 8 -12085487.436 8                  -9417261.260 8       273.000         177.000         374.000                  
G06  20163606.715    20163606.578    20163609.627                   -24352939.513 9 -24352939.516 9                 -18976314.654 9       760.000        1757.000        2326.000                  
G07  23640211.871    23640210.432    23640211.378                    -6652805.577 8  -6652805.579 8                  -5184006.013 8       232.000         119.000         129.000                  
G09  21842255.299    21842254.821    21842257.326                   -11116057.035 8 -11116057.038 8                  -8661864.188 9       281.000         221.000         733.000                  
G11  20064146.648    20064146.405    20064146.677                    -8796749.933 9  -8796749.927 9                  -6854611.839 9       757.000         678.000         781.000                  
G12  25555266.215    25555265.301    25555266.592                     3085125.893 7   3085125.895 6                   2403994.077 6        69.000          25.000          24.000                  
G13  23633822.445    23633821.315    23633822.523                    -5601504.434 7  -5601504.413 6                  -4364714.724 6        88.000          20.000          25.000                  
G17  24397994.307    24397994.826    24397996.809                      505623.298 7    505623.281 6                    393996.746 7        78.000          23.000          52.000                  
G19  21958851.344    21958849.985    21958850.094                    -8489822.887 8  -8489822.886 7                  -6615443.326 8       316.000          96.000         195.000                  
G20  20388393.719    20388392.589    20388393.045                   -23158142.282 9 -23158142.283 8                 -18045303.377 8       651.000         345.000         418.000                  
G30  23870907.536    23870906.400    23870910.198                    -4071541.006 8  -4071541.008 7                  -3172624.089 8       181.000          79.000         160.000                  
> 2024 10 31 08 29 50.0000000  0 11
G05  22505023.456    22505023.182    22505023.167                   -12060492.920 8 -12060492.919 8                  -9397784.956 8       278.000         178.000         366.000                  
G06  20163608.419    20163608.255    20163611.300                   -24352930.092 9 -24352930.095 9                 -18976307.258 9       749.000        1718.000        2235.000                  
G07  23631181.363    23631181.081    23631181.662                    -6700257.307 8  -6700257.306 8                  -5220981.326 8       232.000         122.000         127.000                  
G09  21797072.652    21797072.041    21797074.461                   -11353494.047 8 -11353494.049 8                  -8846879.994 9       277.000         228.000         732.000                  
G11  20036477.865    20036477.582    20036478.029                    -8942150.083 9  -8942150.077 9                  -6967910.626 9       756.000         675.000         796.000                  
G12  25591631.277    25591628.611    25591630.550                     3276217.856 7   3276217.823 6                   2552896.996 6        72.000          21.000          22.000                  
G13  23695339.217    23695338.365    23695338.935                    -5278230.600 7  -5278230.614 6                  -4112813.076 6        82.000          21.000          23.000                  
G17  24471244.917    24471243.780    24471244.918                      890547.929 7    890547.915 6                    693937.962 6        68.000          21.000          46.000                  
G19  22029374.362    22029372.687    22029372.997                    -8119223.065 8  -8119223.058 7                  -6326664.273 8       301.000          96.000         195.000                  
G20  20370034.611    20370033.327    20370033.574                   -23254621.343 9 -23254621.343 8                 -18120481.812 8       658.000         346.000         431.000                  
G30  23900277.923    23900276.868    23900280.593                    -3917199.221 8  -3917199.221 7                  -3052357.775 8       178.000          79.000         146.000                  
> 2024 10 31 08 30  0.0000000  0 11
G05  22510229.038    22510229.168    22510229.108                   -12033134.605 8 -12033134.602 8                  -9376466.711 8       277.000         188.000         369.000                  
G06  20164649.156    20164649.063    20164652.028                   -24347460.560 9 -24347460.562 9                 -18972045.214 9       741.000        1673.000        2137.000                  
G07  23622398.862    23622398.337    23622398.682                    -6746410.192 8  -6746410.195 8                  -5256944.510 8       237.000         128.000         134.000                  
G09  21752267.712    21752267.604    21752270.151                   -11588942.112 8 -11588942.116 8                  -9030345.962 9       280.000         241.000         730.000                  
G11  20009818.563    20009818.364    20009818.874                    -9082244.710 9  -9082244.705 9                  -7077075.245 9       761.000         696.000         820.000                  
G12  25628373.406    25628373.300    25628374.914                     3469307.542 7   3469307.547 6                   2703356.495 6        74.000          21.000          28.000                  
G13  23757003.555    23757001.698    23757003.114                    -4954185.825 7  -4954185.810 6                  -3860310.679 6        78.000          20.000          22.000                  
G17  24544591.214    24544590.783    24544592.415                     1275990.650 7   1275990.646 6                    994282.864 6        62.000          23.000          37.000                  
G19  22100372.211    22100370.469    22100370.855                    -7746126.804 8  -7746126.810 7                  -6035939.943 8       296.000          85.000         188.000                  
G20  20352420.894    20352419.719    20352420.023                   -23347180.840 9 -23347180.841 8                 -18192606.044 8       655.000         337.000         435.000                  
G30  23929826.722    23929825.895    23929829.539                    -3761917.080 8  -3761917.075 7                  -2931358.729 8       178.000          80.000         141.000                  
> 2024 10 31 08 30 10.0000000  0 11
G05  22515889.371    22515888.669    22515888.698                   -12003392.865 8 -12003392.865 8                  -9353291.259 8       277.000         183.000         375.000                  
G06  20166730.529    20166730.299    20166733.346                   -24336522.901 9 -24336522.904 9                 -18963522.314 9       726.000        1599.000        2188.000                  
G07  23613867.475    23613866.691    23613867.152                    -6791243.126 8  -6791243.127 8                  -5291879.228 8       238.000         131.000         143.000                  
G09  21707850.252    21707850.144    21707852.634                   -11822357.557 8 -11822357.559 8                  -9212228.081 9       280.000         242.000         759.000                  
G11  19984179.730    19984179.473    19984179.891                    -9216978.173 9  -9216978.166 9                  -7182062.346 9       770.000         702.000         827.000                  
G12  25665495.312    25665493.574    25665495.592                     3664379.356 7   3664379.351 6                   2855360.607 6        74.000          20.000          31.000                  
G13  23818809.395    23818808.098    23818811.285                    -4629386.776 7  -4629386.754 6                  -3607220.575 6        66.000          23.000          23.000                  
G17  24618028.736    24618028.505    24618029.491                     1661908.776 7   1661908.762 6                   1294998.169 6        59.000          19.000          31.000                  
G19  22171834.330    22171832.725    22171832.673                    -7370592.490 8  -7370592.500 7                  -5743315.830 8       299.000          93.000         183.000                  
G20  20335560.842    20335559.685    20335560.031                   -23435780.724 9 -23435780.725 8                 -18261644.868 8       654.000         344.000         448.000                  
G30  23959554.321    23959553.706    23959557.281                    -3605697.270 8  -3605697.270 7                  -2809629.022 8       174.000          75.000         138.000                  
> 2024 10 31 08 30 20.0000000  0 11
G05  22522005.897    22522005.711    22522005.387                   -11971248.331 8 -11971248.332 8                  -9328243.501 8       277.000         181.000         368.000                  
G06  20169853.637    20169853.482    20169856.504                   -24320110.277 9 -24320110.280 9                 -18950733.219 9       711.000        1542.000        2161.000                  
G07  23605590.631    23605590.183    23605591.114                    -6834734.286 8  -6834734.290 8                  -5325768.372 8       240.000         127.000         129.000                  
G09  21663828.632    21663827.814    21663830.192                   -12053696.381 8 -12053696.385 8                  -9392492.054 9       291.000         249.000         771.000                  
G11  19959571.309    19959571.196    19959571.498                    -9346295.805 9  -9346295.797 9                  -7282829.321 9       777.000         722.000         833.000                  
G12  25702990.852    25702988.211    25702990.721                     3861417.757 7   3861417.768 6                   3008897.133 6        72.000          21.000          29.000                  
G13  23880757.452    23880755.484    23880759.800                    -4303849.684 7  -4303849.678 6                  -3353555.319 6        63.000          20.000          20.000                  
G17  24691551.614    24691549.652    24691549.896                     2048260.604 7   2048260.624 6                   1596051.503 6        57.000          21.000          33.000                  
G19  22243749.265    22243747.358    22243747.422                    -6992677.964 8  -6992677.971 7                  -5448836.995 8       299.000          81.000         174.000                  
G20  20319461.700    20319460.767    20319461.121                   -23520381.340 9 -23520381.342 8                 -18327567.392 8       650.000         341.000         440.000                  
G30  23989459.943    23989459.516    23989463.171                    -3448542.202 8  -3448542.201 7                  -2687170.558 8       172.000          71.000         131.000                  
> 2024 10 31 08 30 30.0000000  0 11
G05  22528574.127    22528573.858    22528573.920                   -11936730.681 8 -11936730.679 8                  -9301346.564 8       277.000         180.000         372.000                  
G06  20174010.365    20174010.305    20174013.313                   -24298265.992 9 -24298265.993 9                 -18933711.687 9       706.000        1529.000        2223.000                  
G07  23597565.326    23597564.393    23597565.327                    -6876910.995 8  -6876910.992 8                  -5358633.301 8       237.000         126.000         142.000                  
G09  21620200.401    21620199.801    21620202.163                   -12282963.387 8 -12282963.392 8                  -9571141.646 9       307.000         276.000         829.000                  
G11  19935994.498    19935994.348    19935994.701                    -9470192.969 9  -9470192.962 9                  -7379372.590 9       787.000         735.000         873.000                  
G12  25740847.189    25740845.862    25740846.748                     4060357.867 7   4060357.839 6                   3163915.473 6        69.000          26.000          26.000                  
G13  23942834.196    23942831.539    23942833.392                    -3977639.191 7  -3977639.195 6                  -3099365.301 6        59.000          21.000          17.000                  
G17  24765135.422    24765135.672    24765136.377                     2434956.090 7   2434956.094 6                   1897372.564 6        52.000          20.000          30.000                  
G19  22316096.495    22316095.131    22316095.075                    -6612489.261 8  -6612489.258 7                  -5152586.067 8       281.000          78.000         165.000                  
G20  20304121.917    20304120.722    20304121.279                   -23600992.538 9 -23600992.540 8                 -18390381.301 8       650.000         336.000         448.000                  
G30  24019533.357    24019533.111    24019536.737                    -3290502.725 8  -3290502.733 7                  -2564022.921 8       164.000          69.000         128.000                  
> 2024 10 31 08 30 40.0000000  0 11
G05  22535600.949    22535600.603    22535600.692                   -11899805.308 8 -11899805.310 8                  -9272573.504 8       273.000         181.000         387.000                  
G06  20179204.699    20179204.627    20179207.576                   -24270969.625 9 -24270969.629 9                 -18912441.768 9       708.000        1515.000        2183.000                  
G07  23589796.172    23589796.093    23589796.519                    -6917735.134 8  -6917735.133 8                  -5390444.283 8       237.000         127.000         139.000                  
G09  21576978.123    21576977.447    21576979.851                   -12510098.187 8 -12510098.188 8                  -9748129.772 9       316.000         299.000         864.000                  
G11  19913462.301    19913461.994    19913462.406                    -9588601.045 9  -9588601.038 9                  -7471638.636 9       779.000         733.000         889.000                  
G12  25779065.311    25779064.583    25779066.422                     4261200.213 7   4261200.251 6                   3320416.034 6        70.000          25.000          32.000                  
G13  24005037.649    24005035.150    24005038.096                    -3650754.684 7  -3650754.656 6                  -2844650.131 6        51.000          22.000          22.000                  
G17  24838782.732    24838781.615    24838782.651                     2821970.905 7   2821970.906 6                   2198942.446 6        53.000          21.000          28.000                  
G19  22388868.908    22388867.716    22388867.348                    -6230067.067 8  -6230067.066 7                  -4854594.768 8       264.000          71.000         150.000                  
G20  20289551.705    20289550.533    20289550.963                   -23677559.654 9 -23677559.657 8                 -18450043.984 8       648.000         336.000         445.000                  
G30  24049778.407    24049777.985    24049781.890                    -3131564.665 8  -3131564.662 7                  -2440175.096 8       157.000          62.000         124.000                  
> 2024 10 31 08 30 50.0000000  0 10
G05  22543083.245    22543083.145    22543083.365                   -11860483.241 8 -11860483.247 8                  -9241932.870 8       266.000         173.000         394.000                  
G06  20185431.405    20185431.277    20185434.225                   -24238248.293 9 -24238248.296 9                 -18886944.604 9       708.000        1515.000        2174.000                  
G07  23582283.897    23582283.195    23582283.733                    -6957214.866 8  -6957214.868 8                  -5421207.641 8       233.000         124.000         138.000                  
G09  21534164.009    21534163.592    21534165.907                   -12735086.448 8 -12735086.451 8                  -9923445.245 9       326.000         320.000         903.000                  
G11  19891978.494    19891978.303    19891978.718                    -9701498.828 9  -9701498.819 9                  -7559610.909 9       773.000         715.000         925.000                  
G12  25817637.299    25817635.959    25817638.973                     4463898.514 7   4463898.528 6                   3478362.725 6        66.000          19.000          25.000                  
G17  24912478.159    24912475.380    24912477.157                     3209235.313 7   3209235.309 6                   2500706.798 6        55.000          21.000          27.000                  
G19  22462049.953    22462048.380    22462048.564                    -5845497.566 8  -5845497.572 7                  -4554930.261 8       254.000          65.000         124.000                  
G20  20275752.660    20275751.379    20275751.753                   -23750074.940 9 -23750074.943 8                 -18506549.399 8       644.000         339.000         437.000                  
G30  24080188.655    24080188.229    24080191.619                    -2971759.578 8  -2971759.573 7                  -2315651.667 8       153.000          62.000         128.000                  
> 2024 10 31 08 31  0.0000000  0 11
G04  24557061.080    24557066.417    24557081.342                     -256885.996 7   -256885.969 6                   -200173.743 6        83.000          23.000          19.000                  
G05  22551018.970    22551018.524    22551018.579                   -11818783.191 8 -11818783.190 8                  -9209439.272 8       266.000         168.000         398.000                  
G06  20192683.503    20192683.408    20192686.335                   -24200137.953 9 -24200137.956 9                 -18857248.154 9       733.000        1627.000        2175.000                  
G07  23575023.558    23575023.100    23575023.835                    -6995365.737 8  -6995365.738 8                  -5450935.492 8       232.000         124.000         133.000                  
G09  21491760.125    21491759.440    21491761.861                   -12957921.442 8 -12957921.441 8                 -10097082.856 9       330.000         332.000         947.000                  
G11  19871545.630    19871545.396    19871545.904                    -9808874.011 9  -9808874.003 9                  -7643279.846 9       760.000         695.000         950.000                  
G12  25856553.107    25856551.503    25856554.513                     4668399.600 7   4668399.593 6                   3637714.238 6        65.000          22.000          28.000                  
G17  24986203.472    24986202.191    24986204.298                     3596672.589 6   3596672.576 6                   2802605.930 6        50.000          21.000          35.000                  
G19  22535622.210    22535620.652    22535620.809                    -5458873.937 8  -5458873.940 7                  -4253665.131 8       249.000          69.000         108.000                  
G20  20262724.370    20262723.108    20262723.563                   -23818538.651 9 -23818538.653 8                 -18559897.744 8       650.000         340.000         443.000                  
G30  24110755.280    24110755.533    24110759.500                    -2811126.516 8  -2811126.509 7                  -2190483.092 8       149.000          54.000         120.000                  
> 2024 10 31 08 31 10.0000000  0 10
G04  24499761.292    24499763.373    24499766.014                     -557998.249 7   -557998.291 6                   -434807.482 6        86.000          19.000          21.000                  
G05  22559415.993    22559415.453    22559415.385                   -11774656.796 8 -11774656.796 8                  -9175055.024 8       258.000         163.000         403.000                  
G06  20200966.836    20200966.808    20200969.675                   -24156608.301 9 -24156608.303 9                 -18823328.916 9       735.000        1637.000        2139.000                  
G07  23568026.517    23568025.917    23568026.656                    -7032135.409 8  -7032135.408 8                  -5479587.065 8       234.000         130.000         140.000                  
G09  21449779.900    21449779.249    21449781.815                   -13178528.552 8 -13178528.557 8                 -10268984.471 9       334.000         332.000        1017.000                  
G11  19852178.599    19852178.427    19852178.910                    -9910647.777 9  -9910647.768 9                  -7722584.053 9       760.000         689.000         951.000                  
G12  25895815.041    25895813.287    25895815.080                     4874718.133 7   4874718.125 6                   3798482.018 6        63.000          23.000          29.000                  
G19  22609580.753    22609579.154    22609578.839                    -5070220.935 8  -5070220.934 7                  -3950818.648 7       248.000          62.000          90.000                  
G20  20250479.813    20250478.631    20250479.035                   -23882883.994 9 -23882883.994 8                 -18610036.952 8       657.000         348.000         439.000                  
G30  24141485.910    24141485.574    24141489.945                    -2649636.267 8  -2649636.271 7                  -2064646.501 8       145.000          54.000         117.000                  
> 2024 10 31 08 31 20.0000000  0 10
G04  24442545.922    24442544.323    24442545.338                     -858679.046 7   -858679.061 6                   -669104.145 6        89.000          22.000          25.000                  
G05  22568265.817    22568265.354    22568265.315                   -11728150.241 8 -11728150.237 8                  -9138816.101 8       254.000         157.000         396.000                  
G06  20210269.163    20210269.064    20210271.934                   -24107724.767 9 -24107724.769 9                 -18785237.794 9       741.000        1665.000        2153.000                  
G07  23561284.742    23561283.717    23561284.191                    -7067566.213 8  -7067566.213 8                  -5507195.394 8       236.000         133.000         147.000                  
G09  21408219.905    21408219.386    21408221.781                   -13396927.793 8 -13396927.794 8                 -10439165.662 9       343.000         353.000        1115.000                  
G11  19833874.505    19833874.260    19833874.603                   -10006837.243 9 -10006837.233 9                  -7797536.850 9       767.000         693.000         934.000                  
G12  25935404.729    25935405.434    25935406.066                     5082773.387 7   5082773.366 6                   3960603.065 6        58.000          25.000          22.000                  
G19  22683902.308    22683900.637    22683900.871                    -4679657.717 8  -4679657.721 7                  -3646483.690 7       242.000          58.000          87.000                  
G20  20239013.545    20239012.387    20239012.719                   -23943139.623 9 -23943139.625 8                 -18656989.391 8       665.000         353.000         423.000                  
G30  24172367.356    24172367.400    24172370.845                    -2487354.529 8  -2487354.527 6                  -1938193.212 8       140.000          48.000         113.000                  
> 2024 10 31 08 31 30.0000000  0 10
G04  24385422.763    24385422.610    24385423.413                    -1158855.300 7  -1158855.313 6                   -903007.657 6        94.000          24.000          20.000                  
G05  22577577.626    22577577.432    22577577.467                   -11679214.119 8 -11679214.120 8                  -9100684.010 8       248.000         155.000         393.000                  
G06  20220595.599    20220595.561    20220598.493                   -24053458.370 9 -24053458.372 9                 -18742952.249 9       739.000        1656.000        2090.000                  
G07  23554807.059    23554806.526    23554807.083                    -7101604.421 8  -7101604.425 8                  -5533718.605 8       237.000         130.000         146.000                  
G09  21367094.475    21367094.063    21367096.406                   -13613043.243 8 -13613043.245 8                 -10607567.285 9       354.000         370.000        1162.000                  
G11  19816647.569    19816647.335    19816647.657                   -10097365.006 9 -10097364.996 9                  -7868077.935 9       770.000         703.000         928.000                  
G12  25975332.285    25975330.560    25975331.906                     5292580.416 7   5292580.420 6                   4124089.098 6        56.000          21.000          22.000                  
G19  22758583.502    22758581.998    22758581.622                    -4287206.818 8  -4287206.826 7                  -3340677.807 7       228.000          62.000          81.000                  
G20  20228338.302    20228337.014    20228337.184                   -23999238.972 9 -23999238.974 8                 -18700703.160 8       670.000         361.000         429.000                  
G30  24203405.608    24203404.710    24203408.832                    -2324250.480 8  -2324250.473 6                  -1811099.131 8       139.000          48.000         111.000                  
> 2024 10 31 08 31 40.0000000  0 10
G04  24328395.415    24328394.036    24328394.864                    -1458543.600 7  -1458543.592 6                  -1136530.965 6        98.000          26.000          25.000                  
G05  22587344.806    22587344.030    22587344.207                   -11627889.428 8 -11627889.430 8                  -9060690.691 8       244.000         143.000         408.000                  
G06  20231934.595    20231934.585    20231937.395                   -23993871.394 9 -23993871.397 9                 -18696520.803 9       733.000        1638.000        1999.000                  
G07  23548587.493    23548587.388    23548587.920                    -7134286.341 8  -7134286.345 8                  -5559184.987 8       239.000         131.000         153.000                  
G09  21326401.193    21326400.383    21326402.789                   -13826889.024 8 -13826889.027 8                 -10774200.344 9       351.000         365.000        1182.000                  
G11  19800495.339    19800495.236    19800495.447                   -10182245.074 9 -10182245.064 9                  -7934218.214 9       772.000         716.000         944.000                  
G12  26015575.366    26015573.970    26015576.859                     5504064.439 7   5504064.407 6                   4288881.864 6        57.000          22.000          20.000                  
G19  22833602.566    22833600.573    22833600.830                    -3892980.268 8  -3892980.273 6                  -3033488.309 7       207.000          41.000          82.000                  
G20  20218449.305    20218447.920    20218448.143                   -24051206.206 9 -24051206.205 8                 -18741197.068 8       679.000         370.000         420.000                  
G30  24234588.654    24234587.397    24234591.630                    -2160383.403 8  -2160383.401 6                  -1683410.509 8       137.000          44.000         105.000                  
> 2024 10 31 08 31 50.0000000  0 11
G04  24271468.234    24271469.419    24271470.996                    -1757683.948 8  -1757683.973 6                  -1369627.312 6       104.000          26.000          28.000                  
G05  22597572.220    22597572.114    22597572.158                   -11574140.985 8 -11574140.985 8                  -9018808.759 8       238.000         138.000         405.000                  
G06  20244288.396    20244288.503    20244291.274                   -23928951.122 9 -23928951.125 9                 -18645933.550 9       730.000        1632.000        1935.000                  
G07  23542634.142    23542633.805    23542634.503                    -7165571.783 8  -7165571.784 8                  -5583563.179 8       239.000         137.000         153.000                  
G09  21286151.064    21286150.678    21286152.992                   -14038402.845 8 -14038402.848 8                 -10939016.285 9       344.000         349.000        1133.000                  
G11  19785429.622    19785429.386    19785429.610                   -10261416.565 9 -10261416.555 9                  -7995910.255 9       775.000         727.000         945.000                  
G12  26056139.877    26056137.628    26056138.599                     5717226.437 7   5717226.449 6                   4454982.022 6        52.000          22.000          23.000                  
G19  22908952.296    22908950.422    22908950.756                    -3497013.139 8  -3497013.150 6                  -2724942.526 7       185.000          36.000          71.000                  
G20  20209356.280    20209354.941    20209355.220                   -24098989.999 9 -24098990.001 8                 -18778431.168 8       683.000         383.000         435.000                  
G29  24566600.964    24566600.551    24566605.950                     -288086.673 7   -288086.667 6                   -224486.050 6        92.000          25.000          50.000                  
G30  24265919.900    24265919.093    24265922.880                    -1995736.062 8  -1995736.071 6                  -1555113.953 8       136.000          42.000         102.000                  
> 2024 10 31 08 32  0.0000000  0 10
G04  24214650.806    24214649.728    24214651.326                    -2056273.309 8  -2056273.289 6                  -1602294.297 6       107.000          22.000          21.000                  
G05  22608256.893    22608256.838    22608257.141                   -11517991.438 8 -11517991.441 8                  -8975055.842 8       237.000         146.000         384.000                  
G06  20257648.677    20257648.625    20257651.324                   -23858743.305 9 -23858743.306 9                 -18591226.127 9       725.000        1600.000        1838.000                  
G07  23536943.271    23536942.819    23536943.109                    -7195477.897 8  -7195477.899 8                  -5606866.592 8       239.000         128.000         163.000                  
G09  21246345.826    21246345.431    21246347.924                   -14247579.821 8 -14247579.822 8                 -11102011.307 9       336.000         346.000        1097.000                  
G11  19771450.402    19771450.190    19771450.497                   -10334877.242 9 -10334877.232 9                  -8053152.314 9       782.000         741.000         959.000                  
G19  22984616.063    22984614.170    22984614.490                    -3099397.151 8  -3099397.136 6                  -2415111.911 7       173.000          29.000          61.000                  
G20  20201058.074    20201056.816    20201057.151                   -24142596.903 9 -24142596.906 8                 -18812410.545 8       687.000         383.000         441.000                  
G29  24514307.389    24514307.235    24514307.534                     -562883.967 7   -562883.961 6                   -438611.021 8        95.000          30.000         131.000                  
G30  24297391.881    24297391.608    24297394.922                    -1830347.805 8  -1830347.807 7                  -1426239.973 7       136.000          51.000          92.000                  
> 2024 10 31 08 32 10.0000000  0 10
G04  24157941.146    24157939.555    24157940.452                    -2354285.633 8  -2354285.651 6                  -1834511.658 6       110.000          30.000          25.000                  
G05  22619399.139    22619398.809    22619399.042                   -11459440.167 8 -11459440.166 8                  -8929431.418 8       238.000         147.000         392.000                  
G06  20272010.233    20272010.086    20272012.983                   -23783272.232 9 -23783272.235 9                 -18532417.473 9       690.000        1458.000        1861.000                  
G07  23531515.942    23531515.425    23531516.017                    -7223998.879 8  -7223998.881 8                  -5629090.654 8       237.000         136.000         168.000                  
G09  21206990.477    21206990.333    21206992.880                   -14454392.193 8 -14454392.194 8                 -11263163.784 9       349.000         364.000        1107.000                  
G11  19758562.457    19758562.254    19758562.599                   -10402603.577 9 -10402603.566 9                  -8105926.056 9       793.000         758.000         997.000                  
G19  23060580.678    23060578.709    23060578.404                    -2700200.813 8  -2700200.809 6                  -2104049.860 6       162.000          37.000          48.000                  
G20  20193557.734    20193556.517    20193556.785                   -24182011.570 9 -24182011.571 8                 -18843123.247 8       683.000         373.000         446.000                  
G29  24462417.731    24462416.608    24462416.989                     -835572.121 8   -835572.140 6                   -651095.259 8       103.000          32.000         134.000                  
G30  24329001.185    24329001.768    24329005.238                    -1664235.565 8  -1664235.567 6                  -1296801.850 7       131.000          45.000          89.000                  
> 2024 10 31 08 32 20.0000000  0 10
G04  24101348.439    24101348.621    24101349.703                    -2651676.514 8  -2651676.531 6                  -2066244.751 6       119.000          25.000          35.000                  
G05  22631001.615    22631001.061    22631001.360                   -11398469.164 8 -11398469.164 8                  -8881921.503 8       238.000         140.000         383.000                  
G06  20287372.032    20287371.911    20287374.817                   -23702545.340 9 -23702545.343 9                 -18469513.376 9       687.000        1442.000        1890.000                  
G07  23526356.689    23526356.115    23526356.514                    -7251110.955 8  -7251110.956 8                  -5650216.845 8       236.000         128.000         173.000                  
G09  21168094.456    21168094.202    21168096.353                   -14658794.172 8 -14658794.175 8                 -11422438.043 9       363.000         381.000        1086.000                  
G11  19746773.401    19746773.212    19746773.489                   -10464555.416 9 -10464555.406 9                  -8154200.199 9       803.000         770.000        1014.000                  
G19  23136835.944    23136834.458    23136834.433                    -2299473.872 8  -2299473.860 6                  -1791795.119 6       154.000          27.000          37.000                  
G20  20186861.317    20186860.183    20186860.409                   -24217201.246 9 -24217201.246 8                 -18870543.757 8       674.000         365.000         456.000                  
G29  24410941.249    24410941.262    24410941.259                    -1106080.077 8  -1106080.080 6                   -861880.639 8       103.000          35.000         145.000                  
G30  24360750.895    24360749.711    24360753.313                    -1497397.670 8  -1497397.673 6                  -1166798.243 7       130.000          40.000          94.000                  
> 2024 10 31 08 32 30.0000000  0 10
G04  24044877.615    24044877.562    24044877.923                    -2948432.481 8  -2948432.478 6                  -2297483.174 6       124.000          30.000          31.000                  
G05  22643061.798    22643061.326    22643061.562                   -11335091.878 8 -11335091.877 8                  -8832536.567 8       236.000         139.000         365.000                  
G06  20303726.381    20303726.256    20303729.169                   -23616602.542 9 -23616602.544 9                 -18402544.944 9       677.000        1397.000        1889.000                  
G07  23521464.234    23521463.656    23521464.063                    -7276821.574 8  -7276821.575 8                  -5670251.035 8       235.000         129.000         170.000                  
G09  21129659.717    21129658.979    21129661.389                   -14860771.280 8 -14860771.282 8                 -11579822.789 9       363.000         386.000        1066.000                  
G11  19736084.535    19736084.488    19736084.745                   -10520725.369 9 -10520725.357 9                  -8197968.993 9       813.000         797.000        1051.000                  
G19  23213368.050    23213366.498    23213366.129                    -1897296.677 8  -1897296.667 6                  -1478410.294 6       149.000          31.000          35.000                  
G20  20180969.020    20180967.813    20180968.171                   -24248165.172 9 -24248165.174 8                 -18894671.478 8       673.000         360.000         446.000                  
G29  24359887.909    24359887.334    24359887.631                    -1374367.781 8  -1374367.751 6                  -1070935.968 8       108.000          32.000         139.000                  
G30  24392630.312    24392630.026    24392633.762                    -1329863.780 8  -1329863.796 6                  -1036252.332 7       127.000          42.000          84.000                  
> 2024 10 31 08 32 40.0000000  0 10
G04  23988531.038    23988530.835    23988531.966                    -3244534.769 8  -3244534.775 6                  -2528212.208 6       128.000          36.000          35.000                  
G05  22655578.201    22655578.035    22655577.880                   -11269317.319 8 -11269317.322 8                  -8781283.634 8       239.000         136.000         351.000                  
G06  20321066.362    20321066.334    20321069.304                   -23525479.882 9 -23525479.884 9                 -18331540.255 9       679.000        1401.000        1938.000                  
G07  23516837.440    23516837.066    23516837.768                    -7301132.821 8  -7301132.823 8                  -5689194.782 8       235.000         133.000         171.000                  
G09  21091689.420    21091689.130    21091691.538                   -15060304.015 8 -15060304.016 8                 -11735302.836 9       373.000         414.000        1035.000                  
G11  19726498.132    19726497.987    19726498.282                   -10571102.475 9 -10571102.464 9                  -8237223.880 9       812.000         788.000        1068.000                  
G19  23290161.651    23290160.191    23290159.843                    -1493743.940 8  -1493743.951 6                  -1163953.655 6       141.000          24.000          23.000                  
G20  20175882.065    20175880.760    20175881.035                   -24274898.402 9 -24274898.403 8                 -18915502.557 8       669.000         365.000         436.000                  
G29  24309265.256    24309264.332    24309265.264                    -1640390.079 8  -1640390.078 6                  -1278226.052 8       110.000          37.000         146.000                  
G30  24424639.333    24424638.814    24424642.455                    -1161658.072 8  -1161658.075 6                   -905182.951 7       123.000          47.000          86.000                  
> 2024 10 31 08 32 50.0000000  0 10
G04  23932318.982    23932318.693    23932319.764                    -3539931.229 8  -3539931.221 6                  -2758391.244 6       136.000          36.000          25.000                  
G05  22668555.581    22668555.205    22668555.368                   -11201120.904 8 -11201120.903 8                  -8728143.556 8       244.000         142.000         338.000                  
G06  20339391.378    20339391.316    20339394.173                   -23429181.457 9 -23429181.460 9                 -18256502.495 9       671.000        1381.000        1951.000                  
G07  23512483.159    23512483.066    23512483.523                    -7324013.880 8  -7324013.879 8                  -5707024.104 8       238.000         133.000         181.000                  
G09  21054195.010    21054194.698    21054196.884                   -15257339.819 8 -15257339.823 8                 -11888837.225 9       386.000         442.000        1039.000                  
G11  19718022.197    19718021.969    19718022.259                   -10615644.198 9 -10615644.187 9                  -8271931.717 9       820.000         814.000        1092.000                  
G19  23367209.024    23367207.702    23367206.361                    -1088856.658 8  -1088856.648 6                   -848457.075 6       129.000          23.000          25.000                  
G20  20171606.789    20171605.726    20171606.110                   -24297363.664 9 -24297363.665 8                 -18933007.949 8       665.000         356.000         440.000                  
G29  24259088.768    24259088.286    24259088.820                    -1904068.838 8  -1904068.848 6                  -1483689.999 8       115.000          34.000         145.000                  
G30  24456777.917    24456777.015    24456780.544                     -992771.388 8   -992771.397 6                   -773582.917 7       125.000          42.000          80.000                  
> 2024 10 31 08 33  0.0000000  0 10
G04  23876241.288    23876240.560    23876242.077                    -3834622.373 8  -3834622.370 6                  -2988020.662 6       145.000          34.000          38.000                  
G05  22681988.075    22681988.005    22681987.976                   -11130531.584 8 -11130531.584 8                  -8673138.874 8       247.000         157.000         332.000                  
G06  20358690.165    20358690.072    20358692.952                   -23327765.541 9 -23327765.543 9                 -18177477.100 9       658.000        1336.000        1940.000                  
G07  23508397.294    23508396.732    23508397.283                    -7345486.719 8  -7345486.719 8                  -5723756.075 8       236.000         125.000         188.000                  
G09  21017175.635    21017174.982    21017177.263                   -15451879.098 8 -15451879.102 8                 -12040426.256 9       399.000         471.000        1026.000                  
G11  19710654.448    19710654.128    19710654.486                   -10654362.528 9 -10654362.517 9                  -8302101.857 9       826.000         825.000        1111.000                  
G19  23444492.602    23444490.820    23444491.065                     -682728.180 8   -682728.152 6                   -531993.375 6       119.000          27.000          25.000                  
G20  20168140.761    20168139.710    20168139.953                   -24315577.426 9 -24315577.425 8                 -18947200.482 8       660.000         355.000         435.000                  
G29  24209363.889    24209362.816    24209363.162                    -2165378.857 8  -2165378.837 6                  -1687308.178 8       116.000          34.000         158.000                  
G30  24489036.974    24489036.423    24489039.656                     -823247.375 8   -823247.375 6                   -641486.256 7       121.000          39.000          83.000                  
> 2024 10 31 08 33 10.0000000  0 10
G04  23820306.770    23820306.058    23820307.135                    -4128560.581 8  -4128560.570 6                  -3217063.410 6       153.000          35.000          33.000                  
G05  22695880.393    22695879.582    22695879.712                   -11057530.358 8 -11057530.356 8                  -8616254.804 8       250.000         152.000         324.000                  
G06  20378960.453    20378960.403    20378963.521                   -23221243.510 9 -23221243.512 9                 -18094472.885 9       650.000        1295.000        1986.000                  
G07  23504583.433    23504583.384    23504583.910                    -7365525.397 8  -7365525.394 8                  -5739370.471 8       239.000         131.000         182.000                  
G09  20980639.853    20980639.544    20980641.681                   -15643874.495 8 -15643874.497 9                 -12190033.036 9       416.000         513.000         985.000                  
G11  19704401.105    19704401.006    19704401.341                   -10687223.048 9 -10687223.036 9                  -8327707.452 9       838.000         841.000        1144.000                  
G19  23522003.307    23522002.950    23522001.854                     -275403.302 8   -275403.332 6                   -214597.364 6       104.000          21.000          27.000                  
G20  20165489.802    20165488.618    20165488.855                   -24329509.076 9 -24329509.076 8                 -18958056.324 8       658.000         352.000         424.000                  
G29  24160103.028    24160101.795    24160102.384                    -2424246.833 8  -2424246.856 6                  -1889023.475 8       120.000          29.000         165.000                  
G30  24521418.706    24521418.097    24521421.457                     -653081.747 8   -653081.743 6                   -508889.707 7       121.000          36.000          85.000                  
> 2024 10 31 08 33 20.0000000  0 10
G04  23764518.290    23764517.931    23764519.164                    -4421729.985 8  -4421729.973 6                  -3445507.073 6       158.000          41.000          39.000                  
G05  22710228.225    22710227.500    22710227.764                   -10982130.862 8 -10982130.861 8                  -8557501.930 8       246.000         153.000         314.000                  
G06  20400194.372    20400194.198    20400197.032                   -23109659.957 9 -23109659.959 9                 -18007524.593 9       668.000        1360.000        1898.000                  
G07  23501042.375    23501041.582    23501042.066                    -7384135.959 8  -7384135.953 8                  -5753872.000 8       238.000         131.000         193.000                  
G09  20944591.536    20944591.086    20944593.114                   -15833310.736 8 -15833310.739 9                 -12337645.682 9       436.000         558.000         959.000                  
G11  19699262.751    19699262.759    19699263.007                   -10714224.995 9 -10714224.983 9                  -8348747.915 9       851.000         876.000        1149.000                  
G19  23599728.813    23599726.791    23599727.681                      133041.863 7    133041.860 6                    103671.553 6        98.000          18.000          32.000                  
G20  20163653.085    20163651.864    20163652.270                   -24339160.792 9 -24339160.792 8                 -18965577.132 8       654.000         344.000         417.000                  
G29  24111316.056    24111313.978    24111313.647                    -2680631.562 8  -2680631.564 6                  -2088803.760 8       120.000          33.000         174.000                  
G30  24553917.377    24553916.237    24553920.167                     -482301.786 8   -482301.786 6                   -375814.496 7       122.000          41.000          80.000                  
> 2024 10 31 08 33 30.0000000  0 10
G04  23708879.233    23708878.938    23708881.151                    -4714111.547 8  -4714111.545 6                  -3673336.849 6       164.000          44.000          41.000                  
G05  22725030.297    22725029.884    22725029.871                   -10904344.142 8 -10904344.149 8                  -8496888.890 8       246.000         149.000         320.000                  
G06  20422382.875    20422382.836    20422385.557                   -22993057.765 9 -22993057.766 9                 -17916665.701 9       646.000        1291.000        1764.000                  
G07  23497771.790    23497771.259    23497771.790                    -7401321.607 8  -7401321.609 8                  -5767263.222 8       241.000         129.000         201.000                  
G09  20909033.274    20909033.008    20909034.930                   -16020169.703 8 -16020169.706 9                 -12483250.060 9       456.000         610.000         972.000                  
G11  19695239.873    19695239.747    19695239.931                   -10735366.335 9 -10735366.324 9                  -8365221.685 9       862.000         904.000        1154.000                  
G19  23677652.735    23677650.629    23677651.564                      542534.589 7    542534.613 6                    422756.704 6        91.000          24.000          21.000                  
G20  20162631.011    20162629.560    20162629.970                   -24344532.818 9 -24344532.818 8                 -18969763.125 8       657.000         346.000         415.000                  
G29  24063007.016    24063006.082    24063006.337                    -2934489.128 8  -2934489.139 6                  -2286614.837 8       123.000          42.000         183.000                  
G30  24586526.781    24586527.243    24586530.772                     -310931.582 8   -310931.586 6                   -242279.308 7       123.000          34.000          82.000                  
> 2024 10 31 08 33 40.0000000  0 10
G04  23653402.631    23653401.180    23653402.153                    -5005652.199 8  -5005652.195 6                  -3900511.366 6       170.000          46.000          46.000                  
G05  22740290.826    22740291.023    22740290.889                   -10824147.449 8 -10824147.451 8                  -8434397.948 8       242.000         150.000         315.000                  
G06  20445524.583    20445524.528    20445527.324                   -22871446.882 9 -22871446.885 9                 -17821903.932 9       635.000        1223.000        1639.000                  
G07  23494778.516    23494778.148    23494778.068                    -7417051.616 8  -7417051.616 8                  -5779520.218 8       245.000         133.000         209.000                  
G09  20873975.761    20873975.262    20873977.224                   -16204399.603 8 -16204399.606 9                 -12626805.819 9       473.000         650.000         998.000                  
G11  19692338.690    19692338.463    19692338.627                   -10750612.706 9 -10750612.694 9                  -8377101.963 9       874.000         928.000        1132.000                  
G19  23755769.047    23755766.208    23755767.482                      953036.675 7    953036.655 6                    742628.380 6        84.000          18.000          22.000                  
G20  20162429.162    20162427.982    20162428.413                   -24345592.277 9 -24345592.278 8                 -18970588.667 8       652.000         348.000         408.000                  
G29  24015195.171    24015194.101    24015194.503                    -3185741.737 8  -3185741.735 6                  -2482396.081 8       128.000          33.000         188.000                  
G30  24619252.209    24619251.554    24619255.379                     -138961.374 8   -138961.367 6                   -108276.557 7       114.000          37.000          87.000                  
> 2024 10 31 08 33 50.0000000  0 10
G04  23598082.615    23598082.257    23598083.762                    -5296354.923 8  -5296354.929 6                  -4127032.947 7       181.000          50.000          56.000                  
G05  22756003.975    22756003.842    22756003.898                   -10741574.792 8 -10741574.791 8                  -8370055.618 8       242.000         140.000         331.000                  
G06  20469606.577    20469606.491    20469609.227                   -22744894.886 9 -22744894.888 9                 -17723291.964 9       620.000        1177.000        1507.000                  
G07  23492056.698    23492056.651    23492057.034                    -7431351.757 8  -7431351.757 8                  -5790663.098 8       247.000         139.000         209.000                  
G09  20839417.357    20839416.917    20839418.854                   -16386005.159 8 -16386005.162 9                 -12768316.630 9       494.000         725.000        1018.000                  
G11  19690554.543    19690554.389    19690554.477                   -10759987.873 9 -10759987.860 9                  -8384407.282 9       874.000         922.000        1131.000                  
G19  23834058.200    23834055.961    23834057.169                     1364454.229 7   1364454.209 6                   1063213.474 6        83.000          28.000          21.000                  
G20  20163043.714    20163042.364    20163042.802                   -24342363.643 9 -24342363.643 8                 -18968072.836 8       651.000         339.000         420.000                  
G29  23967882.858    23967881.851    23967882.517                    -3434368.121 8  -3434368.131 6                  -2676130.918 8       131.000          43.000         207.000                  
G30  24652082.985    24652082.285    24652085.625                       33562.302 8     33562.283 6                     26157.450 7       111.000          38.000          79.000                  
> 2024 10 31 08 34  0.0000000  0 10
G04  23542934.205    23542934.457    23542935.151                    -5586161.737 8  -5586161.744 7                  -4352856.384 7       189.000          52.000          63.000                  
G05  22772174.668    22772174.378    22772174.099                   -10656599.716 8 -10656599.716 8                  -8303841.267 8       239.000         142.000         330.000                  
G06  20494627.468    20494627.385    20494630.069                   -22613409.433 9 -22613409.435 9                 -17620835.753 9       618.000        1164.000        1407.000                  
G07  23489614.391    23489614.054    23489614.469                    -7444186.853 8  -7444186.853 8                  -5800664.432 8       248.000         145.000         215.000                  
G09  20805368.937    20805368.643    20805370.403                   -16564930.338 9 -16564930.341 9                 -12907738.828 9       504.000         754.000        1024.000                  
G11  19689894.533    19689894.327    19689894.460                   -10763456.322 9 -10763456.310 9                  -8387109.959 9       876.000         936.000        1136.000                  
G19  23912517.108    23912514.767    23912517.134                     1776754.731 7   1776754.735 6                   1384486.579 6        81.000          22.000          21.000                  
G20  20164480.912    20164479.650    20164480.116                   -24334811.310 9 -24334811.309 8                 -18962187.899 8       650.000         341.000         437.000                  
G29  23921086.313    23921085.694    23921085.673                    -3680286.159 8  -3680286.160 6                  -2867755.346 8       142.000          46.000         214.000                  
G30  24685021.026    24685020.249    24685024.270                      206654.112 8    206654.084 6                    161034.180 7       106.000          29.000          78.000                  
> 2024 10 31 08 34 10.0000000  0 10
G04  23487956.164    23487955.673    23487956.742                    -5875075.383 8  -5875075.377 7                  -4577983.901 7       195.000          53.000          60.000                  
G05  22788795.216    22788795.055    22788794.996                   -10569256.906 8 -10569256.904 8                  -8235781.923 8       237.000         129.000         335.000                  
G06  20520573.947    20520573.831    20520576.396                   -22477060.071 9 -22477060.074 9                 -17514589.477 9       619.000        1167.000        1305.000                  
G07  23487446.188    23487445.666    23487445.710                    -7455582.461 8  -7455582.465 8                  -5809544.067 8       251.000         144.000         214.000                  
G09  20771829.812    20771829.323    20771831.206                   -16741180.308 8 -16741180.309 9                 -13045076.474 9       488.000         703.000        1062.000                  
G11  19690353.301    19690353.108    19690353.329                   -10761045.118 9 -10761045.106 9                  -8385231.093 9       875.000         931.000        1144.000                  
G19  23991124.872    23991124.015    23991125.356                     2189845.440 7   2189845.435 6                   1706375.386 6        80.000          19.000          23.000                  
G20  20166735.687    20166734.581    20166734.783                   -24322961.358 9 -24322961.360 8                 -18952954.158 8       646.000         337.000         433.000                  
G29  23874809.068    23874808.092    23874808.552                    -3923474.865 8  -3923474.875 6                  -3057253.033 8       151.000          49.000         229.000                  
G30  24718059.519    24718057.787    24718061.499                      380267.944 8    380267.933 6                    296317.697 7       106.000          34.000          83.000                  
> 2024 10 31 08 34 20.0000000  0 10
G04  23433158.336    23433158.184    23433158.878                    -6163037.689 8  -6163037.675 7                  -4802370.077 7       200.000          62.000          69.000                  
G05  22805871.656    22805871.265    22805871.075                   -10479520.714 8 -10479520.717 8                  -8165857.607 8       236.000         138.000         343.000                  
G06  20547444.011    20547443.942    20547446.419                   -22335856.898 9 -22335856.900 9                 -17404561.008 9       613.000        1133.000        1252.000                  
G07  23485558.103    23485557.563    23485557.789                    -7465503.860 8  -7465503.863 8                  -5817275.007 8       248.000         141.000         210.000                  
G09  20738810.092    20738809.617    20738811.595                   -16914699.713 8 -16914699.716 9                 -13180286.395 9       478.000         663.000        1200.000                  
G11  19691936.963    19691936.834    19691937.038                   -10752722.433 9 -10752722.422 9                  -8378745.880 9       868.000         910.000        1137.000                  
G19  24069878.349    24069876.670    24069876.942                     2603694.803 7   2603694.802 6                   2028855.264 6        73.000          19.000          18.000                  
G20  20169814.807    20169813.656    20169813.976                   -24306780.451 9 -24306780.453 8                 -18940345.650 8       640.000         336.000         449.000                  
G29  23829066.485    23829065.671    23829066.158                    -4163852.901 8  -4163852.908 7                  -3244560.583 8       158.000          62.000         232.000                  
G30  24751198.011    24751197.536    24751201.290                      554418.381 7    554418.373 6                    432019.369 7        98.000          27.000          76.000                  
> 2024 10 31 08 34 30.0000000  0 10
G04  23378542.248    23378541.975    23378543.419                    -6450047.670 8  -6450047.671 7                  -5026014.203 7       208.000          65.000          64.000                  
G05  22823397.245    22823396.774    22823396.763                   -10387423.062 8 -10387423.056 8                  -8094093.193 8       235.000         132.000         353.000                  
G06  20575224.683    20575224.620    20575227.300                   -22189868.184 9 -22189868.186 9                 -17290803.568 9       592.000        1073.000        1262.000                  
G07  23483946.150    23483945.594    23483946.029                    -7473973.423 8  -7473973.423 8                  -5823874.663 8       244.000         133.000         203.000                  
G09  20706309.630    20706309.129    20706311.236                   -17085490.677 8 -17085490.681 9                 -13313370.256 9       474.000         662.000        1334.000                  
G11  19694640.629    19694640.380    19694640.598                   -10738515.296 9 -10738515.284 9                  -8367675.373 9       855.000         890.000        1135.000                  
G19  24148758.064    24148757.107    24148758.907                     3018214.517 7   3018214.534 6                   2351858.609 6        70.000          21.000          21.000                  
G20  20173713.439    20173712.160    20173712.495                   -24286293.292 9 -24286293.293 8                 -18924381.626 8       637.000         330.000         442.000                  
G29  23783863.308    23783863.366    23783863.084                    -4401396.303 8  -4401396.307 7                  -3429659.324 8       169.000          73.000         241.000                  
G30  24784432.919    24784431.114    24784434.862                      729062.910 7    729062.915 6                    568106.047 7        94.000          31.000          75.000                  
> 2024 10 31 08 34 40.0000000  0 10
G04  23324116.867    23324116.156    23324116.763                    -6736056.464 8  -6736056.451 7                  -5248878.185 7       210.000          63.000          71.000                  
G05  22841375.427    22841374.678    22841374.912                   -10292948.224 8 -10292948.222 8                  -8020476.425 8       237.000         133.000         362.000                  
G06  20603911.929    20603911.728    20603914.514                   -22039115.536 9 -22039115.538 9                 -17173333.974 9       581.000        1039.000        1231.000                  
G07  23482616.188    23482614.916    23482615.307                    -7480966.019 8  -7480966.020 8                  -5829323.415 8       240.000         144.000         206.000                  
G09  20674336.767    20674336.323    20674338.686                   -17253507.986 8 -17253507.987 9                 -13444292.829 9       468.000         642.000        1410.000                  
G11  19698467.521    19698467.292    19698467.568                   -10718404.884 9 -10718404.871 9                  -8352004.918 9       845.000         865.000        1107.000                  
G19  24227759.181    24227757.611    24227758.954                     3433364.491 7   3433364.485 6                   2675352.038 6        65.000          21.000          17.000                  
G20  20178435.565    20178434.388    20178434.930                   -24261477.858 9 -24261477.860 8                 -18905044.916 8       632.000         323.000         449.000                  
G29  23739214.263    23739212.930    23739213.190                    -4636033.760 8  -4636033.768 7                  -3612493.699 8       177.000          73.000         233.000                  
G30  24817761.654    24817759.807    24817763.797                      904206.758 7    904206.730 6                    704581.787 7        92.000          27.000          70.000                  
> 2024 10 31 08 34 50.0000000  0 10
G04  23269884.928    23269884.057    23269885.295                    -7021046.958 8  -7021046.964 7                  -5470948.680 7       215.000          69.000          70.000                  
G05  22859802.325    22859801.964    22859802.043                   -10196112.765 8 -10196112.763 8                  -7945020.217 8       234.000         129.000         374.000                  
G06  20633495.375    20633495.410    20633497.947                   -21883653.371 9 -21883653.373 9                 -17052194.622 9       606.000        1127.000        1285.000                  
G07  23481564.521    23481564.309    23481564.460                    -7486488.446 8  -7486488.449 8                  -5833626.560 8       241.000         137.000         203.000                  
G09  20642894.182    20642894.007    20642896.352                   -17418738.461 8 -17418738.464 9                 -13573043.851 9       466.000         643.000        1481.000                  
G11  19703414.842    19703414.688    19703414.958                   -10692405.881 9 -10692405.869 9                  -8331745.947 9       834.000         848.000        1092.000                  
G19  24306864.998    24306864.009    24306867.399                     3849073.353 7   3849073.356 6                   2999281.076 6        59.000          22.000          19.000                  
G20  20183979.236    20183978.252    20183978.602                   -24232345.026 9 -24232345.028 8                 -18882344.008 8       628.000         318.000         452.000                  
G29  23695124.520    23695123.451    23695123.693                    -4867726.022 8  -4867726.032 7                  -3793033.118 8       185.000          74.000         244.000                  
G30  24851179.009    24851177.986    24851182.765                     1079823.539 7   1079823.528 6                    841426.036 7        90.000          27.000          75.000                  
> 2024 10 31 08 35  0.0000000  0 10
G04  23215850.953    23215850.691    23215851.867                    -7304995.317 8  -7304995.318 7                  -5692207.123 7       220.000          72.000          79.000                  
G05  22878676.499    22878676.118    22878676.439                   -10096927.506 8 -10096927.509 8                  -7867732.993 8       227.000         133.000         369.000                  
G06  20663965.762    20663965.736    20663968.547                   -21723530.545 9 -21723530.548 9                 -16927423.597 9       596.000        1082.000        1366.000                  
G07  23480793.295    23480792.989    23480793.264                    -7490541.172 8  -7490541.169 8                  -5836784.539 8       240.000         134.000         201.000                  
G09  20611985.975    20611985.747    20611987.930                   -17581162.659 8 -17581162.661 9                 -13699608.156 9       476.000         668.000        1532.000                  
G11  19709481.015    19709480.928    19709481.042                   -10660528.133 9 -10660528.120 9                  -8306906.134 9       828.000         827.000        1051.000                  
G19  24386065.530    24386065.700    24386067.877                     4265276.869 7   4265276.875 6                   3323595.517 6        53.000          20.000          18.000                  
G20  20190343.652    20190342.710    20190343.055                   -24198899.912 9 -24198899.915 8                 -18856282.868 8       639.000         332.000         453.000                  
G29  23651604.096    23651603.179    23651603.215                    -5096427.560 8  -5096427.564 7                  -3971242.109 8       190.000          80.000         238.000                  
G30  24884685.201    24884684.224    24884687.839                     1255893.454 7   1255893.464 6                    978623.376 7        84.000          24.000          72.000                  
> 2024 10 31 08 35 10.0000000  0 10
G04  23162024.086    23162024.233    23162024.829                    -7587857.449 8  -7587857.441 7                  -5912619.157 7       225.000          85.000          75.000                  
G05  22897999.680    22897999.511    22897999.614                    -9995383.062 8  -9995383.060 8                  -7788607.430 8       230.000         129.000         364.000                  
G06  20695317.601    20695317.286    20695320.166                   -21558776.630 9 -21558776.631 9                 -16799043.923 9       583.000        1042.000        1389.000                  
G07  23480305.517    23480305.356    23480305.570                    -7493104.395 8  -7493104.394 8                  -5838781.855 8       240.000         140.000         200.000                  
G09  20581619.260    20581618.859    20581621.146                   -17740741.335 8 -17740741.336 9                 -13823955.170 9       479.000         675.000        1601.000                  
G11  19716667.535    19716667.287    19716667.516                   -10622763.093 9 -10622763.081 9                  -8277478.827 9       827.000         823.000        1029.000                  
G19  24465354.008    24465352.714    24465354.460                     4681931.563 6   4681931.552 6                   3648261.813 6        49.000          18.000          18.000                  
G20  20197531.503    20197530.168    20197530.636                   -24161128.540 9 -24161128.541 8                 -18826850.630 8       642.000         335.000         462.000                  
G29  23608664.196    23608664.155    23608664.280                    -5322073.181 8  -5322073.182 7                  -4147069.858 8       193.000          85.000         233.000                  
G30  24918276.251    24918275.284    24918278.553                     1432417.033 7   1432417.006 6                   1116174.206 7        85.000          25.000          65.000                  
> 2024 10 31 08 35 20.0000000  0  9
G04  23108407.265    23108407.114    23108408.388                    -7869616.511 8  -7869616.508 7                  -6132171.645 7       227.000          86.000          81.000                  
G05  22917768.578    22917768.250    22917768.079                    -9891498.029 8  -9891498.031 8                  -7707658.049 8       231.000         131.000         371.000                  
G06  20727539.087    20727539.137    20727541.966                   -21389449.474 9 -21389449.477 9                 -16667100.685 9       572.000         994.000        1364.000                  
G07  23480100.218    23480099.361    23480099.667                    -7494185.876 8  -7494185.875 8                  -5839624.552 8       240.000         134.000         203.000                  
G09  20551796.154    20551795.796    20551798.084                   -17897462.819 8 -17897462.822 9                 -13946075.798 9       492.000         713.000        1665.000                  
G11  19724970.387    19724970.158    19724970.344                   -10579131.227 9 -10579131.215 9                  -8243479.958 9       824.000         824.000         997.000                  
G20  20205539.603    20205538.504    20205538.736                   -24119045.221 9 -24119045.222 8                 -18794058.422 8       641.000         331.000         447.000                  
G29  23566314.467    23566313.622    23566313.892                    -5544625.310 8  -5544625.318 7                  -4320487.094 8       196.000          85.000         231.000                  
G30  24951947.966    24951947.326    24951951.387                     1609367.384 7   1609367.386 6                   1254057.590 7        81.000          26.000          65.000                  
> 2024 10 31 08 35 30.0000000  0  9
G04  23055005.729    23055005.165    23055006.439                    -8150244.456 8  -8150244.443 7                  -6350842.751 7       232.000          82.000          83.000                  
G05  22937981.088    22937980.925    22937980.739                    -9785280.316 8  -9785280.315 8                  -7624890.984 8       236.000         142.000         365.000                  
G06  20760622.410    20760622.235    20760625.148                   -21215596.767 9 -21215596.770 9                 -16531631.046 9       566.000         979.000        1381.000                  
G07  23480176.423    23480175.852    23480176.354                    -7493782.311 8  -7493782.306 8                  -5839310.030 8       234.000         127.000         208.000                  
G09  20522521.332    20522520.754    20522522.894                   -18051304.756 9 -18051304.758 9                 -14065952.619 9       510.000         769.000        1745.000                  
G11  19734387.415    19734387.303    19734387.481                   -10529643.686 9 -10529643.674 9                  -8204918.232 9       814.000         804.000         954.000                  
G20  20214367.602    20214366.281    20214366.651                   -24072654.333 9 -24072654.332 8                 -18757909.670 8       646.000         334.000         428.000                  
G29  23524561.867    23524561.512    23524561.251                    -5764035.651 8  -5764035.655 7                  -4491456.187 8       193.000          88.000         227.000                  
G30  24985697.748    24985697.649    24985701.960                     1786729.041 7   1786729.047 6                   1392261.463 7        76.000          24.000          69.000                  
> 2024 10 31 08 35 40.0000000  0  9
G04  23001827.093    23001826.901    23001827.904                    -8429697.956 8  -8429697.950 7                  -6568598.703 7       239.000          87.000          90.000                  
G05  22958639.184    22958638.466    22958638.629                    -9676722.711 8  -9676722.709 8                  -7540300.630 8       236.000         137.000         361.000                  
G06  20794560.378    20794560.301    20794563.033                   -21037251.773 9 -21037251.775 9                 -16392660.925 9       565.000         979.000        1327.000                  
G07  23480539.415    23480538.725    23480539.402                    -7491875.515 8  -7491875.517 8                  -5837824.194 8       232.000         124.000         204.000                  
G09  20493801.110    20493800.579    20493802.756                   -18202229.886 9 -18202229.889 9                 -14183556.599 9       519.000         805.000        1831.000                  
G11  19744919.575    19744919.229    19744919.373                   -10474298.086 9 -10474298.074 9                  -8161791.777 9       812.000         791.000         920.000                  
G20  20224017.125    20224015.851    20224016.203                   -24021945.650 9 -24021945.651 8                 -18718396.398 8       647.000         339.000         441.000                  
G29  23483419.425    23483418.580    23483418.792                    -5980241.072 8  -5980241.073 7                  -4659927.941 8       197.000          86.000         228.000                  
G30  25019528.727    25019526.340    25019530.818                     1964501.642 7   1964501.633 6                   1530785.560 7        74.000          30.000          64.000                  
> 2024 10 31 08 35 50.0000000  0  9
G04  22948872.549    22948872.507    22948873.160                    -8707976.031 8  -8707976.029 7                  -6785438.745 7       244.000          91.000          96.000                  
G05  22979735.955    22979734.857    22979734.654                    -9565860.866 8  -9565860.868 8                  -7453914.766 8       236.000         133.000         358.000                  
G06  20829338.495    20829338.516    20829341.124                   -20854491.063 9 -20854491.067 9                 -16250249.988 9       562.000         971.000        1250.000                  
G07  23481183.702    23481183.309    23481183.340                    -7488489.645 8  -7488489.650 8                  -5835185.811 8       234.000         123.000         191.000                  
G09  20465635.012    20465634.544    20465636.694                   -18350243.785 9 -18350243.788 9                 -14298892.081 9       553.000         910.000        1907.000                  
G11  19756558.183    19756557.845    19756558.074                   -10413136.242 9 -10413136.231 9                  -8114133.186 9       804.000         781.000         902.000                  
G20  20234481.881    20234480.667    20234480.997                   -23966952.544 9 -23966952.546 8                 -18675544.615 8       642.000         339.000         437.000                  
G29  23442890.479    23442890.151    23442889.777                    -6193221.456 8  -6193221.454 7                  -4825886.688 8       200.000          93.000         231.000                  
G30  25053426.286    25053426.101    25053430.503                     2142642.496 7   2142642.531 6                   1669596.602 7        73.000          22.000          64.000                  
> 2024 10 31 08 36  0.0000000  0  9
G04  22896152.600    22896152.241    22896153.408                    -8985021.925 8  -8985021.922 7                  -7001318.650 7       249.000          91.000          92.000                  
G05  23001273.709    23001273.619    23001273.147                    -9452674.868 8  -9452674.868 8                  -7365717.855 8       232.000         128.000         334.000                  
G06  20864953.068    20864952.832    20864955.517                   -20667336.373 9 -20667336.376 9                 -16104415.166 9       551.000         919.000        1162.000                  
G07  23482115.307    23482114.784    23482114.948                    -7483593.334 8  -7483593.331 8                  -5831370.424 8       232.000         124.000         195.000                  
G09  20438032.451    20438032.119    20438034.005                   -18495296.670 9 -18495296.672 9                 -14411920.283 9       599.000        1071.000        1964.000                  
G11  19769305.945    19769305.693    19769305.947                   -10346145.951 9 -10346145.940 9                  -8061932.951 9       794.000         766.000         900.000                  
G20  20245766.007    20245764.787    20245765.157                   -23907653.769 9 -23907653.769 8                 -18629337.763 8       639.000         330.000         445.000                  
G29  23402989.980    23402989.168    23402989.279                    -6402901.337 8  -6402901.336 7                  -4989273.606 8       203.000         100.000         235.000                  
G30  25087398.663    25087397.277    25087401.720                     2321164.676 7   2321164.674 6                   1808704.748 7        72.000          23.000          64.000                  
> 2024 10 31 08 36 10.0000000  0  9
G04  22843670.699    22843670.591    22843671.293                    -9260817.107 8  -9260817.101 7                  -7216223.971 7       257.000          92.000          93.000                  
G05  23023251.169    23023250.885    23023250.503                    -9337183.872 8  -9337183.874 8                  -7275724.847 8       229.000         124.000         335.000                  
G06  20901391.881    20901391.690    20901394.403                   -20475848.452 9 -20475848.454 9                 -15955203.803 9       518.000         830.000        1079.000                  
G07  23483333.134    23483332.519    23483332.757                    -7477193.940 8  -7477193.940 8                  -5826383.878 8       228.000         122.000         189.000                  
G09  20410995.598    20410995.011    20410996.927                   -18637377.436 9 -18637377.438 9                 -14522632.549 9       612.000        1119.000        2038.000                  
G11  19783157.623    19783157.351    19783157.651                   -10273355.007 9 -10273354.996 9                  -8005212.718 9       786.000         743.000         894.000                  
G20  20257866.148    20257864.850    20257865.292                   -23844067.339 9 -23844067.342 8                 -18579789.880 8       631.000         320.000         449.000                  
G29  23363724.091    23363723.623    23363723.540                    -6609244.189 8  -6609244.189 8                  -5150060.246 8       209.000         104.000         254.000                  
G30  25121437.364    25121436.174    25121441.130                     2500043.117 7   2500043.141 6                   1948090.535 7        69.000          26.000          60.000                  
> 2024 10 31 08 36 20.0000000  0  9
G04  22791431.330    22791430.742    22791431.298                    -9535337.896 8  -9535337.891 8                  -7430136.254 7       267.000         103.000          96.000                  
G05  23045664.332    23045663.877    23045663.686                    -9219402.088 8  -9219402.088 8                  -7183946.796 8       225.000         123.000         320.000                  
G06  20938644.643    20938644.469    20938647.149                   -20280083.712 9 -20280083.714 9                 -15802659.856 9       512.000         803.000         980.000                  
G07  23484836.399    23484835.935    23484836.030                    -7469293.366 8  -7469293.370 8                  -5820227.550 8       228.000         129.000         192.000                  
G09  20384526.967    20384526.373    20384528.456                   -18776470.299 9 -18776470.302 9                 -14631016.570 9       608.000        1082.000        2183.000                  
G11  19798108.477    19798108.189    19798108.374                   -10194787.763 9 -10194787.751 9                  -7943991.467 9       779.000         724.000         880.000                  
G20  20270779.351    20270778.292    20270778.672                   -23776207.113 9 -23776207.112 8                 -18526911.761 8       625.000         310.000         452.000                  
G29  23325101.558    23325100.592    23325100.890                    -6812208.728 8  -6812208.726 8                  -5308214.442 8       217.000         101.000         263.000                  
G30  25155542.572    25155539.413    25155545.127                     2679257.894 7   2679257.917 6                   2087738.372 7        68.000          20.000          65.000                  
> 2024 10 31 08 36 30.0000000  0  9
G04  22739441.196    22739441.152    22739441.758                    -9808544.689 8  -9808544.687 8                  -7643024.667 8       265.000         102.000         105.000                  
G05  23068513.171    23068513.004    23068512.751                    -9099328.450 8  -9099328.450 8                  -7090382.885 8       217.000         121.000         314.000                  
G06  20976703.571    20976703.388    20976705.936                   -20080083.434 9 -20080083.435 9                 -15646815.476 9       508.000         776.000         893.000                  
G07  23486628.036    23486627.542    23486627.999                    -7459878.095 8  -7459878.099 8                  -5812890.917 8       226.000         121.000         192.000                  
G09  20358632.886    20358632.380    20358634.551                   -18912544.015 9 -18912544.017 9                 -14737048.014 9       603.000        1074.000        2232.000                  
G11  19814156.420    19814156.317    19814156.493                   -10110454.400 9 -10110454.388 9                  -7878277.147 9       782.000         736.000         874.000                  
G20  20284506.254    20284505.014    20284505.573                   -23704072.225 9 -23704072.224 8                 -18470702.744 8       616.000         302.000         455.000                  
G29  23287132.297    23287131.273    23287131.238                    -7011738.431 8  -7011738.433 8                  -5463692.159 8       220.000         111.000         271.000                  
G30  25189707.721    25189706.969    25189711.863                     2858804.897 7   2858804.907 6                   2227645.103 7        67.000          23.000          64.000                  
> 2024 10 31 08 36 40.0000000  0  9
G04  22687704.783    22687704.465    22687705.581                   -10080422.400 8 -10080422.395 8                  -7854877.444 8       265.000         103.000         101.000                  
G05  23091793.803    23091793.644    23091793.510                    -8976986.860 8  -8976986.862 8                  -6995051.775 8       213.000         114.000         301.000                  
G06  21015555.777    21015555.420    21015557.906                   -19875914.162 8 -19875914.165 9                 -15487722.532 9       491.000         737.000         826.000                  
G07  23488705.788    23488705.107    23488705.621                    -7448959.334 8  -7448959.334 8                  -5804382.740 8       223.000         111.000         189.000                  
G09  20333314.262    20333314.083    20333316.224                   -19045592.352 9 -19045592.354 9                 -14840722.040 9       596.000        1043.000        2163.000                  
G11  19831294.873    19831294.769    19831294.919                   -10020391.298 9 -10020391.287 9                  -7808098.104 9       787.000         756.000         838.000                  
G20  20299041.880    20299040.569    20299041.099                   -23627686.951 9 -23627686.951 8                 -18411181.748 8       608.000         302.000         445.000                  
G29  23249822.397    23249821.867    23249822.016                    -7207801.858 8  -7207801.862 8                  -5616468.879 8       225.000         118.000         285.000                  
G30  25223931.164    25223931.811    25223936.444                     3038655.680 7   3038655.692 6                   2367788.518 7        65.000          25.000          55.000                  
> 2024 10 31 08 36 50.0000000  0  9
G04  22636230.751    22636230.749    22636231.432                   -10350919.090 8 -10350919.082 8                  -8065654.099 8       258.000         102.000         112.000                  
G05  23115508.694    23115508.445    23115508.328                    -8852364.678 8  -8852364.670 8                  -6897943.586 8       207.000         110.000         307.000                  
G06  21055195.137    21055195.088    21055197.488                   -19667606.326 8 -19667606.329 9                 -15325404.732 9       479.000         711.000         778.000                  
G07  23491073.949    23491073.827    23491074.171                    -7436511.636 8  -7436511.634 8                  -5794683.188 8       220.000         110.000         188.000                  
G09  20308580.171    20308579.680    20308581.789                   -19175572.627 9 -19175572.629 9                 -14942005.376 9       599.000        1047.000        2167.000                  
G11  19849523.523    19849523.281    19849523.479                    -9924599.689 9  -9924599.678 9                  -7733455.294 9       800.000         765.000         833.000                  
G20  20314388.452    20314387.358    20314387.749                   -23547039.933 9 -23547039.933 8                 -18348339.917 8       605.000         295.000         456.000                  
G29  23213185.491    23213184.905    23213184.657                    -7400331.487 8  -7400331.493 8                  -5766492.002 8       230.000         115.000         309.000                  
G30  25258217.485    25258215.662    25258220.063                     3218818.583 7   3218818.594 6                   2508175.166 7        67.000          27.000          65.000                  
> 2024 10 31 08 37  0.0000000  0  9
G04  22585020.701    22585019.897    22585021.264                   -10620030.610 8 -10620030.603 7                  -8275351.409 8       258.000          98.000         114.000                  
G05  23139651.303    23139650.661    23139650.632                    -8725497.608 8  -8725497.606 7                  -6799086.141 8       202.000          99.000         309.000                  
G06  21095607.382    21095607.227    21095609.796                   -19455238.851 8 -19455238.854 9                 -15159923.578 9       465.000         668.000         790.000                  
G07  23493729.838    23493729.162    23493729.486                    -7422557.563 8  -7422557.569 8                  -5783809.851 8       218.000         115.000         183.000                  
G09  20284428.549    20284428.008    20284430.162                   -19302490.479 9 -19302490.481 9                 -15040902.416 9       598.000        1069.000        2246.000                  
G11  19868832.508    19868832.338    19868832.455                    -9823130.190 9  -9823130.178 9                  -7654388.154 9       803.000         774.000         816.000                  
G20  20330538.990    20330537.666    20330538.231                   -23462168.662 9 -23462168.661 8                 -18282206.460 8       612.000         308.000         452.000                  
G29  23177224.351    23177223.682    23177223.912                    -7589307.993 8  -7589307.996 8                  -5913746.464 8       234.000         118.000         318.000                  
G30  25292552.422    25292551.644    25292556.366                     3399254.225 7   3399254.223 6                   2648774.352 7        66.000          26.000          63.000                  
> 2024 10 31 08 37 10.0000000  0 10
G04  22534082.875    22534082.789    22534084.163                   -10887708.690 8 -10887708.683 8                  -8483931.751 8       258.000         106.000         116.000                  
G05  23164221.426    23164221.580    23164221.326                    -8596377.052 8  -8596377.046 7                  -6698472.750 8       202.000          93.000         310.000                  
G06  21136785.134    21136785.256    21136787.929                   -19238847.110 8 -19238847.112 9                 -14991306.626 9       465.000         653.000         823.000                  
G07  23496675.628    23496675.187    23496675.645                    -7407075.716 8  -7407075.718 8                  -5771746.070 8       218.000         113.000         187.000                  
G09  20260866.746    20260866.260    20260868.576                   -19426307.910 9 -19426307.914 9                 -15137383.548 9       592.000        1044.000        2355.000                  
G11  19889220.566    19889220.261    19889220.381                    -9715990.967 9  -9715990.956 9                  -7570903.044 9       808.000         787.000         784.000                  
G20  20347494.407    20347493.288    20347493.643                   -23373067.451 9 -23373067.454 8                 -18212776.951 8       625.000         315.000         450.000                  
G26  24395466.271    24395468.544    24395501.340                     -635054.118 7   -635054.136 6                   -494851.797 6        62.000          23.000          18.000                  
G29  23141951.061    23141950.554    23141950.967                    -7774668.776 8  -7774668.777 8                  -6058183.488 8       237.000         120.000         335.000                  
G30  25326940.457    25326939.276    25326944.559                     3579967.281 7   3579967.282 6                   2789589.704 7        69.000          28.000          64.000                  
> 2024 10 31 08 37 20.0000000  0 10
G04  22483422.548    22483422.427    22483423.242                   -11153932.768 8 -11153932.760 8                  -8691379.115 8       264.000         102.000         123.000                  
G05  23189217.201    23189217.082    23189217.170                    -8465023.121 8  -8465023.122 7                  -6596119.090 8       198.000          92.000         311.000                  
G06  21178717.089    21178716.925    21178719.591                   -19018494.871 8 -19018494.874 9                 -14819603.579 9       457.000         635.000         816.000                  
G07  23499911.077    23499910.912    23499911.332                    -7390072.533 8  -7390072.533 8                  -5758496.854 8       218.000         107.000         185.000                  
G09  20237897.019    20237896.511    20237898.761                   -19547015.137 9 -19547015.141 9                 -15231441.162 9       600.000        1070.000        2404.000                  
G11  19910680.029    19910679.975    19910680.051                    -9603219.515 9  -9603219.503 9                  -7483029.202 9       806.000         776.000         747.000                  
G20  20365250.290    20365249.132    20365249.497                   -23279759.431 9 -23279759.433 8                 -18140069.422 8       624.000         312.000         438.000                  
G26  24323762.420    24323762.983    24323764.573                    -1011861.279 7  -1011861.255 6                   -788464.190 6        63.000          24.000          26.000                  
G29  23107373.053    23107372.401    23107372.589                    -7956379.593 8  -7956379.597 8                  -6199776.384 8       235.000         127.000         332.000                  
G30  25361376.707    25361376.631    25361381.712                     3760934.832 7   3760934.826 6                   2930603.399 7        61.000          22.000          62.000                  
> 2024 10 31 08 37 30.0000000  0 10
G04  22433043.886    22433042.863    22433044.012                   -11418677.721 8 -11418677.714 8                  -8897673.919 8       270.000         110.000         120.000                  
G05  23214634.928    23214635.138    23214635.210                    -8331451.517 8  -8331451.518 7                  -6492037.387 8       196.000          92.000         305.000                  
G06  21221390.943    21221390.889    21221393.460                   -18794241.886 8 -18794241.888 9                 -14644860.994 9       446.000         605.000         783.000                  
G07  23503436.475    23503435.671    23503436.118                    -7371550.021 8  -7371550.022 8                  -5744063.743 8       221.000         114.000         190.000                  
G09  20215521.477    20215521.098    20215523.477                   -19664598.263 9 -19664598.265 9                 -15323064.431 9       593.000        1032.000        2444.000                  
G11  19933205.137    19933204.976    19933205.019                    -9484850.301 9  -9484850.291 9                  -7390793.483 9       800.000         770.000         729.000                  
G20  20383803.296    20383801.949    20383802.242                   -23182263.998 9 -23182263.999 8                 -18064098.993 8       623.000         316.000         427.000                  
G26  24252249.077    24252250.508    24252252.572                    -1387657.446 7  -1387657.452 6                  -1081292.407 6        65.000          21.000          22.000                  
G29  23073496.988    23073495.814    23073495.792                    -8134402.350 8  -8134402.349 8                  -6338495.470 8       237.000         123.000         323.000                  
G30  25395860.648    25395858.245    25395863.319                     3942138.398 7   3942138.416 6                   3071800.915 7        65.000          26.000          58.000                  
> 2024 10 31 08 37 40.0000000  0 10
G04  22382953.771    22382953.610    22382955.064                   -11681897.964 8 -11681897.961 8                  -9102780.637 8       271.000         108.000         121.000                  
G05  23240475.862    23240475.840    23240475.845                    -8195657.805 8  -8195657.801 7                  -6386224.182 8       202.000          97.000         297.000                  
G06  21264799.592    21264799.384    21264802.147                   -18566128.039 8 -18566128.042 9                 -14467109.956 9       437.000         578.000         779.000                  
G07  23507254.054    23507253.355    23507253.187                    -7351490.018 8  -7351490.015 8                  -5728432.602 8       224.000         116.000         187.000                  
G09  20193747.055    20193746.612    20193749.184                   -19779023.450 9 -19779023.453 9                 -15412226.970 9       575.000         983.000        2447.000                  
G11  19956792.289    19956792.151    19956792.235                    -9360898.911 9  -9360898.901 9                  -7294208.047 9       798.000         757.000         722.000                  
G20  20403152.650    20403151.609    20403152.067                   -23080580.992 9 -23080580.992 8                 -17984865.538 8       621.000         307.000         412.000                  
G26  24180943.165    24180943.991    24180946.116                    -1762375.353 7  -1762375.364 6                  -1373280.381 6        67.000          20.000          20.000                  
G29  23040332.563    23040332.032    23040332.043                    -8308679.152 8  -8308679.154 8                  -6474295.580 8       234.000         126.000         311.000                  
G30  25430387.608    25430386.555    25430391.141                     4123580.164 7   4123580.171 6                   3213184.042 7        65.000          19.000          63.000                  
> 2024 10 31 08 37 50.0000000  0 10
G04  22333158.453    22333158.004    22333159.647                   -11943575.273 8 -11943575.267 8                  -9306685.055 8       272.000         114.000         125.000                  
G05  23266735.282    23266735.000    23266735.015                    -8057665.613 8  -8057665.612 7                  -6278697.861 8       199.000          95.000         304.000                  
G06  21308929.865    21308929.805    21308932.632                   -18334221.052 8 -18334221.056 9                 -14286403.228 9       414.000         518.000         810.000                  
G07  23511362.289    23511361.373    23511361.453                    -7329902.009 8  -7329902.006 8                  -5711610.828 8       224.000         116.000         191.000                  
G09  20172574.893    20172574.515    20172576.878                   -19890284.713 9 -19890284.716 9                 -15498924.102 9       607.000        1087.000        2458.000                  
G11  19981433.327    19981433.186    19981433.348                    -9231409.704 9  -9231409.695 9                  -7193307.425 9       796.000         754.000         729.000                  
G20  20423294.046    20423292.907    20423293.143                   -22974738.597 9 -22974738.599 8                 -17902390.989 8       618.000         309.000         403.000                  
G26  24109852.320    24109849.541    24109852.657                    -2135974.786 7  -2135974.795 6                  -1664396.796 6        64.000          23.000          26.000                  
G29  23007887.305    23007886.877    23007886.863                    -8479180.354 8  -8479180.357 8                  -6607153.690 8       240.000         132.000         303.000                  
G30  25464954.200    25464953.740    25464958.895                     4305235.053 7   4305235.042 6                   3354733.240 7        65.000          21.000          60.000                  
> 2024 10 31 08 38  0.0000000  0 10
G04  22283664.264    22283664.168    22283665.263                   -12203669.254 8 -12203669.253 8                  -9509355.701 8       277.000         114.000         130.000                  
G05  23293412.684    23293412.163    23293412.006                    -7917476.660 8  -7917476.659 7                  -6169459.752 8       196.000          97.000         297.000                  
G06  21353773.431    21353773.371    21353776.103                   -18098566.998 8 -18098567.002 8                 -14102776.749 9       391.000         458.000         807.000                  
G07  23515763.275    23515762.713    23515762.774                    -7306773.279 8  -7306773.278 8                  -5693588.498 8       222.000         119.000         198.000                  
G09  20152010.160    20152009.699    20152011.899                   -19998354.317 9 -19998354.319 9                 -15583134.201 9       636.000        1196.000        2507.000                  
G11  20007123.667    20007123.442    20007123.621                    -9096406.336 9  -9096406.327 9                  -7088110.020 9       785.000         734.000         734.000                  
G20  20444225.601    20444224.198    20444224.549                   -22864743.728 9 -22864743.730 8                 -17816680.731 8       614.000         311.000         394.000                  
G26  24038981.248    24038980.776    24038984.628                    -2508393.146 7  -2508393.158 6                  -1954592.905 6        65.000          24.000          30.000                  
G29  22976170.659    22976169.548    22976169.698                    -8645854.609 8  -8645854.610 8                  -6737029.737 8       239.000         130.000         307.000                  
G30  25499561.711    25499562.240    25499566.332                     4487100.071 7   4487100.052 6                   3496446.191 7        65.000          19.000          58.000                  
> 2024 10 31 08 38 10.0000000  0 10
G04  22234473.858    22234473.286    22234474.270                   -12462168.527 8 -12462168.520 8                  -9710783.703 8       279.000         113.000         122.000                  
G05  23320501.403    23320501.500    23320501.475                    -7775121.533 8  -7775121.534 7                  -6058533.727 8       202.000         100.000         292.000                  
G06  21399315.775    21399315.472    21399318.315                   -17859241.247 8 -17859241.251 8                 -13916289.184 9       365.000         415.000         798.000                  
G07  23520454.062    23520453.917    23520454.044                    -7282120.323 8  -7282120.325 8                  -5674378.432 8       218.000         109.000         204.000                  
G09  20132051.957    20132051.666    20132053.973                   -20103234.138 9 -20103234.140 9                 -15664858.733 9       645.000        1230.000        2561.000                  
G11  20033852.954    20033852.793    20033852.889                    -8955943.026 9  -8955943.017 9                  -6978658.115 9       786.000         727.000         713.000                  
G20  20465939.830    20465938.695    20465939.109                   -22750633.297 9 -22750633.299 8                 -17727763.549 8       614.000         308.000         386.000                  
G26  23968344.497    23968343.078    23968345.843                    -2879596.676 7  -2879596.711 6                  -2243842.426 6        67.000          22.000          29.000                  
G29  22945185.626    22945184.811    22945184.871                    -8808680.669 8  -8808680.671 8                  -6863907.199 8       239.000         130.000         291.000                  
G30  25534204.815    25534204.289    25534208.073                     4669143.417 7   4669143.390 6                   3638298.093 7        66.000          23.000          54.000                  
> 2024 10 31 08 38 20.0000000  0 10
G04  22185597.067    22185596.830    22185598.060                   -12719015.776 8 -12719015.769 8                  -9910924.427 8       279.000         111.000         125.000                  
G05  23348005.884    23348005.558    23348005.822                    -7630585.687 8  -7630585.688 7                  -5945908.437 8       198.000          98.000         286.000                  
G06  21445550.700    21445550.656    21445553.518                   -17616273.805 8 -17616273.808 8                 -13726963.932 9       346.000         374.000         790.000                  
G07  23525440.861    23525440.635    23525441.132                    -7255913.895 8  -7255913.895 8                  -5653957.871 8       218.000         111.000         204.000                  
G09  20112709.447    20112709.045    20112711.300                   -20204880.690 9 -20204880.693 9                 -15744063.858 9       657.000        1268.000        2547.000                  
G11  20061619.474    20061619.279    20061619.385                    -8810029.387 9  -8810029.378 9                  -6864959.198 9       777.000         722.000         689.000                  
G20  20488439.089    20488437.797    20488438.265                   -22632399.140 9 -22632399.140 8                 -17635633.055 8       612.000         309.000         381.000                  
G26  23897952.200    23897951.483    23897956.020                    -3249505.259 7  -3249505.235 6                  -2532082.856 6        76.000          22.000          35.000                  
G29  22914945.536    22914945.126    22914945.074                    -8967591.900 8  -8967591.897 8                  -6987734.137 8       241.000         129.000         287.000                  
G30  25568882.784    25568882.285    25568886.532                     4851379.046 7   4851379.051 6                   3780299.781 6        64.000          23.000          49.000                  
> 2024 10 31 08 38 30.0000000  0 10
G04  22137034.292    22137034.143    22137035.282                   -12974214.967 8 -12974214.960 8                 -10109780.943 8       280.000         116.000         120.000                  
G05  23375916.788    23375915.682    23375916.199                    -7483916.225 8  -7483916.224 7                  -5831620.588 8       198.000          96.000         273.000                  
G06  21492461.407    21492461.356    21492464.305                   -17369756.373 8 -17369756.375 8                 -13534872.486 9       328.000         330.000         806.000                  
G07  23530718.252    23530717.295    23530717.543                    -7228186.334 8  -7228186.333 8                  -5632352.051 8       220.000         115.000         212.000                  
G09  20093978.656    20093978.134    20093980.363                   -20303312.126 9 -20303312.128 9                 -15820763.679 9       658.000        1282.000        2574.000                  
G11  20090409.447    20090409.049    20090409.185                    -8658737.690 9  -8658737.682 9                  -6747069.571 9       768.000         699.000         677.000                  
G20  20511712.772    20511711.460    20511711.997                   -22510095.271 9 -22510095.272 8                 -17540331.347 8       613.000         301.000         373.000                  
G26  23827811.031    23827810.261    23827814.222                    -3618099.965 7  -3618099.950 6                  -2819299.499 6        79.000          26.000          42.000                  
G29  22885451.850    22885451.245    22885451.292                    -9122583.814 8  -9122583.818 8                  -7108507.062 8       250.000         141.000         298.000                  
G30  25603589.439    25603588.627    25603592.289                     5033759.530 7   5033759.535 6                   3922414.262 7        63.000          21.000          51.000                  
> 2024 10 31 08 38 40.0000000  0 10
G04  22088797.110    22088796.663    22088797.768                   -13227703.505 8 -13227703.497 8                 -10307304.489 8       280.000         120.000         119.000                  
G05  23404236.391    23404235.858    23404236.086                    -7335093.978 8  -7335093.975 7                  -5715655.192 8       198.000          94.000         259.000                  
G06  21540042.751    21540042.687    21540045.711                   -17119714.250 8 -17119714.253 8                 -13340034.491 9       307.000         298.000         802.000                  
G07  23536290.603    23536289.590    23536290.003                    -7198903.358 8  -7198903.356 8                  -5609534.212 8       224.000         114.000         210.000                  
G09  20075868.440    20075868.188    20075870.460                   -20398480.634 9 -20398480.635 9                 -15894920.962 9       656.000        1279.000        2700.000                  
G11  20120221.104    20120221.004    20120221.164                    -8502075.016 9  -8502075.009 9                  -6624994.764 9       758.000         683.000         668.000                  
G20  20535763.184    20535761.986    20535762.369                   -22383709.699 9 -22383709.699 8                 -17441849.076 8       617.000         314.000         355.000                  
G26  23757937.268    23757935.096    23757939.176                    -3985295.053 7  -3985295.048 6                  -3105425.536 6        81.000          24.000          45.000                  
G29  22856716.870    22856716.208    22856716.553                    -9273586.127 8  -9273586.125 8                  -7226171.209 8       252.000         136.000         315.000                  
G30  25638326.870    25638325.266    25638330.593                     5216305.267 7   5216305.279 6                   4064657.578 6        64.000          28.000          44.000                  
> 2024 10 31 08 38 50.0000000  0 10
G04  22040885.120    22040884.607    22040886.072                   -13479483.301 8 -13479483.291 8                 -10503496.545 8       285.000         117.000         127.000                  
G05  23432957.015    23432956.617    23432956.904                    -7184164.462 8  -7184164.459 7                  -5598047.770 8       199.000          84.000         236.000                  
G06  21588278.002    21588277.771    21588280.785                   -16866237.817 8 -16866237.818 8                 -13142520.434 9       299.000         278.000         782.000                  
G07  23542152.722    23542152.438    23542152.591                    -7168095.462 8  -7168095.462 8                  -5585528.092 8       228.000         122.000         212.000                  
G09  20058376.162    20058375.771    20058378.216                   -20490403.416 9 -20490403.418 9                 -15966549.103 9       654.000        1250.000        2801.000                  
G11  20151041.197    20151041.133    20151041.203                    -8340114.246 9  -8340114.238 9                  -6498791.569 9       746.000         666.000         651.000                  
G20  20560580.079    20560578.901    20560579.216                   -22253296.184 9 -22253296.185 8                 -17340228.160 8       621.000         317.000         341.000                  
G26  23688330.714    23688330.513    23688334.692                    -4351069.003 7  -4351068.997 6                  -3390444.205 7        86.000          26.000          67.000                  
G29  22828742.584    22828741.741    22828741.819                    -9420593.984 8  -9420593.987 8                  -7340722.785 8       252.000         146.000         326.000                  
G30  25673085.493    25673086.272    25673089.869                     5398970.905 7   5398970.897 6                   4206994.354 6        67.000          23.000          41.000                  
> 2024 10 31 08 39  0.0000000  0 10
G04  21993309.517    21993308.682    21993309.776                   -13729496.819 8 -13729496.814 8                 -10698312.283 8       289.000         127.000         137.000                  
G05  23462081.659    23462081.267    23462081.029                    -7031114.282 8  -7031114.279 7                  -5478787.948 8       192.000          99.000         218.000                  
G06  21637160.572    21637160.420    21637163.413                   -16609358.067 8 -16609358.072 8                 -12942354.421 9       297.000         273.000         793.000                  
G07  23548311.047    23548310.532    23548310.812                    -7135733.855 8  -7135733.858 8                  -5560311.251 8       229.000         123.000         207.000                  
G09  20041509.288    20041509.002    20041511.431                   -20579038.776 9 -20579038.779 9                 -16035615.630 9       651.000        1245.000        2823.000                  
G11  20182866.792    20182866.691    20182866.817                    -8172870.076 9  -8172870.069 9                  -6368471.446 9       740.000         654.000         634.000                  
G20  20586164.328    20586163.283    20586163.417                   -22118849.694 9 -22118849.695 8                 -17235464.673 8       620.000         316.000         323.000                  
G26  23619014.739    23619012.341    23619016.060                    -4715340.740 7  -4715340.748 6                  -3674292.350 7        92.000          25.000          76.000                  
G29  22801539.529    22801539.267    22801539.609                    -9563543.997 8  -9563543.998 8                  -7452112.405 8       260.000         146.000         343.000                  
G30  25707871.744    25707872.150    25707875.328                     5581771.142 7   5581771.147 6                   4349435.978 6        63.000          23.000          36.000                  
> 2024 10 31 08 39 10.0000000  0 10
G04  21946073.472    21946073.077    21946074.517                   -13977720.628 8 -13977720.619 8                 -10891733.440 8       287.000         125.000         138.000                  
G05  23491605.642    23491605.406    23491605.328                    -6875964.282 8  -6875964.283 7                  -5357891.880 8       193.000          87.000         201.000                  
G06  21686678.205    21686678.214    21686681.241                   -16349140.544 8 -16349140.546 8                 -12739587.560 9       289.000         260.000         795.000                  
G07  23554764.394    23554763.385    23554763.592                    -7101824.040 8  -7101824.037 8                  -5533888.035 8       229.000         129.000         211.000                  
G09  20025269.726    20025269.285    20025271.570                   -20664379.605 9 -20664379.607 9                 -16102114.998 9       664.000        1295.000        2756.000                  
G11  20215688.150    20215687.933    20215688.122                    -8000392.531 9  -8000392.526 9                  -6234073.379 9       736.000         650.000         618.000                  
G20  20612510.550    20612509.200    20612509.395                   -21980400.120 9 -21980400.122 8                 -17127581.908 8       617.000         307.000         297.000                  
G26  23549989.504    23549987.840    23549992.673                    -5078062.851 7  -5078062.858 6                  -3956932.971 7        96.000          28.000          84.000                  
G29  22775114.669    22775114.191    22775114.609                    -9702407.666 8  -9702407.668 8                  -7560317.872 8       264.000         155.000         369.000                  
G30  25742681.439    25742679.026    25742683.306                     5764686.486 7   5764686.508 6                   4491967.312 6        62.000          24.000          34.000                  
> 2024 10 31 08 39 20.0000000  0 10
G04  21899181.346    21899181.197    21899182.674                   -14224139.242 8 -14224139.239 8                 -11083747.944 8       284.000         118.000         137.000                  
G05  23521523.990    23521523.559    23521523.303                    -6718743.788 8  -6718743.789 7                  -5235382.453 8       190.000          83.000         180.000                  
G06  21736817.495    21736817.102    21736820.110                   -16085658.838 8 -16085658.838 8                 -12534277.187 9       283.000         245.000         794.000                  
G07  23561508.630    23561508.138    23561508.416                    -7066379.517 8  -7066379.517 8                  -5506268.946 8       228.000         130.000         211.000                  
G09  20009656.550    20009655.997    20009658.496                   -20746427.161 9 -20746427.164 9                 -16166048.162 9       653.000        1271.000        2741.000                  
G11  20249494.125    20249493.996    20249494.178                    -7822740.712 9  -7822740.705 9                  -6095643.406 9       740.000         644.000         609.000                  
G20  20639611.144    20639609.858    20639609.881                   -21837985.955 9 -21837985.955 8                 -17016609.836 8       610.000         302.000         281.000                  
G26  23481267.805    23481267.358    23481271.228                    -5439195.776 8  -5439195.763 6                  -4238335.275 7       106.000          34.000         100.000                  
G29  22749471.611    22749470.845    22749471.106                    -9837165.231 8  -9837165.231 8                  -7665323.789 8       268.000         166.000         375.000                  
G30  25777505.163    25777504.289    25777507.758                     5947689.785 7   5947689.795 6                   4634567.166 6        63.000          20.000          41.000                  
> 2024 10 31 08 39 30.0000000  0 10
G04  21852644.202    21852643.771    21852644.973                   -14468695.035 8 -14468695.028 8                 -11274310.913 8       288.000         124.000         143.000                  
G05  23551838.947    23551837.914    23551837.931                    -6559439.714 8  -6559439.704 7                  -5111249.414 8       184.000          81.000         172.000                  
G06  21787572.013    21787571.202    21787574.154                   -15818944.618 8 -15818944.623 8                 -12326447.970 9       280.000         238.000         809.000                  
G07  23568550.773    23568550.621    23568550.979                    -7029371.647 8  -7029371.650 8                  -5477431.615 8       226.000         122.000         215.000                  
G09  19994677.589    19994677.113    19994679.655                   -20825141.179 9 -20825141.181 9                 -16227383.750 9       639.000        1216.000        2744.000                  
G11  20284281.397    20284281.230    20284281.380                    -7639932.727 9  -7639932.721 9                  -5953195.632 9       741.000         662.000         605.000                  
G20  20667466.412    20667465.325    20667465.419                   -21691604.378 9 -21691604.377 8                 -16902546.267 8       603.000         306.000         271.000                  
G26  23412865.333    23412864.089    23412868.402                    -5798657.641 8  -5798657.635 6                  -4518435.480 8       115.000          34.000         117.000                  
G29  22724620.870    22724620.465    22724620.588                    -9967755.681 8  -9967755.681 8                  -7767082.607 8       276.000         171.000         383.000                  
G30  25812349.646    25812348.698    25812351.926                     6130796.044 7   6130796.068 6                   4777247.248 6        65.000          17.000          43.000                  
> 2024 10 31 08 39 40.0000000  0 10
G04  21806460.168    21806459.890    21806461.684                   -14711392.347 8 -14711392.348 8                 -11463425.725 8       299.000         132.000         150.000                  
G05  23582540.238    23582539.384    23582539.791                    -6398101.431 8  -6398101.433 7                  -4985531.285 8       180.000          80.000         161.000                  
G06  21838922.640    21838922.503    21838925.567                   -15549091.727 8 -15549091.731 8                 -12116173.024 9       273.000         234.000         828.000                  
G07  23575884.447    23575883.956    23575884.143                    -6990834.005 8  -6990834.006 8                  -5447402.229 8       225.000         123.000         222.000                  
G09  19980329.133    19980328.572    19980330.995                   -20900543.996 9 -20900543.997 9                 -16286139.206 9       661.000        1293.000        2677.000                  
G11  20320034.359    20320034.102    20320034.343                    -7452049.798 9  -7452049.791 9                  -5806793.355 9       742.000         643.000         597.000                  
G20  20696065.697    20696064.169    20696064.457                   -21541315.386 9 -21541315.387 8                 -16785437.980 8       593.000         284.000         254.000                  
G26  23344783.303    23344783.164    23344786.732                    -6156428.128 8  -6156428.128 6                  -4797217.707 8       128.000          46.000         131.000                  
G29  22700563.524    22700562.275    22700562.730                   -10094180.921 8 -10094180.921 8                  -7865595.827 8       281.000         179.000         378.000                  
G30  25847202.997    25847202.862    25847206.922                     6313958.374 7   6313958.361 6                   4919971.001 6        63.000          24.000          41.000                  
> 2024 10 31 08 39 50.0000000  0  9
G04  21760642.259    21760642.261    21760643.663                   -14952167.123 8 -14952167.121 8                 -11651042.455 8       304.000         140.000         142.000                  
G05  23613632.563    23613632.113    23613631.688                    -6234710.585 8  -6234710.586 7                  -4858213.795 8       171.000          72.000         149.000                  
G06  21890866.388    21890866.169    21890869.380                   -15276125.772 8 -15276125.774 8                 -11903472.311 9       261.000         214.000         833.000                  
G07  23583515.774    23583515.338    23583515.476                    -6950732.320 8  -6950732.320 8                  -5416154.186 8       226.000         117.000         218.000                  
G09  19966619.218    19966618.789    19966621.175                   -20972589.946 9 -20972589.948 9                 -16342278.940 9       690.000        1409.000        2664.000                  
G11  20356750.288    20356750.219    20356750.411                    -7259105.889 9  -7259105.884 9                  -5656447.471 9       741.000         650.000         588.000                  
G20  20725409.508    20725408.480    20725408.446                   -21387111.266 9 -21387111.264 8                 -16665278.935 8       576.000         272.000         240.000                  
G26  23277040.743    23277040.070    23277044.139                    -6512418.505 8  -6512418.496 6                  -5074612.853 8       144.000          48.000         150.000                  
G29  22677309.997    22677309.583    22677309.812                   -10216375.320 8 -10216375.322 8                  -7960812.260 8       285.000         180.000         370.000                  
> 2024 10 31 08 40  0.0000000  0  9
G04  21715190.599    21715190.332    21715191.719                   -15191017.821 8 -15191017.810 8                 -11837159.926 8       310.000         135.000         143.000                  
G05  23645106.110    23645106.506    23645106.422                    -6069311.278 8  -6069311.275 7                  -4729331.290 8       167.000          71.000         141.000                  
G06  21943385.756    21943385.480    21943388.848                   -15000134.837 8 -15000134.839 8                 -11688414.460 9       256.000         207.000         843.000                  
G07  23591438.788    23591438.294    23591439.018                    -6909094.372 8  -6909094.367 8                  -5383709.058 8       221.000         116.000         231.000                  
G09  19953544.879    19953544.502    19953546.856                   -21041296.283 9 -21041296.286 9                 -16395816.369 9       713.000        1506.000        2668.000                  
G11  20394414.805    20394414.458    20394414.818                    -7061178.295 9  -7061178.289 9                  -5502218.177 9       733.000         636.000         562.000                  
G20  20755487.801    20755486.915    20755487.125                   -21229047.381 9 -21229047.382 8                 -16542112.317 8       567.000         266.000         227.000                  
G26  23209642.057    23209641.124    23209645.283                    -6866602.252 8  -6866602.245 7                  -5350600.264 8       148.000          55.000         170.000                  
G29  22654862.997    22654862.182    22654862.436                   -10334336.872 8 -10334336.874 8                  -8052730.403 8       291.000         190.000         354.000                  
> 2024 10 31 08 40 10.0000000  0 10
G04  21670112.880    21670112.553    21670113.939                   -15427903.232 8 -15427903.225 8                 -12021745.984 8       312.000         145.000         148.000                  
G05  23676963.301    23676962.016    23676962.262                    -5901908.237 8  -5901908.223 7                  -4598887.392 8       163.000          62.000         132.000                  
G06  21996471.332    21996471.422    21996474.587                   -14721167.665 8 -14721167.669 8                 -11471037.488 9       252.000         200.000         831.000                  
G07  23599657.245    23599656.580    23599657.042                    -6865908.632 8  -6865908.636 8                  -5350057.886 8       224.000         114.000         227.000                  
G09  19941110.223    19941109.778    19941112.105                   -21106641.334 9 -21106641.336 9                 -16446734.630 9       735.000        1598.000        2571.000                  
G11  20433020.050    20433019.806    20433020.164                    -6858305.924 9  -6858305.919 9                  -5344135.856 9       719.000         619.000         538.000                  
G16  24001079.187    24001060.549    24001082.064                     -586144.206 7   -586144.167 6                   -456739.960 6        74.000          20.000          18.000                  
G20  20786298.074    20786296.910    20786297.095                   -21067140.148 9 -21067140.149 8                 -16415950.869 8       565.000         262.000         228.000                  
G26  23142599.150    23142598.768    23142602.653                    -7218912.780 8  -7218912.763 7                  -5625127.947 8       160.000          71.000         201.000                  
G29  22633228.697    22633228.445    22633228.547                   -10448024.758 8 -10448024.759 8                  -8141318.425 8       295.000         201.000         360.000                  
> 2024 10 31 08 40 20.0000000  0 10
G04  21625416.144    21625416.239    21625417.838                   -15662784.327 8 -15662784.320 8                 -12204770.234 8       313.000         144.000         154.000                  
G05  23709199.148    23709197.910    23709197.992                    -5732508.633 8  -5732508.638 7                  -4466887.756 8       164.000          65.000         126.000                  
G06  22050113.880    22050113.687    22050117.034                   -14439275.023 8 -14439275.026 8                 -11251380.926 9       246.000         185.000         821.000                  
G07  23608171.465    23608170.809    23608171.383                    -6821165.708 8  -6821165.709 8                  -5315193.298 8       218.000         115.000         220.000                  
G09  19929318.678    19929318.299    19929320.624                   -21168605.985 9 -21168605.988 9                 -16495018.819 9       749.000        1656.000        2536.000                  
G11  20472558.448    20472558.120    20472558.554                    -6650530.444 9  -6650530.438 9                  -5182232.901 9       714.000         620.000         511.000                  
G16  23926120.280    23926106.131    23926119.992                     -980044.404 7   -980044.423 6                   -763672.417 6        75.000          23.000          27.000                  
G20  20817836.012    20817834.445    20817834.734                   -20901409.031 9 -20901409.031 8                 -16286809.784 8       558.000         249.000         223.000                  
G26  23075926.231    23075925.126    23075929.396                    -7569285.858 8  -7569285.858 7                  -5898145.968 8       167.000          73.000         218.000                  
G29  22612415.188    22612414.685    22612414.716                   -10557401.182 8 -10557401.182 8                  -8226546.858 8       294.000         197.000         349.000                  
> 2024 10 31 08 40 30.0000000  0 11
G04  21581105.349    21581104.696    21581106.334                   -15895642.225 8 -15895642.217 8                 -12386217.965 8       320.000         148.000         155.000                  
G05  23741808.498    23741808.755    23741808.251                    -5561140.157 8  -5561140.158 7                  -4333353.925 8       164.000          64.000         118.000                  
G06  22104299.435    22104299.204    22104302.540                   -14154527.914 8 -14154527.913 8                 -11029500.115 9       238.000         178.000         810.000                  
G07  23616979.891    23616979.328    23616979.874                    -6774876.669 8  -6774876.671 8                  -5279123.964 8       210.000         104.000         224.000                  
G09  19918170.306    19918169.854    19918172.185                   -21227191.741 9 -21227191.743 9                 -16540670.075 9       756.000        1701.000        2513.000                  
G11  20513017.874    20513017.638    20513017.885                    -6437914.823 9  -6437914.816 9                  -5016558.423 8       707.000         596.000         483.000                  
G16  23851290.904    23851276.371    23851288.115                    -1373285.821 7  -1373285.821 6                  -1070094.212 6        76.000          21.000          25.000                  
G20  20850093.146    20850092.149    20850092.457                   -20731894.016 9 -20731894.015 8                 -16154720.203 8       553.000         249.000         222.000                  
G26  23009629.827    23009628.437    23009632.815                    -7917676.908 8  -7917676.904 7                  -6169619.547 8       180.000          81.000         242.000                  
G29  22592425.253    22592424.843    22592424.873                   -10662449.541 8 -10662449.544 8                  -8308402.757 8       294.000         204.000         340.000                  
G31  24704967.392    24704967.406    24704978.650                     -326693.279 8   -326693.247 6                   -254569.798 6       104.000          28.000          25.000                  
> 2024 10 31 08 40 40.0000000  0 11
G04  21537183.356    21537183.022    21537184.820                   -16126452.408 8 -16126452.400 8                 -12566070.072 8       333.000         163.000         162.000                  
G05  23774789.546    23774789.412    23774789.280                    -5387824.791 8  -5387824.791 7                  -4198303.049 8       166.000          70.000         114.000                  
G06  22159016.321    22159015.729    22159018.900                   -13866991.658 8 -13866991.662 8                 -10805445.934 9       236.000         169.000         773.000                  
G07  23626081.195    23626080.981    23626081.424                    -6727046.834 8  -6727046.832 8                  -5241854.004 8       207.000         114.000         206.000                  
G09  19907665.198    19907664.879    19907667.239                   -21282395.107 9 -21282395.109 9                 -16583685.706 9       746.000        1661.000        2307.000                  
G11  20554387.375    20554387.037    20554387.359                    -6220517.146 9  -6220517.141 9                  -4847157.675 8       694.000         583.000         435.000                  
G16  23776593.434    23776582.107    23776594.146                    -1765819.439 7  -1765819.448 6                  -1375964.518 6        84.000          25.000          28.000                  
G20  20883064.532    20883063.240    20883063.320                   -20558629.963 9 -20558629.963 8                 -16019709.304 8       547.000         241.000         200.000                  
G26  22943719.792    22943718.645    22943722.957                    -8264035.597 8  -8264035.595 7                  -6439509.476 8       189.000          83.000         244.000                  
G29  22573263.037    22573262.240    22573262.382                   -10763148.524 8 -10763148.526 8                  -8386869.513 8       295.000         196.000         336.000                  
G31  24646230.828    24646231.244    24646237.605                     -635350.709 8   -635350.701 6                   -495079.456 6       105.000          28.000          40.000                  
> 2024 10 31 08 40 50.0000000  0 11
G04  21493660.975    21493660.721    21493662.243                   -16355164.393 8 -16355164.384 8                 -12744287.225 8       339.000         176.000         182.000                  
G05  23808141.818    23808141.389    23808141.146                    -5212558.717 8  -5212558.718 7                  -4061732.179 8       165.000          63.000         114.000                  
G06  22214255.619    22214255.289    22214258.513                   -13576705.628 8 -13576705.631 8                 -10579249.077 9       231.000         159.000         779.000                  
G07  23635480.212    23635479.861    23635480.239                    -6677655.799 8  -6677655.794 7                  -5203367.519 8       205.000          94.000         212.000                  
G09  19897809.708    19897809.331    19897811.523                   -21334187.056 9 -21334187.058 9                 -16624043.098 9       757.000        1686.000        2267.000                  
G11  20596660.508    20596660.330    20596660.438                    -5998370.308 9  -5998370.303 9                  -4674056.270 8       697.000         591.000         418.000                  
G16  23702045.485    23702036.510    23702045.746                    -2157569.653 7  -2157569.633 6                  -1681224.390 6        88.000          20.000          20.000                  
G20  20916747.173    20916745.870    20916746.133                   -20381626.496 9 -20381626.497 8                 -15881784.547 8       534.000         236.000         205.000                  
G26  22878210.625    22878210.650    22878214.317                    -8608285.224 8  -8608285.217 7                  -6707755.908 8       192.000          84.000         258.000                  
G29  22554937.193    22554936.333    22554936.774                   -10859451.897 8 -10859451.898 8                  -8461911.134 8       294.000         199.000         361.000                  
G31  24587690.106    24587690.730    24587701.586                     -942985.485 8   -942985.484 6                   -734797.340 6       103.000          32.000          38.000                  
> 2024 10 31 08 41  0.0000000  0 11
G04  21450542.182    21450542.056    21450543.552                   -16581754.788 8 -16581754.780 8                 -12920851.183 8       351.000         186.000         181.000                  
G05  23841860.746    23841860.217    23841859.981                    -5035365.475 8  -5035365.487 7                  -3923659.569 8       162.000          65.000         108.000                  
G06  22270005.008    22270005.558    22270008.900                   -13283736.245 8 -13283736.244 8                 -10350961.300 9       229.000         165.000         768.000                  
G07  23645174.891    23645174.466    23645174.958                    -6626710.303 8  -6626710.308 7                  -5163669.762 8       201.000          94.000         209.000                  
G09  19888603.604    19888603.155    19888605.431                   -21382566.231 9 -21382566.233 9                 -16661741.186 9       763.000        1727.000        2338.000                  
G11  20639825.915    20639825.736    20639825.843                    -5771535.181 9  -5771535.176 9                  -4497301.656 8       696.000         587.000         405.000                  
G16  23627656.219    23627649.908    23627656.387                    -2548487.643 8  -2548487.626 6                  -1985835.771 6       105.000          20.000          24.000                  
G20  20951134.340    20951132.948    20951133.361                   -20200921.026 9 -20200921.025 8                 -15740975.118 8       527.000         233.000         193.000                  
G26  22813113.394    22813112.315    22813116.339                    -8950376.519 8  -8950376.515 7                  -6974320.590 8       197.000          89.000         272.000                  
G29  22537450.566    22537450.296    22537450.731                   -10951341.481 8 -10951341.485 8                  -8533513.432 8       290.000         192.000         353.000                  
G31  24529349.637    24529348.909    24529349.524                    -1249570.674 8  -1249570.686 6                   -973692.296 7       110.000          23.000          69.000                  
> 2024 10 31 08 41 10.0000000  0 11
G04  21407828.860    21407828.881    21407830.244                   -16806214.100 8 -16806214.092 8                 -13095754.544 8       363.000         201.000         183.000                  
G05  23875938.406    23875938.408    23875938.787                    -4856282.940 8  -4856282.928 7                  -3784114.814 8       159.000          66.000         106.000                  
G06  22326250.936    22326251.277    22326254.535                   -12988163.711 8 -12988163.714 8                 -10120645.097 9       228.000         170.000         767.000                  
G07  23655161.002    23655160.677    23655161.681                    -6574231.091 8  -6574231.089 7                  -5122776.906 8       201.000         100.000         199.000                  
G09  19880044.207    19880043.730    19880046.194                   -21427545.598 9 -21427545.600 9                 -16696790.067 9       750.000        1657.000        2419.000                  
G11  20683869.029    20683868.779    20683868.991                    -5540087.257 9  -5540087.253 9                  -4316952.679 8       688.000         568.000         405.000                  
G16  23553432.132    23553428.072    23553431.348                    -2938537.901 8  -2938537.928 6                  -2289770.970 6       111.000          23.000          22.000                  
G20  20986216.223    20986214.894    20986215.066                   -20016565.334 9 -20016565.336 8                 -15597321.377 8       526.000         227.000         189.000                  
G26  22748432.866    22748432.218    22748435.940                    -9290273.348 8  -9290273.349 7                  -7239175.262 8       197.000          93.000         290.000                  
G29  22520805.345    22520804.882    22520805.232                   -11038814.128 8 -11038814.129 8                  -8601673.981 8       287.000         188.000         367.000                  
G31  24471211.122    24471210.846    24471210.984                    -1555093.709 8  -1555093.715 6                  -1211762.265 7       117.000          27.000          84.000                  
> 2024 10 31 08 41 20.0000000  0 11
G04  21365533.459    21365532.969    21365534.320                   -17028480.546 8 -17028480.541 8                 -13268949.197 8       380.000         208.000         194.000                  
G05  23910378.514    23910379.206    23910379.327                    -4675296.804 8  -4675296.807 7                  -3643086.765 8       160.000          67.000         105.000                  
G06  22382987.019    22382986.890    22382990.227                   -12690015.771 8 -12690015.773 8                  -9888322.085 9       228.000         160.000         723.000                  
G07  23665445.571    23665445.261    23665445.859                    -6520186.612 8  -6520186.610 7                  -5080664.379 8       203.000          91.000         202.000                  
G09  19872139.314    19872138.845    19872141.216                   -21469086.295 9 -21469086.298 9                 -16729159.460 9       750.000        1648.000        2421.000                  
G11  20728785.379    20728785.192    20728785.316                    -5304050.261 9  -5304050.256 9                  -4133027.807 8       680.000         558.000         398.000                  
G16  23479389.957    23479387.603    23479389.680                    -3327631.957 8  -3327631.939 6                  -2592961.119 6       121.000          24.000          24.000                  
G20  21021992.615    21021991.373    21021991.326                   -19828559.295 9 -19828559.298 8                 -15450823.208 8       509.000         209.000         171.000                  
G26  22684186.843    22684186.163    22684190.277                    -9627887.305 8  -9627887.302 7                  -7502251.047 8       198.000          93.000         292.000                  
G29  22505010.812    22505010.308    22505010.801                   -11121814.972 8 -11121814.973 8                  -8666350.036 8       287.000         188.000         391.000                  
G31  24413285.907    24413286.460    24413286.456                    -1859488.892 8  -1859488.911 6                  -1448953.410 7       117.000          36.000          86.000                  
> 2024 10 31 08 41 30.0000000  0 11
G04  21323655.060    21323654.823    21323656.461                   -17248551.779 8 -17248551.772 8                 -13440433.278 8       388.000         224.000         206.000                  
G05  23945174.612    23945173.193    23945173.691                    -4492451.859 8  -4492451.861 7                  -3500610.259 8       162.000          64.000         106.000                  
G06  22440196.380    22440196.304    22440199.439                   -12389379.577 8 -12389379.582 8                  -9654060.184 9       227.000         150.000         662.000                  
G07  23676022.095    23676022.254    23676023.013                    -6464604.817 8  -6464604.818 7                  -5037353.936 8       205.000          94.000         197.000                  
G09  19864884.691    19864884.272    19864886.653                   -21507209.548 9 -21507209.549 9                 -16758865.918 9       753.000        1669.000        2362.000                  
G11  20774559.062    20774558.869    20774559.039                    -5063508.107 9  -5063508.102 9                  -3945592.410 8       663.000         525.000         378.000                  
G16  23405535.459    23405533.752    23405534.924                    -3715740.447 8  -3715740.451 6                  -2895383.328 6       129.000          24.000          26.000                  
G20  21058451.984    21058450.846    21058451.078                   -19636962.870 8 -19636962.872 8                 -15301527.330 8       489.000         193.000         164.000                  
G26  22620381.040    22620380.215    22620384.480                    -9963189.450 8  -9963189.448 7                  -7763525.462 8       195.000          91.000         305.000                  
G29  22490066.265    22490065.917    22490066.268                   -11200349.806 8 -11200349.807 8                  -8727546.043 8       289.000         179.000         410.000                  
G31  24355577.580    24355577.589    24355577.482                    -2162750.032 8  -2162750.024 6                  -1685260.803 7       122.000          33.000          86.000                  
> 2024 10 31 08 41 40.0000000  0 11
G04  21282203.181    21282202.753    21282204.230                   -17466384.102 8 -17466384.093 8                 -13610172.743 8       400.000         234.000         211.000                  
G05  23980321.694    23980320.466    23980321.107                    -4307752.257 8  -4307752.254 7                  -3356688.698 7       158.000          61.000          96.000                  
G06  22497870.696    22497870.348    22497873.286                   -12086300.721 8 -12086300.727 8                  -9417894.911 9       219.000         147.000         622.000                  
G07  23686894.672    23686894.088    23686894.603                    -6407472.349 8  -6407472.355 7                  -4992835.181 8       200.000          94.000         175.000                  
G09  19858284.023    19858283.719    19858286.184                   -21541895.591 9 -21541895.593 9                 -16785894.026 9       750.000        1669.000        2322.000                  
G11  20821181.733    20821181.480    20821181.815                    -4818503.964 9  -4818503.959 8                  -3754680.125 8       639.000         490.000         349.000                  
G16  23331882.102    23331880.712    23331881.525                    -4102792.147 8  -4102792.140 6                  -3196981.984 6       128.000          22.000          30.000                  
G20  21095590.980    21095589.766    21095590.235                   -19441795.114 8 -19441795.115 8                 -15149448.616 8       472.000         181.000         157.000                  
G26  22557028.631    22557027.894    22557032.067                   -10296109.197 8 -10296109.194 7                  -8022943.529 8       189.000          94.000         320.000                  
G29  22475978.239    22475977.479    22475977.881                   -11274384.306 8 -11274384.308 8                  -8785235.276 8       287.000         184.000         426.000                  
G31  24298094.059    24298093.143    24298093.894                    -2464829.565 8  -2464829.558 6                  -1920647.420 7       128.000          38.000          97.000                  
> 2024 10 31 08 41 50.0000000  0 11
G04  21241183.989    21241183.771    21241185.156                   -17681941.137 8 -17681941.132 8                 -13778139.271 8       401.000         235.000         219.000                  
G05  24015819.829    24015818.960    24015819.431                    -4121208.622 8  -4121208.608 7                  -3211330.178 7       155.000          63.000          95.000                  
G06  22555999.211    22555999.080    22556002.105                   -11780831.894 8 -11780831.899 8                  -9179867.326 9       212.000         149.000         600.000                  
G07  23698062.959    23698062.406    23698063.150                    -6348783.290 8  -6348783.291 7                  -4947103.528 8       195.000          93.000         177.000                  
G09  19852339.993    19852339.566    19852341.945                   -21573132.520 9 -21573132.523 9                 -16810234.517 9       761.000        1718.000        2288.000                  
G11  20868643.797    20868643.744    20868643.955                    -4569088.845 9  -4569088.841 8                  -3560330.715 8       631.000         472.000         338.000                  
G16  23258442.230    23258440.152    23258441.310                    -4488722.453 8  -4488722.427 6                  -3497706.858 6       126.000          27.000          38.000                  
G20  21133405.139    21133403.676    21133404.192                   -19243082.667 8 -19243082.669 8                 -14994607.804 8       463.000         178.000         147.000                  
G26  22494141.623    22494140.791    22494145.268                   -10626582.870 8 -10626582.869 7                  -8280455.561 8       191.000          91.000         334.000                  
G29  22462750.717    22462750.486    22462751.054                   -11343892.278 8 -11343892.281 8                  -8839397.353 8       288.000         194.000         445.000                  
G31  24240843.106    24240842.704    24240842.816                    -2765687.142 8  -2765687.162 6                  -2155081.955 7       132.000          37.000          95.000                  
> 2024 10 31 08 42  0.0000000  0 11
G04  21200599.018    21200598.871    21200600.511                   -17895215.585 8 -17895215.579 8                 -13944327.158 8       393.000         223.000         201.000                  
G05  24051660.491    24051660.369    24051660.866                    -3932861.873 8  -3932861.869 7                  -3064566.606 7       155.000          69.000          92.000                  
G06  22614566.834    22614566.798    22614570.383                   -11473054.692 8 -11473054.688 8                  -8940041.006 9       207.000         130.000         585.000                  
G07  23709522.524    23709522.408    23709523.103                    -6288560.651 8  -6288560.662 7                  -4900176.838 8       194.000          86.000         161.000                  
G09  19847048.795    19847048.404    19847050.768                   -21600937.906 9 -21600937.908 9                 -16831901.069 9       773.000        1777.000        2234.000                  
G11  20916930.233    20916929.892    20916930.088                    -4315343.406 9  -4315343.402 8                  -3362607.037 8       623.000         470.000         318.000                  
G16  23185222.756    23185220.345    23185221.548                    -4873495.354 8  -4873495.375 6                  -3797529.850 6       129.000          24.000          36.000                  
G20  21171882.387    21171881.153    21171881.758                   -19040881.852 8 -19040881.856 8                 -14837048.778 8       457.000         174.000         142.000                  
G26  22431726.504    22431725.756    22431730.182                   -10954576.012 8 -10954576.013 7                  -8536034.760 8       198.000          94.000         348.000                  
G29  22450384.690    22450384.268    22450384.680                   -11408877.719 8 -11408877.721 8                  -8890035.383 8       293.000         191.000         448.000                  
G31  24183826.136    24183826.103    24183826.204                    -3065311.023 8  -3065311.015 6                  -2388555.129 8       139.000          47.000         101.000                  
> 2024 10 31 08 42 10.0000000  0 11
G04  21160457.323    21160457.234    21160458.881                   -18106160.452 8 -18106160.444 8                 -14108699.786 8       383.000         219.000         190.000                  
G05  24087845.231    24087844.713    24087844.856                    -3742713.251 8  -3742713.265 6                  -2916399.037 7       147.000          49.000          95.000                  
G06  22673566.598    22673566.355    22673569.910                   -11163010.764 8 -11163010.773 8                  -8698448.417 9       206.000         123.000         552.000                  
G07  23721278.470    23721277.704    23721277.839                    -6226787.853 8  -6226787.849 7                  -4852042.246 8       192.000          85.000         155.000                  
G09  19842414.837    19842414.418    19842416.760                   -21625290.212 9 -21625290.215 9                 -16850876.908 9       790.000        1839.000        2208.000                  
G11  20966032.523    20966032.259    20966032.438                    -4057308.992 9  -4057308.987 8                  -3161541.293 8       623.000         458.000         308.000                  
G16  23112236.445    23112235.391    23112236.624                    -5257034.639 8  -5257034.623 6                  -4096391.578 6       139.000          28.000          37.000                  
G20  21211020.743    21211019.189    21211020.075                   -18835209.665 8 -18835209.668 8                 -14676784.810 8       449.000         166.000         138.000                  
G26  22369797.777    22369797.051    22369801.347                   -11280013.801 8 -11280013.795 8                  -8789622.625 8       206.000         101.000         349.000                  
G29  22438885.996    22438885.060    22438885.674                   -11469305.948 8 -11469305.947 8                  -8937122.321 8       297.000         201.000         450.000                  
G31  24127053.904    24127054.166    24127054.183                    -3363649.829 8  -3363649.827 7                  -2621026.942 8       140.000          51.000         102.000                  
> 2024 10 31 08 42 20.0000000  0 11
G04  21120765.981    21120765.020    21120766.568                   -18314743.985 8 -18314743.977 8                 -14271232.410 8       388.000         222.000         194.000                  
G05  24124369.103    24124368.854    24124369.113                    -3550778.940 8  -3550778.924 6                  -2766839.989 7       142.000          50.000          83.000                  
G06  22732986.956    22732986.331    22732989.939                   -10850756.776 8 -10850756.775 8                  -8455133.696 9       206.000         126.000         532.000                  
G07  23733328.712    23733327.535    23733328.089                    -6163463.972 8  -6163463.978 7                  -4802699.034 8       191.000          84.000         146.000                  
G09  19838438.839    19838438.501    19838440.862                   -21646183.597 9 -21646183.599 9                 -16867157.489 9       792.000        1848.000        2208.000                  
G11  21015940.285    21015939.927    21015940.049                    -3795042.739 9  -3795042.735 8                  -2957178.018 8       623.000         456.000         301.000                  
G16  23039498.907    23039497.580    23039497.930                    -5639278.790 8  -5639278.785 6                  -4394244.127 6       152.000          20.000          46.000                  
G20  21250813.379    21250812.053    21250812.475                   -18626098.527 8 -18626098.527 8                 -14513841.135 8       446.000         160.000         144.000                  
G26  22308366.172    22308365.939    22308370.053                   -11602837.111 8 -11602837.109 8                  -9041173.157 8       210.000         106.000         364.000                  
G29  22428257.647    22428256.792    22428257.234                   -11525158.737 8 -11525158.737 8                  -8980644.032 8       302.000         208.000         465.000                  
G31  24070533.868    24070533.131    24070533.456                    -3660667.180 8  -3660667.177 6                  -2852469.036 8       141.000          45.000         111.000                  
> 2024 10 31 08 42 30.0000000  0 11
G04  21081523.534    21081523.484    21081524.975                   -18520960.665 8 -18520960.659 8                 -14431920.731 8       409.000         240.000         195.000                  
G05  24161225.392    24161223.508    24161224.723                    -3357101.402 8  -3357101.414 6                  -2615922.547 7       134.000          50.000          88.000                  
G06  22792812.017    22792811.386    22792814.715                   -10536375.282 8 -10536375.281 8                  -8210161.165 9       207.000         134.000         502.000                  
G07  23745668.837    23745668.433    23745668.511                    -6098614.008 8  -6098614.002 7                  -4752166.684 8       191.000          86.000         147.000                  
G09  19835117.323    19835116.912    19835119.263                   -21663638.863 9 -21663638.866 9                 -16880759.013 9       793.000        1850.000        2227.000                  
G11  21066637.346    21066636.886    21066637.263                    -3528628.319 9  -3528628.316 8                  -2749582.401 8       622.000         465.000         288.000                  
G16  22967012.892    22967012.149    22967012.862                    -6020192.055 8  -6020192.050 6                  -4691059.623 6       170.000          30.000          41.000                  
G20  21291248.675    21291247.912    21291248.571                   -18413607.667 8 -18413607.669 8                 -14348263.911 8       436.000         159.000         143.000                  
G26  22247439.374    22247438.396    22247442.673                   -11923012.957 8 -11923012.963 8                  -9290660.779 8       217.000         113.000         383.000                  
G29  22418498.298    22418497.435    22418497.820                   -11576444.723 8 -11576444.724 8                  -9020607.134 8       307.000         209.000         467.000                  
G31  24014265.473    24014266.079    24014266.757                    -3956352.602 8  -3956352.601 6                  -3082873.166 8       143.000          48.000         113.000                  
> 2024 10 31 08 42 40.0000000  0 11
G04  21042744.140    21042744.067    21042745.574                   -18724748.016 8 -18724748.009 8                 -14590716.069 8       416.000         261.000         195.000                  
G05  24198414.385    24198414.417    24198414.903                    -3161666.181 8  -3161666.174 6                  -2463635.258 7       129.000          44.000          80.000                  
G06  22853036.261    22853036.606    22853039.528                   -10219891.641 8 -10219891.641 8                  -7963550.604 8       212.000         144.000         478.000                  
G07  23758305.756    23758305.248    23758305.629                    -6032205.823 8  -6032205.828 7                  -4700420.123 8       196.000          90.000         143.000                  
G09  19832456.765    19832456.403    19832458.773                   -21677620.319 9 -21677620.321 9                 -16891653.678 9       803.000        1901.000        2274.000                  
G11  21118118.217    21118118.131    21118118.173                    -3258092.804 9  -3258092.800 8                  -2538775.546 8       615.000         454.000         276.000                  
G16  22894798.769    22894797.661    22894798.102                    -6399681.021 8  -6399680.998 6                  -4986765.298 6       183.000          32.000          44.000                  
G20  21332327.441    21332326.201    21332326.957                   -18197739.595 8 -18197739.595 8                 -14180055.101 8       420.000         151.000         140.000                  
G26  22187032.345    22187031.968    22187036.176                   -12240450.690 8 -12240450.689 8                  -9538014.722 8       227.000         125.000         422.000                  
G29  22409616.634    22409616.026    22409616.543                   -11623116.994 8 -11623116.994 8                  -9056975.213 8       315.000         216.000         469.000                  
G31  23958265.197    23958265.453    23958265.659                    -4250638.927 8  -4250638.935 6                  -3312187.117 8       143.000          45.000         113.000                  
> 2024 10 31 08 42 50.0000000  0 11
G04  21004426.606    21004426.208    21004427.759                   -18926108.926 8 -18926108.920 8                 -14747620.685 8       429.000         277.000         190.000                  
G05  24235928.524    24235928.596    24235929.478                    -2964525.058 8  -2964525.061 6                  -2310018.918 7       120.000          43.000          79.000                  
G06  22913644.155    22913644.000    22913647.253                    -9901396.182 8  -9901396.182 8                  -7715372.403 8       211.000         138.000         457.000                  
G07  23771233.456    23771232.539    23771233.349                    -5964272.859 8  -5964272.858 7                  -4647485.406 8       192.000          86.000         130.000                  
G09  19830451.602    19830451.080    19830453.526                   -21688158.088 9 -21688158.090 9                 -16899864.974 9       793.000        1852.000        2140.000                  
G11  21170365.966    21170365.909    21170366.155                    -2983528.974 9  -2983528.970 8                  -2324829.778 8       610.000         449.000         269.000                  
G16  22822860.860    22822859.255    22822860.020                    -6777717.103 8  -6777717.097 6                  -5281338.868 6       189.000          32.000          40.000                  
G20  21374035.724    21374034.089    21374034.792                   -17978562.347 8 -17978562.343 8                 -14009267.681 8       403.000         130.000         134.000                  
G26  22127152.053    22127151.218    22127155.435                   -12555125.415 8 -12555125.412 8                  -9783215.664 8       239.000         141.000         438.000                  
G29  22401609.462    22401609.073    22401609.334                   -11665194.670 8 -11665194.670 8                  -9089763.023 8       322.000         230.000         457.000                  
G31  23902531.368    23902531.270    23902531.083                    -4543523.735 8  -4543523.742 7                  -3540408.964 8       143.000          53.000         118.000                  
> 2024 10 31 08 43  0.0000000  0 11
G04  20966580.453    20966580.132    20966581.620                   -19124992.412 8 -19124992.405 8                 -14902594.841 8       446.000         299.000         200.000                  
G05  24273768.952    24273768.829    24273769.363                    -2765674.991 8  -2765674.990 6                  -2155070.988 7       116.000          36.000          75.000                  
G06  22974627.783    22974627.851    22974631.005                    -9580925.077 8  -9580925.078 8                  -7465654.738 8       209.000         139.000         482.000                  
G07  23784454.506    23784453.917    23784454.630                    -5894794.619 8  -5894794.617 7                  -4593346.562 8       193.000          85.000         135.000                  
G09  19829106.065    19829105.593    19829107.936                   -21695228.847 9 -21695228.850 9                 -16905374.712 9       787.000        1820.000        2078.000                  
G11  21223373.135    21223372.671    21223372.899                    -2704975.950 9  -2704975.948 8                  -2107775.548 8       596.000         425.000         268.000                  
G16  22751215.295    22751213.461    22751214.567                    -7154217.566 8  -7154217.557 6                  -5574715.824 6       194.000          35.000          41.000                  
G20  21416370.497    21416368.972    21416370.160                   -17756090.598 8 -17756090.593 8                 -13835913.150 8       387.000         128.000         141.000                  
G26  22067811.761    22067811.339    22067815.461                   -12866958.127 8 -12866958.124 8                 -10026202.078 8       248.000         144.000         482.000                  
G29  22394483.107    22394482.344    22394482.879                   -11702644.123 8 -11702644.125 8                  -9118944.321 8       319.000         221.000         468.000                  
G31  23847073.975    23847074.107    23847073.966                    -4834950.484 8  -4834950.492 6                  -3767494.509 8       144.000          48.000         114.000                  
> 2024 10 31 08 43 10.0000000  0 11
G04  20929209.141    20929208.709    20929210.338                   -19321380.466 8 -19321380.461 8                 -15055624.502 8       470.000         322.000         195.000                  
G05  24311929.656    24311928.442    24311929.215                    -2565146.117 8  -2565146.099 6                  -1998814.982 7       116.000          38.000          69.000                  
G06  23035974.798    23035974.330    23035977.730                    -9258547.049 8  -9258547.052 8                  -7214451.156 8       212.000         136.000         464.000                  
G07  23797967.197    23797966.806    23797967.405                    -5823783.691 8  -5823783.693 7                  -4538013.448 8       191.000          91.000         124.000                  
G09  19828418.436    19828417.948    19828420.300                   -21698842.665 9 -21698842.667 9                 -16908190.715 9       782.000        1810.000        2049.000                  
G11  21277125.205    21277125.051    21277125.357                    -2422506.083 9  -2422506.078 8                  -1887669.228 8       581.000         407.000         276.000                  
G16  22679870.866    22679869.752    22679870.471                    -7529131.869 8  -7529131.888 6                  -5866856.835 7       197.000          32.000          52.000                  
G20  21459323.326    21459321.659    21459322.814                   -17530372.144 8 -17530372.144 8                 -13660028.719 8       370.000         116.000         127.000                  
G26  22009021.662    22009021.383    22009025.312                   -13175902.623 8 -13175902.627 8                 -10266937.942 9       256.000         151.000         501.000                  
G29  22388237.329    22388236.657    22388237.077                   -11735466.351 8 -11735466.352 8                  -9144520.119 8       317.000         231.000         437.000                  
G31  23791900.018    23791899.114    23791899.036                    -5124896.104 8  -5124896.114 6                  -3993426.023 8       142.000          44.000         118.000                  
> 2024 10 31 08 43 20.0000000  0 11
G04  20892317.764    20892317.496    20892318.847                   -19515245.902 8 -19515245.897 8                 -15206688.488 8       488.000         349.000         195.000                  
G05  24350404.990    24350403.299    24350404.627                    -2362959.068 8  -2362959.078 6                  -1841266.570 7       114.000          42.000          70.000                  
G06  23097672.757    23097672.563    23097675.900                    -8934321.327 8  -8934321.330 8                  -6961807.831 8       213.000         141.000         468.000                  
G07  23811771.370    23811771.028    23811771.665                    -5751243.225 8  -5751243.220 7                  -4481488.461 8       196.000          93.000         124.000                  
G09  19828388.162    19828387.811    19828390.242                   -21699000.841 9 -21699000.843 9                 -16908313.984 9       772.000        1759.000        2089.000                  
G11  21331610.791    21331610.713    21331611.055                    -2136182.748 9  -2136182.743 8                  -1664560.224 8       568.000         390.000         282.000                  
G16  22608840.086    22608839.483    22608840.135                    -7902399.722 8  -7902399.721 6                  -6157714.897 7       201.000          34.000          62.000                  
G20  21502886.381    21502885.184    21502886.053                   -17301445.892 8 -17301445.890 8                 -13481644.712 8       359.000         102.000         125.000                  
G26  21950791.455    21950791.027    21950795.289                   -13481903.475 8 -13481903.473 8                 -10505380.088 9       262.000         160.000         519.000                  
G29  22382873.545    22382872.795    22382873.018                   -11763653.430 8 -11763653.431 8                  -9166484.100 8       318.000         233.000         427.000                  
G31  23737012.441    23737011.926    23737012.488                    -5413327.993 8  -5413327.988 6                  -4218178.290 8       149.000          50.000         119.000                  
> 2024 10 31 08 43 30.0000000  0 11
G04  20855915.571    20855915.194    20855916.483                   -19706541.297 9 -19706541.292 8                 -15355749.853 8       510.000         384.000         197.000                  
G05  24389193.252    24389194.082    24389194.677                    -2159115.380 8  -2159115.364 6                  -1682427.430 7       113.000          40.000          60.000                  
G06  23159715.369    23159714.894    23159718.449                    -8608286.390 8  -8608286.395 8                  -6707754.723 8       213.000         140.000         462.000                  
G07  23825869.325    23825868.998    23825869.687                    -5677156.245 8  -5677156.250 7                  -4423758.382 8       196.000          90.000         121.000                  
G09  19829019.227    19829018.854    19829021.239                   -21695684.960 9 -21695684.963 9                 -16905730.196 9       767.000        1733.000        2161.000                  
G11  21386821.458    21386821.093    21386821.723                    -1846049.176 9  -1846049.172 8                  -1438482.192 8       561.000         376.000         298.000                  
G16  22538138.246    22538137.847    22538138.510                    -8273940.052 8  -8273940.056 6                  -6447226.816 7       211.000          39.000          80.000                  
G20  21547056.470    21547055.509    21547056.212                   -17069330.462 8 -17069330.464 8                 -13300775.629 8       350.000         104.000         124.000                  
G26  21893136.117    21893135.538    21893139.745                   -13784884.860 8 -13784884.858 8                 -10741469.412 9       262.000         163.000         563.000                  
G29  22378396.879    22378396.061    22378396.563                   -11787178.514 8 -11787178.515 8                  -9184815.364 8       316.000         232.000         437.000                  
G31  23682423.296    23682423.900    23682423.921                    -5700191.320 8  -5700191.324 7                  -4441707.911 8       155.000          52.000         128.000                  
> 2024 10 31 08 43 40.0000000  0 11
G04  20820000.897    20820000.485    20820001.718                   -19895274.559 9 -19895274.554 8                 -15502814.762 8       534.000         425.000         197.000                  
G05  24428289.780    24428288.682    24428288.708                    -1953671.371 8  -1953671.382 6                  -1522341.329 7       112.000          46.000          61.000                  
G06  23222083.925    23222083.978    23222087.415                    -8280535.684 8  -8280535.685 8                  -6452364.655 8       211.000         135.000         448.000                  
G07  23840255.165    23840254.280    23840255.098                    -5601561.036 8  -5601561.035 7                  -4364853.026 8       200.000          89.000         115.000                  
G09  19830304.249    19830303.791    19830306.269                   -21688932.299 9 -21688932.301 9                 -16900468.408 9       760.000        1713.000        2227.000                  
G11  21442738.396    21442738.266    21442738.617                    -1552204.086 9  -1552204.082 8                  -1209512.072 8       543.000         351.000         293.000                  
G16  22467770.551    22467770.400    22467769.798                    -8643726.606 8  -8643726.619 6                  -6735372.155 7       219.000          44.000          83.000                  
G20  21591819.885    21591818.357    21591818.981                   -16834100.095 8 -16834100.102 8                 -13117479.350 8       344.000         102.000         120.000                  
G26  21836059.238    21836058.445    21836062.570                   -14084826.241 8 -14084826.240 8                 -10975189.899 9       262.000         163.000         596.000                  
G29  22374801.506    22374800.888    22374801.610                   -11806071.292 8 -11806071.293 8                  -9199537.129 8       316.000         224.000         444.000                  
G31  23628133.927    23628133.673    23628133.504                    -5985488.769 8  -5985488.774 7                  -4664017.256 8       166.000          71.000         138.000                  
> 2024 10 31 08 43 50.0000000  0 11
G04  20784585.682    20784585.411    20784586.777                   -20081382.454 9 -20081382.448 8                 -15647833.908 8       546.000         430.000         199.000                  
G05  24467691.656    24467690.912    24467691.172                    -1746612.007 8  -1746612.024 6                  -1360996.587 7       113.000          31.000          69.000                  
G06  23284775.251    23284775.396    23284778.671                    -7951091.068 8  -7951091.068 8                  -6195654.654 8       208.000         131.000         433.000                  
G07  23854933.567    23854933.047    23854933.511                    -5524424.849 8  -5524424.847 7                  -4304746.917 8       201.000          99.000         117.000                  
G09  19832249.726    19832249.249    19832251.699                   -21678709.371 9 -21678709.373 9                 -16892502.520 9       766.000        1736.000        2293.000                  
G11  21499356.379    21499356.103    21499356.570                    -1254675.138 9  -1254675.133 8                   -977671.406 8       525.000         336.000         282.000                  
G16  22397755.333    22397754.489    22397754.569                    -9011661.462 8  -9011661.482 6                  -7022074.610 7       223.000          48.000          95.000                  
G20  21637174.655    21637173.353    21637174.030                   -16595758.128 8 -16595758.125 7                 -12931758.439 8       334.000          92.000         109.000                  
G26  21779577.984    21779577.449    21779581.556                   -14381635.877 8 -14381635.876 8                 -11206470.035 9       262.000         164.000         604.000                  
G29  22372095.786    22372095.507    22372095.722                   -11820290.796 8 -11820290.797 8                  -9210617.330 8       318.000         228.000         456.000                  
G31  23574154.297    23574153.930    23574153.795                    -6269151.260 8  -6269151.258 7                  -4885052.748 8       174.000          74.000         144.000                  
> 2024 10 31 08 44  0.0000000  0 11
G04  20749669.766    20749669.566    20749670.784                   -20264866.616 9 -20264866.610 8                 -15790808.590 8       571.000         473.000         224.000                  
G05  24507389.917    24507390.553    24507392.194                    -1537986.204 8  -1537986.189 6                  -1198430.975 7       110.000          32.000          60.000                  
G06  23347772.516    23347772.475    23347776.011                    -7620038.759 8  -7620038.767 8                  -5937691.909 8       211.000         139.000         429.000                  
G07  23869900.023    23869898.873    23869899.441                    -5445779.517 8  -5445779.516 7                  -4243464.882 8       206.000          97.000         110.000                  
G09  19834849.349    19834848.909    19834851.316                   -21665047.857 9 -21665047.859 9                 -16881857.204 9       770.000        1754.000        2314.000                  
G11  21556657.841    21556657.331    21556657.936                     -953554.871 9   -953554.868 8                   -743032.321 8       520.000         320.000         278.000                  
G16  22328097.962    22328096.819    22328097.636                    -9377710.917 8  -9377710.938 6                  -7307307.912 8       232.000          44.000         102.000                  
G20  21683108.798    21683107.444    21683108.500                   -16354372.752 8 -16354372.752 7                 -12743666.099 8       332.000          85.000         105.000                  
G26  21723698.071    21723697.443    21723701.438                   -14675286.939 8 -14675286.938 8                 -11435288.967 9       267.000         168.000         634.000                  
G29  22370274.413    22370273.861    22370274.426                   -11829862.314 8 -11829862.313 8                  -9218075.674 8       315.000         231.000         478.000                  
G31  23520487.220    23520486.928    23520486.508                    -6551173.559 8  -6551173.557 7                  -5104810.175 8       182.000          85.000         153.000                  
> 2024 10 31 08 44 10.0000000  0 11
G04  20715263.617    20715263.239    20715264.214                   -20445673.937 9 -20445673.932 9                 -15931697.409 8       589.000         501.000         219.000                  
G05  24547390.183    24547389.923    24547390.647                    -1327789.730 8  -1327789.738 6                  -1034641.533 7       106.000          38.000          57.000                  
G06  23411069.680    23411069.792    23411073.433                    -7287409.753 8  -7287409.755 8                  -5678500.545 8       211.000         133.000         410.000                  
G07  23885157.018    23885156.244    23885156.565                    -5365602.146 8  -5365602.144 7                  -4180989.038 8       208.000          98.000         108.000                  
G09  19838107.576    19838107.273    19838109.674                   -21647925.193 9 -21647925.195 9                 -16868514.879 9       778.000        1793.000        2330.000                  
G11  21614635.470    21614635.190    21614635.556                     -648881.142 8   -648881.139 8                   -505624.335 8       497.000         299.000         271.000                  
G16  22258816.819    22258815.624    22258816.634                    -9741786.083 8  -9741786.075 6                  -7591002.811 8       237.000          43.000         102.000                  
G20  21729619.661    21729618.153    21729619.297                   -16109957.473 8 -16109957.473 7                 -12553212.748 8       315.000          82.000         114.000                  
G26  21668434.674    21668433.849    21668437.980                   -14965697.750 8 -14965697.748 8                 -11661583.046 9       270.000         177.000         633.000                  
G29  22369343.040    22369342.346    22369343.054                   -11834757.636 8 -11834757.636 8                  -9221890.263 9       310.000         226.000         507.000                  
G31  23467144.080    23467143.382    23467143.132                    -6831495.995 8  -6831495.986 7                  -5323243.099 8       194.000          80.000         162.000                  
> 2024 10 31 08 44 20.0000000  0 11
G04  20681370.176    20681369.950    20681371.243                   -20623783.742 9 -20623783.735 8                 -16070484.270 8       571.000         476.000         219.000                  
G05  24587682.630    24587682.301    24587683.900                    -1116050.325 8  -1116050.348 6                   -869649.977 7       108.000          30.000          66.000                  
G06  23474655.451    23474654.896    23474658.500                    -6953266.961 8  -6953266.963 8                  -5418129.607 8       206.000         135.000         384.000                  
G07  23900703.649    23900703.278    23900703.436                    -5283902.363 8  -5283902.364 7                  -4117326.977 8       209.000          98.000         107.000                  
G09  19842022.787    19842022.355    19842024.770                   -21627351.575 9 -21627351.578 9                 -16852483.500 9       800.000        1888.000        2337.000                  
G11  21673275.739    21673275.415    21673276.191                     -340724.039 8   -340724.036 8                   -265502.017 8       478.000         273.000         259.000                  
G16  22189922.600    22189921.246    22189922.021                   -10103829.822 8 -10103829.813 6                  -7873114.785 8       242.000          50.000         101.000                  
G20  21776698.218    21776696.818    21776697.736                   -15862558.361 8 -15862558.358 7                 -12360434.227 8       306.000          80.000         105.000                  
G26  21613796.941    21613796.332    21613800.544                   -15252819.019 8 -15252819.017 8                 -11885313.855 9       277.000         188.000         636.000                  
G29  22369300.368    22369299.791    22369300.426                   -11834981.904 8 -11834981.902 8                  -9222065.208 9       314.000         222.000         520.000                  
G31  23414129.071    23414128.201    23414128.046                    -7110090.927 8  -7110090.923 7                  -5540329.968 8       198.000          99.000         172.000                  
> 2024 10 31 08 44 30.0000000  0 11
G04  20647991.459    20647991.009    20647992.419                   -20799189.715 9 -20799189.709 8                 -16207164.251 8       544.000         430.000         226.000                  
G05  24628260.774    24628260.991    24628262.074                     -902808.772 8   -902808.765 6                   -703487.713 7       106.000          35.000          59.000                  
G06  23538514.595    23538513.912    23538517.199                    -6617687.150 8  -6617687.157 8                  -5156638.922 8       198.000         121.000         368.000                  
G07  23916537.033    23916535.779    23916535.909                    -5200703.556 8  -5200703.559 8                  -4052496.775 8       208.000         105.000         111.000                  
G09  19846589.744    19846589.361    19846591.718                   -21603351.839 9 -21603351.841 9                 -16833782.418 9       814.000        1961.000        2370.000                  
G11  21732563.009    21732562.735    21732563.427                      -29167.994 8    -29167.987 8                    -22731.155 8       459.000         249.000         248.000                  
G16  22121422.507    22121421.418    22121421.911                   -10463798.873 8 -10463798.870 6                  -8153610.113 8       252.000          47.000         117.000                  
G20  21824333.030    21824331.735    21824332.591                   -15612236.130 8 -15612236.127 7                 -12165377.982 8       293.000          74.000         111.000                  
G26  21559792.274    21559792.012    21559795.892                   -15536615.788 8 -15536615.787 8                 -12106454.157 9       293.000         201.000         665.000                  
G29  22370143.104    22370142.269    22370142.903                   -11830554.663 8 -11830554.665 8                  -9218615.408 9       317.000         221.000         541.000                  
G31  23361444.917    23361444.696    23361444.573                    -7386944.733 8  -7386944.729 8                  -5756060.142 8       209.000         101.000         202.000                  
> 2024 10 31 08 44 40.0000000  0 11
G04  20615138.751    20615138.241    20615139.722                   -20971832.442 9 -20971832.437 8                 -16341691.039 8       536.000         417.000         263.000                  
G05  24669128.653    24669127.709    24669128.308                     -688053.806 8   -688053.817 6                   -536146.079 7       106.000          32.000          58.000                  
G06  23602642.347    23602641.928    23602645.142                    -6280693.485 8  -6280693.482 8                  -4894046.553 8       192.000         110.000         356.000                  
G07  23932659.057    23932658.642    23932659.012                    -5115976.472 8  -5115976.475 8                  -3986475.746 8       207.000         102.000         113.000                  
G09  19851814.079    19851813.712    19851815.973                   -21575898.122 9 -21575898.125 9                 -16812389.922 9       826.000        2022.000        2416.000                  
G11  21792491.023    21792490.724    21792491.364                      285755.723 8    285755.729 8                    222663.896 8       432.000         225.000         242.000                  
G16  22053335.472    22053334.477    22053335.493                   -10821596.373 8 -10821596.362 6                  -8432413.330 8       264.000          49.000         123.000                  
G20  21872522.559    21872521.052    21872522.344                   -15358998.231 8 -15358998.234 7                 -11968049.818 8       284.000          66.000         109.000                  
G26  21506436.878    21506436.493    21506440.419                   -15817000.044 8 -15817000.043 8                 -12324935.360 9       312.000         237.000         672.000                  
G29  22371876.525    22371875.818    22371876.439                   -11821444.379 8 -11821444.379 8                  -9211516.416 9       315.000         229.000         552.000                  
G31  23309105.627    23309105.101    23309104.806                    -7661990.674 8  -7661990.674 8                  -5970381.603 8       216.000         109.000         219.000                  
> 2024 10 31 08 44 50.0000000  0 11
G04  20582810.516    20582810.372    20582811.662                   -21141717.047 9 -21141717.041 8                 -16474068.646 8       538.000         431.000         282.000                  
G05  24710272.827    24710272.082    24710272.532                     -471838.821 8   -471838.800 6                   -367666.931 7       106.000          27.000          60.000                  
G06  23667021.711    23667021.820    23667025.531                    -5942372.951 8  -5942372.951 7                  -4630420.272 8       184.000          99.000         344.000                  
G07  23949066.674    23949065.721    23949066.778                    -5029755.807 8  -5029755.807 8                  -3919290.846 8       207.000         102.000         107.000                  
G09  19857688.673    19857688.231    19857690.612                   -21545027.347 9 -21545027.349 9                 -16788334.765 9       832.000        2050.000        2482.000                  
G11  21853041.370    21853041.104    21853041.904                      603951.379 8    603951.380 8                    470608.473 8       391.000         191.000         230.000                  
G16  21985668.627    21985667.696    21985668.246                   -11177189.345 8 -11177189.340 7                  -8709498.722 8       271.000          53.000         133.000                  
G20  21921253.176    21921251.776    21921253.418                   -15102916.554 8 -15102916.554 7                 -11768505.727 8       274.000          64.000         109.000                  
G26  21453735.657    21453735.048    21453738.777                   -16093948.325 8 -16093948.321 8                 -12540739.214 9       331.000         266.000         674.000                  
G29  22374494.523    22374494.118    22374494.727                   -11807685.022 8 -11807685.023 8                  -9200794.851 9       318.000         222.000         554.000                  
G31  23257110.479    23257110.337    23257109.975                    -7935226.075 8  -7935226.078 8                  -6183292.225 8       220.000         116.000         238.000                  
> 2024 10 31 08 45  0.0000000  0 11
G04  20551016.904    20551016.499    20551017.737                   -21308794.590 9 -21308794.583 8                 -16604258.922 8       532.000         425.000         290.000                  
G05  24751695.815    24751694.455    24751695.153                     -254161.838 8   -254161.850 6                   -198048.334 7       104.000          35.000          56.000                  
G06  23731648.833    23731648.556    23731652.105                    -5602757.997 8  -5602757.998 8                  -4365785.338 8       178.000         105.000         325.000                  
G07  23965762.078    23965760.933    23965761.616                    -4942022.423 8  -4942022.419 7                  -3850927.215 8       204.000          93.000         111.000                  
G09  19864216.547    19864216.190    19864218.548                   -21510722.802 9 -21510722.804 9                 -16761603.941 9       828.000        2018.000        2463.000                  
G11  21914206.758    21914206.708    21914207.466                      925377.687 8    925377.691 8                    721070.482 8       363.000         165.000         236.000                  
G16  21918437.441    21918436.668    21918437.013                   -11530490.184 8 -11530490.185 6                  -8984798.034 8       275.000          49.000         132.000                  
G20  21970521.499    21970520.336    21970521.564                   -14844008.828 8 -14844008.836 7                 -11566759.422 8       267.000          59.000         114.000                  
G26  21401702.717    21401702.207    21401705.830                   -16367383.008 8 -16367383.008 8                 -12753805.173 9       347.000         287.000         692.000                  
G29  22378001.733    22378001.027    22378001.591                   -11789257.093 8 -11789257.093 8                  -9186435.452 9       320.000         223.000         575.000                  
G31  23205470.864    23205470.515    23205470.139                    -8206594.455 8  -8206594.458 8                  -6394748.066 8       218.000         112.000         258.000                  
> 2024 10 31 08 45 10.0000000  0 11
G04  20519760.252    20519759.712    20519761.089                   -21473049.637 9 -21473049.632 8                 -16732249.857 8       542.000         427.000         293.000                  
G05  24793389.767    24793389.146    24793390.045                      -35055.589 8    -35055.581 6                    -27315.966 7       102.000          26.000          53.000                  
G06  23796509.100    23796509.178    23796512.861                    -5261913.933 8  -5261913.931 7                  -4100192.655 8       173.000          93.000         304.000                  
G07  23982741.425    23982741.307    23982741.828                    -4852790.472 8  -4852790.473 8                  -3781395.893 8       206.000         109.000         108.000                  
G09  19871394.607    19871394.288    19871396.612                   -21473001.493 9 -21473001.495 9                 -16732210.706 9       823.000        1999.000        2366.000                  
G11  21975972.957    21975972.879    21975973.375                     1249959.896 8   1249959.899 8                    973991.630 8       350.000         148.000         220.000                  
G16  21851653.599    21851651.842    21851652.282                   -11881444.335 8 -11881444.328 7                  -9258268.757 8       272.000          55.000         135.000                  
G20  22020318.017    22020316.828    22020318.486                   -14582326.585 8 -14582326.585 7                 -11362851.235 8       262.000          66.000         108.000                  
G26  21350346.974    21350346.209    21350349.897                   -16637260.160 8 -16637260.160 8                 -12964099.034 9       361.000         303.000         715.000                  
G29  22382393.572    22382393.142    22382393.750                   -11766175.305 8 -11766175.307 8                  -9168449.551 9       316.000         224.000         560.000                  
G31  23154191.122    23154190.762    23154190.402                    -8476072.225 8  -8476072.228 8                  -6604730.753 8       224.000         110.000         289.000                  
> 2024 10 31 08 45 20.0000000  0 11
G04  20489044.849    20489044.653    20489046.039                   -21634458.513 9 -21634458.507 8                 -16858022.994 8       545.000         436.000         309.000                  
G05  24835351.534    24835351.076    24835351.751                      185456.010 7    185456.018 6                    144511.150 7        99.000          32.000          52.000                  
G06  23861592.828    23861592.701    23861596.555                    -4919897.267 8  -4919897.270 7                  -3833686.251 8       168.000          86.000         274.000                  
G07  24000006.338    24000005.735    24000006.328                    -4762065.740 8  -4762065.740 7                  -3710701.352 8       205.000          93.000         104.000                  
G09  19879221.331    19879220.819    19879223.240                   -21431872.545 9 -21431872.548 9                 -16700162.178 9       818.000        1965.000        2313.000                  
G11  22038326.833    22038326.588    22038327.356                     1577631.826 8   1577631.828 8                   1229320.367 8       336.000         141.000         220.000                  
G16  21785327.644    21785326.170    21785327.018                   -12229988.661 8 -12229988.659 7                  -9529861.698 8       278.000          56.000         139.000                  
G20  22070634.637    22070633.167    22070634.494                   -14317912.614 8 -14317912.610 7                 -11156814.372 8       261.000          66.000         116.000                  
G26  21299677.483    21299677.204    21299681.064                   -16903527.619 8 -16903527.616 8                 -13171580.150 9       372.000         336.000         753.000                  
G29  22387670.457    22387669.680    22387670.026                   -11738448.028 8 -11738448.028 8                  -9146843.928 9       318.000         227.000         530.000                  
G31  23103277.193    23103276.585    23103276.332                    -8743627.351 8  -8743627.356 8                  -6813215.258 8       223.000         113.000         309.000                  
> 2024 10 31 08 45 30.0000000  0 11
G04  20458880.159    20458879.699    20458881.101                   -21792976.141 9 -21792976.136 8                 -16981543.204 8       554.000         446.000         311.000                  
G05  24877579.440    24877579.856    24877580.680                      407371.728 7    407371.712 6                    317432.513 7        97.000          31.000          52.000                  
G06  23926893.667    23926893.028    23926896.721                    -4576742.457 8  -4576742.463 7                  -3566292.985 8       168.000          88.000         255.000                  
G07  24017558.174    24017557.288    24017557.505                    -4669832.210 8  -4669832.207 7                  -3638831.092 8       205.000          99.000         102.000                  
G09  19887698.548    19887698.256    19887700.573                   -21387323.893 9 -21387323.895 9                 -16665448.938 9       818.000        1978.000        2284.000                  
G11  22101260.598    22101260.179    22101261.010                     1908348.913 8   1908348.915 8                   1487021.949 8       314.000         116.000         220.000                  
G16  21719476.096    21719476.185    21719476.305                   -12576037.811 8 -12576037.822 7                  -9799510.351 8       277.000          60.000         129.000                  
G20  22121466.723    22121465.224    22121466.370                   -14050788.620 8 -14050788.620 7                 -10948665.820 8       266.000          57.000         101.000                  
G26  21249709.756    21249709.130    21249712.821                   -17166111.923 8 -17166111.920 8                 -13376191.297 9       387.000         360.000         804.000                  
G29  22393833.029    22393832.496    22393832.976                   -11706062.220 8 -11706062.222 8                  -9121608.279 9       315.000         233.000         522.000                  
G31  23052739.108    23052738.374    23052738.472                    -9009206.377 8  -9009206.381 8                  -7020159.955 8       218.000         114.000         335.000                  
> 2024 10 31 08 45 40.0000000  0 11
G04  20429263.267    20429262.941    20429264.300                   -21948613.498 9 -21948613.491 8                 -17102819.052 8       573.000         480.000         320.000                  
G05  24920066.378    24920065.724    24920065.775                      630633.370 7    630633.345 6                    491402.615 7        99.000          24.000          52.000                  
G06  23992393.140    23992393.065    23992396.659                    -4232539.332 8  -4232539.324 7                  -3298082.854 8       163.000          81.000         243.000                  
G07  24035389.079    24035388.242    24035388.548                    -4576130.090 8  -4576130.092 7                  -3565816.509 7       199.000          85.000          92.000                  
G09  19896818.382    19896817.866    19896820.162                   -21339399.778 9 -21339399.780 9                 -16628105.475 9       804.000        1911.000        2238.000                  
G11  22164754.123    22164753.643    22164754.813                     2242010.937 8   2242010.938 8                   1747018.289 8       296.000         107.000         215.000                  
G16  21654106.113    21654105.068    21654105.713                   -12919562.022 8 -12919562.020 7                 -10067191.524 8       277.000          61.000         140.000                  
G20  22172799.474    22172798.216    22172799.319                   -13781031.899 8 -13781031.892 7                 -10738465.739 7       266.000          61.000          96.000                  
G26  21200445.799    21200445.145    21200449.003                   -17424995.681 8 -17424995.679 8                 -13577918.920 9       399.000         362.000         849.000                  
G29  22400873.809    22400873.446    22400873.961                   -11669062.119 8 -11669062.122 8                  -9092777.108 8       310.000         219.000         500.000                  
G31  23002576.088    23002575.951    23002576.222                    -9272811.542 8  -9272811.540 8                  -7225566.629 8       220.000         110.000         345.000                  
> 2024 10 31 08 45 50.0000000  0 11
G04  20400207.249    20400207.035    20400208.332                   -22101304.209 9 -22101304.202 8                 -17221798.813 8       581.000         496.000         341.000                  
G05  24962811.145    24962810.551    24962811.505                      855260.456 7    855260.472 6                    666436.776 7        94.000          34.000          55.000                  
G06  24058089.756    24058089.750    24058093.531                    -3887299.732 8  -3887299.730 7                  -3029065.085 8       161.000          82.000         220.000                  
G07  24053505.988    24053505.743    24053506.206                    -4480921.842 8  -4480921.845 7                  -3491628.279 7       197.000          85.000          94.000                  
G09  19906586.330    19906586.013    19906588.467                   -21288067.361 9 -21288067.364 9                 -16588106.196 9       785.000        1825.000        2226.000                  
G11  22228804.212    22228803.715    22228804.726                     2578595.305 8   2578595.310 8                   2009291.785 8       283.000         103.000         209.000                  
G16  21589236.210    21589235.088    21589235.866                   -13260453.694 8 -13260453.695 7                 -10332821.370 8       263.000          52.000         137.000                  
G20  22224633.454    22224632.455    22224633.112                   -13508642.499 8 -13508642.495 7                 -10526214.259 7       266.000          60.000          91.000                  
G26  21151903.933    21151903.480    21151907.174                   -17680084.240 8 -17680084.239 8                 -13776689.237 9       407.000         404.000         853.000                  
G29  22408798.928    22408798.706    22408798.885                   -11627415.158 8 -11627415.160 8                  -9060324.856 8       304.000         213.000         470.000                  
G31  22952803.439    22952803.455    22952803.414                    -9534367.530 8  -9534367.532 8                  -7429376.554 8       223.000         115.000         363.000                  
> 2024 10 31 08 46  0.0000000  0 11
G04  20371709.271    20371709.065    20371710.526                   -22251061.394 9 -22251061.388 8                 -17338492.707 8       585.000         495.000         354.000                  
G05  25005803.296    25005803.931    25005804.809                     1081193.329 7   1081193.330 6                    842488.386 7        96.000          26.000          59.000                  
G06  24123966.912    24123967.054    24123970.635                    -3541114.288 8  -3541114.290 7                  -2759310.296 8       157.000          72.000         200.000                  
G07  24071901.915    24071901.689    24071902.304                    -4384249.344 8  -4384249.346 7                  -3416299.056 7       191.000          86.000          89.000                  
G09  19916994.418    19916993.904    19916996.409                   -21233373.546 9 -21233373.548 9                 -16545487.643 9       784.000        1807.000        2246.000                  
G11  22293390.944    22293389.932    22293391.436                     2918000.384 8   2918000.389 7                   2273763.246 8       268.000          86.000         196.000                  
G16  21524873.158    21524871.596    21524872.859                   -13598684.224 8 -13598684.239 6                 -10596377.591 8       247.000          49.000         126.000                  
G20  22276953.874    22276952.059    22276953.741                   -13233699.601 8 -13233699.605 7                 -10311973.025 7       268.000          62.000          83.000                  
G26  21104086.988    21104086.734    21104090.397                   -17931362.646 8 -17931362.644 8                 -13972490.620 9       421.000         421.000         890.000                  
G29  22417599.363    22417598.531    22417599.163                   -11581169.941 8 -11581169.942 8                  -9024289.662 8       300.000         201.000         456.000                  
G31  22903420.736    22903420.309    22903420.389                    -9793878.184 8  -9793878.186 8                  -7631592.717 8       226.000         116.000         374.000                  
> 2024 10 31 08 46 10.0000000  0 11
G04  20343779.416    20343779.144    20343780.186                   -22397835.059 9 -22397835.053 9                 -17452861.781 8       617.000         549.000         363.000                  
G05  25049046.643    25049047.042    25049047.408                     1308435.294 7   1308435.309 6                   1019559.967 7        85.000          25.000          58.000                  
G06  24190019.265    24190019.161    24190022.593                    -3194009.887 8  -3194009.889 7                  -2488839.442 8       147.000          75.000         183.000                  
G07  24090580.612    24090580.525    24090581.218                    -4286091.261 8  -4286091.252 7                  -3339812.227 7       184.000          75.000          90.000                  
G09  19928044.974    19928044.567    19928046.920                   -21175302.294 9 -21175302.295 9                 -16500237.319 9       771.000        1751.000        2210.000                  
G11  22358506.875    22358506.517    22358507.417                     3260187.970 8   3260187.967 7                   2540402.910 8       253.000          80.000         167.000                  
G16  21461033.365    21461032.888    21461033.504                   -13934161.338 8 -13934161.339 6                 -10857788.286 8       246.000          42.000         137.000                  
G20  22329756.429    22329755.012    22329755.925                   -12956218.973 8 -12956218.980 7                 -10095754.264 7       269.000          62.000          74.000                  
G26  21057010.285    21057009.915    21057013.652                   -18178752.840 8 -18178752.841 8                 -14165262.214 9       436.000         436.000         902.000                  
G29  22427276.748    22427276.615    22427277.309                   -11530312.324 8 -11530312.322 8                  -8984660.501 8       297.000         192.000         444.000                  
G31  22854438.116    22854437.961    22854437.798                   -10051284.080 8 -10051284.075 8                  -7832168.795 8       225.000         123.000         376.000                  
> 2024 10 31 08 46 20.0000000  0 11
G04  20316418.871    20316418.719    20316419.865                   -22541615.452 9 -22541615.445 9                 -17564898.437 8       634.000         582.000         370.000                  
G05  25092531.603    25092531.881    25092532.661                     1536950.276 7   1536950.251 6                   1197623.538 7        84.000          26.000          54.000                  
G06  24256232.560    24256233.289    24256236.600                    -2846052.914 8  -2846052.919 7                  -2217704.242 8       139.000          60.000         163.000                  
G07  24109539.468    24109538.607    24109539.020                    -4186466.223 8  -4186466.219 7                  -3262182.305 7       176.000          66.000          83.000                  
G09  19939733.466    19939733.130    19939735.604                   -21113878.066 9 -21113878.068 9                 -16452374.287 9       766.000        1740.000        2258.000                  
G11  22424137.554    22424137.596    22424138.187                     3605080.022 8   3605080.023 7                   2809149.935 8       240.000          72.000         151.000                  
G16  21397728.486    21397727.252    21397728.132                   -14266832.556 8 -14266832.542 7                 -11117012.566 8       255.000          52.000         123.000                  
G20  22383031.856    22383029.541    22383030.800                   -12676257.284 8 -12676257.289 7                  -9877602.320 7       259.000          58.000          72.000                  
G26  21010680.544    21010680.117    21010683.924                   -18422217.299 8 -18422217.298 8                 -14354974.801 9       444.000         460.000         944.000                  
G29  22437827.703    22437827.239    22437827.756                   -11474868.622 8 -11474868.624 8                  -8941457.519 8       299.000         200.000         453.000                  
G31  22805859.479    22805859.154    22805859.456                   -10306565.865 8 -10306565.867 8                  -8031089.735 8       224.000         122.000         394.000                  
> 2024 10 31 08 46 30.0000000  0 11
G04  20289633.338    20289633.190    20289634.412                   -22682374.262 9 -22682374.255 9                 -17674580.616 8       616.000         569.000         394.000                  
G05  25136256.750    25136255.342    25136256.403                     1766720.551 7   1766720.554 6                   1376665.256 7        82.000          29.000          58.000                  
G06  24322601.230    24322600.018    24322603.837                    -2497290.455 8  -2497290.464 7                  -1945941.393 8       137.000          58.000         151.000                  
G07  24128776.625    24128775.973    24128776.107                    -4085374.084 8  -4085374.089 7                  -3183409.236 7       171.000          71.000          86.000                  
G09  19952059.252    19952058.753    19952061.180                   -21049106.902 9 -21049106.904 9                 -16401903.253 9       776.000        1768.000        2266.000                  
G11  22490271.927    22490271.511    22490272.238                     3952617.671 8   3952617.664 7                   3079958.477 8       225.000          60.000         140.000                  
G16  21334970.436    21334969.819    21334970.166                   -14596626.352 8 -14596626.350 7                 -11373994.720 8       265.000          57.000         140.000                  
G20  22436771.384    22436769.767    22436771.142                   -12393850.887 8 -12393850.891 7                  -9657545.366 7       252.000          52.000          60.000                  
G26  20965108.886    20965108.263    20965111.886                   -18661699.989 8 -18661699.990 9                 -14541584.704 9       466.000         502.000         962.000                  
G29  22449249.359    22449248.627    22449249.099                   -11414848.371 8 -11414848.374 8                  -8894688.352 8       299.000         199.000         436.000                  
G31  22757692.364    22757692.294    22757692.409                   -10559685.101 8 -10559685.104 8                  -8228325.559 8       231.000         123.000         385.000                  
> 2024 10 31 08 46 40.0000000  0 11
G04  20263427.512    20263427.237    20263428.602                   -22820086.810 9 -22820086.804 9                 -17781889.086 8       605.000         540.000         416.000                  
G05  25180216.154    25180213.541    25180215.364                     1997725.341 7   1997725.351 6                   1556668.904 7        80.000          24.000          58.000                  
G06  24389111.289    24389111.352    24389114.955                    -2147772.474 8  -2147772.474 6                  -1673589.836 8       129.000          47.000         141.000                  
G07  24148291.569    24148291.227    24148292.373                    -3982818.047 8  -3982818.047 7                  -3103495.484 7       170.000          70.000          89.000                  
G09  19965019.700    19965019.308    19965021.700                   -20980998.649 9 -20980998.651 9                 -16348831.896 9       774.000        1756.000        2253.000                  
G11  22556897.755    22556897.950    22556898.516                     4302738.741 8   4302738.755 7                   3352780.075 8       217.000          56.000         121.000                  
G16  21272773.603    21272772.444    21272773.398                   -14923474.361 8 -14923474.361 7                 -11628681.456 8       285.000          62.000         135.000                  
G20  22490968.923    22490967.650    22490967.800                   -12109040.462 8 -12109040.457 6                  -9435615.137 7       243.000          46.000          58.000                  
G26  20920304.372    20920303.921    20920307.451                   -18897148.738 8 -18897148.738 9                 -14725051.280 9       481.000         549.000         961.000                  
G29  22461539.182    22461538.214    22461538.810                   -11350265.830 8 -11350265.829 8                  -8844364.391 8       297.000         196.000         439.000                  
G31  22709943.883    22709943.790    22709943.285                   -10810607.037 8 -10810607.036 8                  -8423849.183 8       239.000         134.000         389.000                  
> 2024 10 31 08 46 50.0000000  0 11
G04  20237804.109    20237803.760    20237805.289                   -22954738.204 9 -22954738.198 9                 -17886812.242 8       599.000         530.000         411.000                  
G05  25224405.107    25224401.640    25224403.054                     2229934.358 7   2229934.349 6                   1737610.974 7        79.000          21.000          51.000                  
G06  24455756.146    24455754.913    24455759.108                    -1797558.035 8  -1797558.039 6                  -1400695.595 8       121.000          42.000         129.000                  
G07  24168084.435    24168083.250    24168084.044                    -3878810.810 8  -3878810.811 7                  -3022450.907 7       162.000          63.000          87.000                  
G09  19978611.418    19978611.138    19978613.491                   -20909573.106 9 -20909573.108 9                 -16293175.636 9       761.000        1701.000        2207.000                  
G11  22624001.143    22624000.836    22624002.169                     4655371.807 8   4655371.813 6                   3627559.054 8       198.000          50.000         119.000                  
G16  21211148.097    21211147.292    21211147.968                   -15247317.604 8 -15247317.619 7                 -11881026.810 8       305.000          71.000         139.000                  
G20  22545614.508    22545612.900    22545613.960                   -11821875.950 8 -11821875.932 6                  -9211850.481 6       230.000          47.000          50.000                  
G26  20876275.619    20876275.222    20876278.734                   -19128521.345 8 -19128521.345 9                 -14905341.637 9       494.000         576.000         958.000                  
G29  22474691.898    22474691.622    22474692.238                   -11281144.718 8 -11281144.719 8                  -8790503.871 8       286.000         195.000         448.000                  
G31  22662618.439    22662617.867    22662617.408                   -11059306.570 8 -11059306.567 8                  -8617641.055 8       245.000         138.000         382.000                  
> 2024 10 31 08 47  0.0000000  0 11
G04  20212770.763    20212770.401    20212771.954                   -23086289.167 9 -23086289.162 9                 -17989319.483 8       596.000         522.000         395.000                  
G05  25268819.138    25268817.835    25268818.909                     2463341.588 7   2463341.597 6                   1919486.699 7        78.000          21.000          56.000                  
G06  24522525.428    24522524.718    24522528.729                    -1446680.989 8  -1446681.000 6                  -1127285.021 8       114.000          47.000         111.000                  
G07  24188154.599    24188153.080    24188154.896                    -3773340.598 8  -3773340.597 7                  -2940266.341 7       163.000          58.000          80.000                  
G09  19992835.452    19992834.984    19992837.502                   -20834825.849 9 -20834825.850 9                 -16234931.025 9       745.000        1657.000        2204.000                  
G11  22691574.394    22691574.245    22691574.999                     5010470.453 8   5010470.451 6                   3904259.270 7       177.000          40.000          99.000                  
G16  21150111.061    21150110.259    21150110.472                   -15568072.195 8 -15568072.204 7                 -12130965.432 8       335.000          83.000         141.000                  
G20  22600702.964    22600701.705    22600702.914                   -11532383.159 8 -11532383.162 6                  -8986271.693 7       222.000          45.000          55.000                  
G26  20833035.288    20833034.777    20833038.226                   -19355751.431 9 -19355751.429 9                 -15082404.038 9       506.000         590.000         968.000                  
G29  22488709.171    22488708.437    22488709.056                   -11207485.498 8 -11207485.503 8                  -8733107.077 8       290.000         191.000         445.000                  
G31  22615724.074    22615723.978    22615723.901                   -11305733.682 8 -11305733.678 8                  -8809662.206 8       245.000         133.000         380.000                  
> 2024 10 31 08 47 10.0000000  0 11
G04  20188326.881    20188326.469    20188327.875                   -23214743.119 9 -23214743.114 9                 -18089413.469 8       597.000         523.000         377.000                  
G05  25313453.503    25313452.633    25313453.816                     2697898.871 7   2697898.885 6                   2102258.565 7        77.000          24.000          51.000                  
G06  24589406.971    24589406.375    24589410.076                    -1095217.169 8  -1095217.183 6                   -853417.233 7       110.000          34.000          96.000                  
G07  24208496.763    24208496.560    24208497.713                    -3666438.074 8  -3666438.074 7                  -2856965.707 7       157.000          61.000          79.000                  
G09  20007684.083    20007683.748    20007686.296                   -20756795.239 9 -20756795.241 9                 -16174127.954 9       749.000        1667.000        2140.000                  
G11  22759599.552    22759599.361    22759600.892                     5367946.089 8   5367946.086 6                   4182811.687 7       162.000          38.000          93.000                  
G16  21089669.005    21089668.132    21089668.770                   -15885696.521 8 -15885696.527 7                 -12378464.889 8       351.000          94.000         129.000                  
G20  22656221.728    22656220.660    22656222.038                   -11240629.460 8 -11240629.476 6                  -8758931.148 6       218.000          43.000          44.000                  
G26  20790587.464    20790586.984    20790590.588                   -19578815.597 9 -19578815.596 9                 -15256220.275 9       504.000         602.000         969.000                  
G29  22503581.250    22503580.508    22503581.194                   -11129332.298 8 -11129332.300 8                  -8672208.454 8       285.000         177.000         442.000                  
G31  22569264.806    22569264.441    22569264.390                   -11549880.891 8 -11549880.899 8                  -8999906.792 8       244.000         139.000         375.000                  
> 2024 10 31 08 47 20.0000000  0 11
G04  20164480.257    20164480.079    20164481.554                   -23340056.815 9 -23340056.809 9                 -18187060.501 8       591.000         518.000         391.000                  
G05  25358307.755    25358306.067    25358306.697                     2933605.534 7   2933605.532 6                   2285926.015 6        72.000          26.000          44.000                  
G06  24656394.162    24656394.105    24656397.607                     -743194.895 8   -743194.883 6                   -579114.273 7       104.000          39.000          90.000                  
G07  24229115.078    24229114.993    24229115.871                    -3558086.901 8  -3558086.888 7                  -2772536.248 7       155.000          56.000          78.000                  
G09  20023159.323    20023159.021    20023161.334                   -20675473.080 9 -20675473.082 9                 -16110760.036 9       757.000        1692.000        2034.000                  
G11  22828069.832    22828068.484    22828070.466                     5727757.396 8   5727757.413 6                   4463184.103 7       146.000          30.000          85.000                  
G16  21029839.881    21029838.788    21029839.083                   -16200101.894 8 -16200101.898 8                 -12623456.079 8       364.000         105.000         125.000                  
G20  22712166.829    22712165.746    22712166.948                   -10946635.611 8 -10946635.596 6                  -8529845.017 6       213.000          43.000          44.000                  
G26  20748945.818    20748945.361    20748948.930                   -19797643.958 9 -19797643.957 9                 -15426735.875 9       508.000         617.000        1006.000                  
G29  22519308.817    22519308.044    22519308.639                   -11046683.133 8 -11046683.136 8                  -8607806.427 8       278.000         173.000         433.000                  
G31  22523249.579    22523248.929    22523248.801                   -11791693.754 8 -11791693.753 8                  -9188332.380 8       243.000         135.000         375.000                  
> 2024 10 31 08 47 30.0000000  0 11
G04  20141233.284    20141233.165    20141234.581                   -23462219.864 9 -23462219.859 9                 -18282252.486 8       605.000         539.000         397.000                  
G05  25403373.391    25403371.506    25403372.817                     3170427.670 7   3170427.636 6                   2470462.659 6        68.000          21.000          40.000                  
G06  24723476.463    24723476.423    24723480.332                     -390674.558 7   -390674.554 6                   -304423.239 7       100.000          32.000          81.000                  
G07  24250007.647    24250006.157    24250007.191                    -3448303.348 8  -3448303.356 7                  -2686990.660 7       151.000          55.000          81.000                  
G09  20039255.970    20039255.617    20039258.112                   -20590884.137 9 -20590884.139 9                 -16044846.581 9       731.000        1564.000        2042.000                  
G11  22896969.764    22896968.532    22896970.364                     6089830.794 8   6089830.779 6                   4745319.188 7       140.000          31.000          78.000                  
G16  20970633.497    20970632.727    20970633.138                   -16511232.044 8 -16511232.053 8                 -12865895.149 8       384.000         121.000         127.000                  
G20  22768528.492    22768527.126    22768527.911                   -10650454.954 8 -10650454.970 6                  -8299054.936 6       208.000          39.000          47.000                  
G26  20708117.214    20708116.760    20708120.285                   -20012199.785 9 -20012199.785 9                 -15593922.228 9       515.000         624.000        1075.000                  
G29  22535885.793    22535885.118    22535885.646                   -10959569.655 8 -10959569.657 8                  -8539925.658 8       271.000         167.000         459.000                  
G31  22477682.350    22477681.752    22477681.720                   -12031150.603 8 -12031150.604 8                  -9374922.132 8       239.000         137.000         398.000                  
> 2024 10 31 08 47 40.0000000  0 11
G04  20118590.040    20118589.703    20118591.011                   -23581212.524 9 -23581212.518 9                 -18374974.044 8       613.000         557.000         401.000                  
G05  25448646.366    25448645.606    25448646.782                     3408341.140 7   3408341.119 6                   2655849.659 6        69.000          19.000          46.000                  
G06  24790644.187    24790644.592    24790648.270                      -37706.403 7    -37706.404 6                    -29383.253 7        96.000          31.000          77.000                  
G07  24271168.716    24271168.584    24271169.417                    -3337094.147 8  -3337094.132 7                  -2600334.193 7       152.000          54.000          75.000                  
G09  20055971.450    20055971.075    20055973.523                   -20503043.894 9 -20503043.896 9                 -15976399.648 9       712.000        1490.000        2000.000                  
G11  22966287.716    22966287.324    22966289.496                     6454102.694 8   6454102.696 6                   5029167.379 7       136.000          37.000          73.000                  
G16  20912063.257    20912062.007    20912062.869                   -16819021.094 8 -16819021.097 8                 -13105730.772 8       399.000         116.000         139.000                  
G20  22825297.601    22825296.070    22825297.137                   -10352130.843 8 -10352130.836 6                  -8066594.642 6       205.000          40.000          50.000                  
G26  20668110.393    20668109.878    20668113.427                   -20222437.307 9 -20222437.306 9                 -15757743.665 9       522.000         648.000        1142.000                  
G29  22553307.744    22553307.200    22553307.773                   -10868014.968 8 -10868014.968 8                  -8468584.246 8       265.000         160.000         460.000                  
G31  22432569.341    22432568.944    22432568.791                   -12268220.024 8 -12268220.025 8                  -9559651.545 8       239.000         131.000         413.000                  
> 2024 10 31 08 47 50.0000000  0 11
G04  20096557.234    20096556.822    20096558.302                   -23696995.466 9 -23696995.462 9                 -18465194.521 8       606.000         544.000         409.000                  
G05  25494129.020    25494126.931    25494126.799                     3647342.031 7   3647342.063 6                   2842084.007 6        69.000          23.000          48.000                  
G06  24857891.558    24857891.562    24857895.531                      315679.772 7    315679.754 6                    245982.465 7        89.000          31.000          77.000                  
G07  24292605.380    24292605.163    24292605.749                    -3224445.836 8  -3224445.828 7                  -2512556.357 7       157.000          58.000          71.000                  
G09  20073306.449    20073306.001    20073308.383                   -20411948.337 9 -20411948.338 9                 -15905416.108 9       708.000        1479.000        1878.000                  
G11  23036016.717    23036016.657    23036018.398                     6820529.781 8   6820529.773 6                   5314694.941 7       134.000          29.000          69.000                  
G16  20854145.169    20854144.113    20854144.349                   -17123383.056 8 -17123383.058 8                 -13342895.939 8       413.000         127.000         134.000                  
G20  22882470.262    22882468.975    22882469.515                   -10051686.709 8 -10051686.710 6                  -7832482.340 6       200.000          35.000          44.000                  
G26  20628937.530    20628937.118    20628940.745                   -20428291.462 9 -20428291.461 9                 -15918149.495 9       536.000         681.000        1205.000                  
G29  22571574.369    22571573.940    22571574.480                   -10772023.120 8 -10772023.127 8                  -8393785.328 8       259.000         156.000         456.000                  
G31  22387920.885    22387920.225    22387920.165                   -12502850.808 8 -12502850.807 8                  -9742480.713 8       242.000         127.000         430.000                  
> 2024 10 31 08 48  0.0000000  0 11
G04  20075132.233    20075131.937    20075133.394                   -23809584.655 9 -23809584.650 9                 -18552926.355 8       603.000         534.000         416.000                  
G05  25539804.262    25539802.671    25539803.392                     3887371.793 7   3887371.815 6                   3029120.188 6        66.000          26.000          40.000                  
G06  24925202.212    24925202.471    24925205.859                      669399.683 7    669399.698 6                    521608.225 7        86.000          29.000          66.000                  
G07  24314307.960    24314307.408    24314308.118                    -3110400.239 8  -3110400.239 7                  -2423689.699 7       155.000          54.000          74.000                  
G09  20091250.899    20091250.553    20091253.000                   -20317648.709 9 -20317648.711 9                 -15831935.892 9       685.000        1388.000        1766.000                  
G11  23106138.098    23106138.074    23106138.808                     7189014.101 8   7189014.094 6                   5601825.539 7       130.000          28.000          65.000                  
G16  20796884.841    20796883.915    20796884.496                   -17424286.892 8 -17424286.890 8                 -13577366.464 8       432.000         141.000         130.000                  
G20  22940031.305    22940030.028    22940031.268                    -9749200.955 8  -9749200.965 6                  -7596779.182 7       196.000          33.000          51.000                  
G26  20590600.826    20590600.382    20590603.911                   -20629752.766 9 -20629752.765 9                 -16075132.320 9       543.000         688.000        1268.000                  
G29  22590673.947    22590673.246    22590673.957                   -10671654.227 8 -10671654.229 8                  -8315575.807 8       255.000         147.000         429.000                  
G31  22343734.836    22343734.612    22343734.672                   -12735046.812 8 -12735046.814 8                  -9923412.659 8       235.000         125.000         455.000                  
> 2024 10 31 08 48 10.0000000  0 11
G04  20054326.446    20054326.242    20054327.601                   -23918919.442 9 -23918919.436 9                 -18638122.289 8       615.000         557.000         424.000                  
G05  25585676.754    25585677.596    25585680.087                     4128448.192 7   4128448.189 6                   3216971.883 6        62.000          21.000          40.000                  
G06  24992575.888    24992574.913    24992579.164                     1023446.487 7   1023446.485 6                    797488.696 7        81.000          34.000          63.000                  
G07  24336283.128    24336282.111    24336282.559                    -2994922.268 8  -2994922.267 7                  -2333706.920 7       153.000          56.000          71.000                  
G09  20109810.156    20109809.776    20109812.193                   -20220119.773 9 -20220119.776 9                 -15755939.330 9       674.000        1345.000        1715.000                  
G11  23176646.500    23176645.265    23176645.920                     7559535.005 8   7559535.004 6                   5890543.066 7       127.000          29.000          52.000                  
G16  20740303.533    20740302.306    20740302.757                   -17721624.619 8 -17721624.621 8                 -13809058.204 8       469.000         168.000         132.000                  
G20  22997981.441    22997979.546    22997981.233                    -9444674.923 8  -9444674.914 6                  -7359486.260 7       190.000          33.000          51.000                  
G26  20553116.327    20553115.747    20553119.348                   -20826735.541 9 -20826735.541 9                 -16228625.393 9       541.000         700.000        1347.000                  
G29  22610608.984    22610609.109    22610609.457                   -10566892.023 8 -10566892.026 8                  -8233942.903 8       250.000         141.000         425.000                  
G31  22300026.689    22300026.114    22300026.549                   -12964735.136 8 -12964735.142 8                 -10102390.586 8       230.000         127.000         481.000                  
> 2024 10 31 08 48 20.0000000  0 11
G04  20034136.645    20034136.321    20034137.838                   -24025017.737 9 -24025017.732 9                 -18720796.289 8       613.000         550.000         431.000                  
G05  25631742.766    25631740.865    25631741.048                     4370510.685 7   4370510.675 6                   3405591.917 6        63.000          23.000          40.000                  
G06  25059994.759    25059993.538    25059998.980                     1377735.681 7   1377735.674 6                   1073558.028 7        78.000          25.000          61.000                  
G07  24358522.066    24358521.317    24358521.502                    -2878054.881 8  -2878054.893 7                  -2242641.476 7       160.000          60.000          71.000                  
G09  20128973.876    20128973.306    20128975.651                   -20119414.787 9 -20119414.790 9                 -15677467.927 9       679.000        1355.000        1666.000                  
G11  23247522.209    23247521.555    23247523.272                     7931994.031 8   7931994.001 6                   6180770.815 6       123.000          22.000          50.000                  
G16  20684406.204    20684405.609    20684405.705                   -18015366.564 9 -18015366.569 8                 -14037948.037 8       508.000         191.000         137.000                  
G20  23056303.660    23056302.589    23056303.436                    -9138187.607 8  -9138187.603 6                  -7120664.982 6       191.000          36.000          34.000                  
G26  20516485.123    20516484.759    20516488.365                   -21019232.992 9 -21019232.992 9                 -16378623.413 9       556.000         740.000        1427.000                  
G29  22631369.270    22631368.449    22631369.077                   -10457799.613 8 -10457799.615 8                  -8148935.840 8       255.000         146.000         413.000                  
G31  22256794.538    22256794.265    22256794.583                   -13191921.040 8 -13191921.039 8                 -10279418.570 9       232.000         124.000         504.000                  
> 2024 10 31 08 48 30.0000000  0 11
G04  20014570.983    20014570.794    20014572.191                   -24127835.614 9 -24127835.609 9                 -18800914.111 8       602.000         544.000         434.000                  
G05  25677992.719    25677991.669    25677993.428                     4613561.053 7   4613561.061 6                   3594981.337 6        62.000          18.000          47.000                  
G06  25127455.989    25127455.271    25127460.325                     1732245.461 7   1732245.484 6                   1349799.232 7        73.000          23.000          53.000                  
G07  24381029.131    24381028.509    24381028.990                    -2759779.125 8  -2759779.127 7                  -2150478.609 7       158.000          64.000          63.000                  
G09  20148743.224    20148742.938    20148745.194                   -20015525.197 9 -20015525.199 9                 -15596515.026 9       672.000        1335.000        1597.000                  
G11  23318761.669    23318760.523    23318761.138                     8306355.296 8   8306355.300 6                   6472480.832 6       118.000          30.000          47.000                  
G16  20629210.643    20629209.990    20629210.033                   -18305420.939 9 -18305420.941 8                 -14263964.439 8       535.000         209.000         146.000                  
G20  23114996.912    23114994.599    23114995.636                    -8829756.391 8  -8829756.352 6                  -6880328.997 6       181.000          29.000          45.000                  
G26  20480720.596    20480720.237    20480723.830                   -21207176.816 9 -21207176.815 9                 -16525073.138 9       567.000         761.000        1466.000                  
G29  22652952.627    22652951.772    22652952.319                   -10344378.741 8 -10344378.742 8                  -8060555.958 8       261.000         152.000         402.000                  
G31  22214049.988    22214049.131    22214049.430                   -13416547.780 8 -13416547.777 8                 -10454452.402 9       237.000         120.000         526.000                  
> 2024 10 31 08 48 40.0000000  0 11
G04  19995630.880    19995630.754    19995632.180                   -24227365.811 9 -24227365.804 9                 -18878470.112 8       603.000         539.000         428.000                  
G05  25724425.752    25724424.569    25724426.041                     4857566.189 7   4857566.193 6                   3785114.816 6        58.000          23.000          37.000                  
G06  25194947.467    25194948.531    25194951.972                     2086918.205 7   2086918.232 6                   1626167.431 6        70.000          20.000          50.000                  
G07  24403800.549    24403800.490    24403801.102                    -2640112.126 8  -2640112.126 7                  -2057231.666 7       156.000          65.000          67.000                  
G09  20169113.376    20169113.020    20169115.467                   -19908479.043 9 -19908479.045 9                 -15513102.461 9       673.000        1321.000        1550.000                  
G11  23390346.941    23390346.958    23390347.880                     8682547.109 8   8682547.109 6                   6765617.254 6       118.000          26.000          41.000                  
G16  20574727.683    20574726.769    20574726.625                   -18591732.195 9 -18591732.198 8                 -14487064.130 8       577.000         252.000         149.000                  
G20  23174049.065    23174047.168    23174048.090                    -8519434.411 8  -8519434.395 6                  -6638519.694 6       178.000          34.000          42.000                  
G26  20445828.559    20445828.116    20445831.704                   -21390535.858 9 -21390535.859 9                 -16667950.321 9       572.000         775.000        1449.000                  
G29  22675352.035    22675351.226    22675351.876                   -10226668.370 8 -10226668.371 8                  -7968833.612 8       271.000         162.000         378.000                  
G31  22171795.499    22171795.363    22171795.252                   -13638595.054 8 -13638595.055 8                 -10627476.249 9       241.000         139.000         543.000                  
> 2024 10 31 08 48 50.0000000  0 11
G04  19977319.126    19977318.856    19977320.220                   -24323595.552 9 -24323595.547 9                 -18953454.331 8       595.000         522.000         447.000                  
G05  25771038.414    25771033.686    25771036.325                     5102498.464 7   5102498.485 6                   3975970.922 6        58.000          22.000          35.000                  
G06  25262461.332    25262461.361    25262465.163                     2441702.761 7   2441702.766 6                   1902622.735 6        67.000          25.000          48.000                  
G07  24426834.884    24426834.966    24426835.752                    -2519065.241 8  -2519065.228 7                  -1962909.487 7       154.000          55.000          68.000                  
G09  20190079.875    20190079.518    20190082.080                   -19798298.887 9 -19798298.889 9                 -15427247.819 9       653.000        1252.000        1538.000                  
G11  23462270.957    23462270.063    23462270.991                     9060503.897 8   9060503.905 6                   7060128.956 6       120.000          26.000          40.000                  
G16  20520968.381    20520967.526    20520967.558                   -18874239.098 9 -18874239.100 8                 -14707199.379 8       598.000         265.000         171.000                  
G20  23233451.043    23233449.976    23233452.343                    -8207268.723 8  -8207268.704 6                  -6395273.764 6       172.000          29.000          37.000                  
G26  20411815.768    20411815.457    20411819.020                   -21569273.802 9 -21569273.802 9                 -16807226.644 9       577.000         789.000        1454.000                  
G29  22698561.514    22698560.625    22698561.198                   -10104702.551 8 -10104702.556 8                  -7873795.341 8       268.000         170.000         358.000                  
G31  22130037.339    22130037.060    22130036.923                   -13858036.685 8 -13858036.685 8                 -10798469.732 9       256.000         143.000         547.000                  
> 2024 10 31 08 49  0.0000000  0 11
G04  19959641.609    19959641.473    19959642.925                   -24416490.891 9 -24416490.887 9                 -19025840.311 8       588.000         513.000         474.000                  
G05  25817820.521    25817818.133    25817820.575                     5348350.274 7   5348350.277 6                   4167543.622 6        54.000          18.000          32.000                  
G06  25329991.381    25329990.478    25329995.180                     2796569.999 7   2796569.970 6                   2179142.470 6        65.000          21.000          46.000                  
G07  24450134.247    24450133.886    24450134.383                    -2396628.259 8  -2396628.262 7                  -1867504.108 7       154.000          56.000          59.000                  
G09  20211642.752    20211642.329    20211644.760                   -19684985.972 9 -19684985.974 9                 -15338952.058 9       662.000        1298.000        1505.000                  
G11  23534521.151    23534520.454    23534523.160                     9440182.176 8   9440182.197 6                   7355982.096 6       122.000          25.000          38.000                  
G16  20467948.758    20467947.832    20467947.876                   -19152859.018 9 -19152859.020 8                 -14924305.804 8       605.000         276.000         201.000                  
G20  23293201.421    23293199.296    23293201.022                    -7893284.840 8  -7893284.853 6                  -6150611.039 6       164.000          34.000          29.000                  
G26  20378693.519    20378692.889    20378696.599                   -21743333.659 9 -21743333.657 9                 -16942857.711 9       581.000         807.000        1499.000                  
G29  22722577.803    22722577.332    22722577.862                    -9978494.494 8  -9978494.489 8                  -7775451.418 8       269.000         167.000         357.000                  
G31  22088783.999    22088783.669    22088783.333                   -14074825.297 8 -14074825.298 8                 -10967395.932 9       266.000         158.000         560.000                  
> 2024 10 31 08 49 10.0000000  0 11
G04  19942597.252    19942597.174    19942598.767                   -24506058.893 9 -24506058.889 9                 -19095633.563 8       588.000         503.000         488.000                  
G05  25864767.739    25864768.444    25864770.526                     5595075.077 7   5595075.105 6                   4359796.502 6        60.000          20.000          34.000                  
G06  25397522.752    25397521.938    25397526.452                     3151450.699 7   3151450.699 6                   2455672.672 6        58.000          23.000          37.000                  
G07  24473691.806    24473691.264    24473692.484                    -2272831.485 8  -2272831.480 7                  -1771039.130 7       149.000          56.000          63.000                  
G09  20233793.774    20233793.378    20233795.629                   -19568582.541 9 -19568582.543 9                 -15248248.099 9       695.000        1422.000        1527.000                  
G11  23607083.583    23607082.724    23607084.842                     9821498.237 8   9821498.254 6                   7653111.396 6       125.000          25.000          37.000                  
G16  20415676.811    20415675.868    20415676.192                   -19427550.074 9 -19427550.075 8                 -15138350.771 8       606.000         271.000         230.000                  
G20  23353283.214    23353282.204    23353283.343                    -7577548.685 8  -7577548.694 6                  -5904582.982 6       151.000          34.000          26.000                  
G26  20346464.035    20346463.564    20346467.336                   -21912699.810 9 -21912699.810 9                 -17074831.334 9       585.000         816.000        1566.000                  
G29  22747391.203    22747391.039    22747391.412                    -9848098.970 8  -9848098.969 8                  -7673844.559 8       271.000         162.000         366.000                  
G31  22048036.989    22048036.063    22048036.126                   -14288954.130 8 -14288954.133 8                 -11134249.571 9       270.000         158.000         563.000                  
> 2024 10 31 08 49 20.0000000  0 11
G04  19926194.894    19926194.676    19926196.028                   -24592255.538 9 -24592255.533 9                 -19162799.787 8       600.000         533.000         481.000                  
G05  25911887.542    25911886.527    25911887.132                     5842676.986 7   5842677.004 6                   4552732.785 6        56.000          20.000          35.000                  
G06  25465052.022    25465052.951    25465057.610                     3506327.575 7   3506327.557 6                   2732199.853 6        52.000          18.000          37.000                  
G07  24497512.796    24497512.224    24497513.379                    -2147654.122 8  -2147654.129 7                  -1673498.380 7       149.000          54.000          70.000                  
G09  20256534.516    20256534.040    20256536.378                   -19449079.666 9 -19449079.668 9                 -15155128.989 9       687.000        1405.000        1603.000                  
G11  23679951.095    23679950.634    23679952.156                    10204420.359 8  10204420.369 6                   7951492.211 6       120.000          22.000          36.000                  
G16  20364170.168    20364169.202    20364169.616                   -19698219.156 9 -19698219.159 8                 -15349261.746 8       599.000         263.000         270.000                  
G20  23413697.096    23413694.816    23413697.275                    -7260074.542 8  -7260074.537 6                  -5657200.556 6       141.000          18.000          29.000                  
G26  20315140.732    20315140.106    20315143.740                   -22077306.118 9 -22077306.117 9                 -17203095.990 9       589.000         827.000        1585.000                  
G29  22773000.926    22773000.440    22773001.016                    -9713520.128 8  -9713520.133 8                  -7568977.973 8       266.000         155.000         370.000                  
G31  22007806.456    22007805.928    22007805.940                   -14500365.093 8 -14500365.091 8                 -11298985.394 9       275.000         179.000         580.000                  
> 2024 10 31 08 49 30.0000000  0 10
G04  19910430.648    19910430.303    19910431.736                   -24675097.487 9 -24675097.481 9                 -19227351.971 8       611.000         550.000         480.000                  
G05  25959160.525    25959160.159    25959160.850                     6091101.055 7   6091101.065 6                   4746309.871 6        56.000          19.000          32.000                  
G07  24521588.412    24521588.042    24521588.813                    -2021135.596 8  -2021135.608 7                  -1574912.605 7       147.000          54.000          61.000                  
G09  20279855.100    20279854.580    20279857.039                   -19326528.986 9 -19326528.989 9                 -15059634.966 9       677.000        1352.000        1629.000                  
G11  23753106.961    23753107.796    23753108.066                    10588856.853 8  10588856.850 6                   8251053.007 6       113.000          26.000          29.000                  
G16  20313435.024    20313434.085    20313434.656                   -19964833.695 9 -19964833.698 8                 -15557013.340 8       585.000         255.000         300.000                  
G20  23474427.096    23474425.585    23474426.084                    -6940936.799 8  -6940936.784 6                  -5408521.881 6       133.000          25.000          26.000                  
G26  20284723.783    20284723.236    20284726.901                   -22237147.596 9 -22237147.595 9                 -17327647.796 9       600.000         851.000        1587.000                  
G29  22799394.090    22799393.619    22799394.124                    -9574822.993 8  -9574822.992 8                  -7460902.327 8       259.000         148.000         369.000                  
G31  21968093.344    21968092.451    21968092.335                   -14709060.675 8 -14709060.674 8                 -11461605.334 9       292.000         188.000         570.000                  
> 2024 10 31 08 49 40.0000000  0 10
G04  19895312.405    19895312.242    19895313.678                   -24754543.652 9 -24754543.647 9                 -19289258.086 8       611.000         555.000         476.000                  
G05  26006590.022    26006590.582    26006590.747                     6340349.272 7   6340349.292 6                   4940529.180 6        53.000          20.000          30.000                  
G07  24545923.685    24545922.365    24545923.404                    -1893256.902 8  -1893256.900 7                  -1475266.946 7       148.000          52.000          59.000                  
G09  20303756.792    20303756.417    20303758.782                   -19200924.271 9 -19200924.273 9                 -14961761.180 9       667.000        1309.000        1603.000                  
G11  23826545.216    23826544.426    23826545.577                    10974774.777 8  10974774.780 6                   8551768.201 6       103.000          23.000          31.000                  
G16  20263488.700    20263487.709    20263488.320                   -20227303.133 9 -20227303.134 8                 -15761534.996 8       588.000         257.000         327.000                  
G20  23535469.514    23535468.913    23535470.240                    -6620151.475 8  -6620151.458 6                  -5158559.393 6       122.000          23.000          24.000                  
G26  20255225.464    20255225.005    20255228.663                   -22392162.009 9 -22392162.008 9                 -17448438.249 9       608.000         864.000        1594.000                  
G29  22826570.095    22826569.078    22826569.641                    -9432015.399 8  -9432015.401 8                  -7349623.734 8       254.000         139.000         371.000                  
G31  21928906.642    21928906.388    21928906.335                   -14914985.295 8 -14914985.293 8                 -11622066.075 9       299.000         195.000         571.000                  
> 2024 10 31 08 49 50.0000000  0  9
G04  19880843.285    19880842.747    19880844.213                   -24830581.255 9 -24830581.249 9                 -19348508.175 8       622.000         574.000         460.000                  
G07  24570515.595    24570514.401    24570515.195                    -1764027.133 8  -1764027.126 7                  -1374568.498 7       150.000          57.000          57.000                  
G09  20328235.268    20328235.123    20328237.591                   -19072287.412 9 -19072287.413 9                 -14861524.682 9       647.000        1240.000        1575.000                  
G11  23900252.101    23900252.658    23900253.206                    11362113.708 7  11362113.708 6                   8853590.677 6        96.000          26.000          31.000                  
G16  20214343.121    20214342.327    20214342.852                   -20485565.227 9 -20485565.229 8                 -15962778.211 8       587.000         256.000         352.000                  
G20  23596818.473    23596817.139    23596818.170                    -6297762.224 8  -6297762.234 6                  -4907347.073 6       116.000          18.000          17.000                  
G26  20226651.959    20226651.697    20226655.296                   -22542315.932 9 -22542315.931 9                 -17565441.312 9       614.000         889.000        1589.000                  
G29  22854520.684    22854519.825    22854520.331                    -9285133.684 8  -9285133.686 8                  -7235170.488 8       251.000         145.000         373.000                  
G31  21890252.858    21890252.774    21890252.831                   -15118111.449 8 -15118111.448 8                 -11780346.185 9       304.000         212.000         578.000                  
> 2024 10 31 08 50  0.0000000  0  9
G04  19867018.585    19867018.397    19867019.885                   -24903229.032 9 -24903229.027 9                 -19405116.835 8       629.000         581.000         461.000                  
G07  24595356.040    24595355.893    24595356.259                    -1633486.440 8  -1633486.445 7                  -1272848.564 7       149.000          55.000          56.000                  
G09  20353281.200    20353280.741    20353283.260                   -18940671.738 9 -18940671.740 9                 -14758967.033 9       643.000        1226.000        1612.000                  
G11  23974214.426    23974214.313    23974215.497                    11750782.598 7  11750782.568 6                   9156449.439 6        90.000          23.000          24.000                  
G16  20166003.913    20166002.960    20166003.664                   -20739589.150 9 -20739589.150 8                 -16160718.950 8       584.000         256.000         378.000                  
G20  23658459.102    23658456.884    23658458.461                    -5973843.638 8  -5973843.631 6                  -4654943.078 6       109.000          24.000          22.000                  
G26  20199003.978    20199003.491    20199007.179                   -22687608.054 9 -22687608.055 9                 -17678655.961 9       619.000         892.000        1650.000                  
G29  22883233.686    22883232.668    22883233.615                    -9134246.121 8  -9134246.122 8                  -7117595.816 8       246.000         137.000         390.000                  
G31  21852131.281    21852130.818    21852130.930                   -15318442.984 8 -15318442.985 8                 -11936448.682 9       307.000         210.000         589.000                  
> 2024 10 31 08 50 10.0000000  0  9
G04  19853850.987    19853850.786    19853852.206                   -24972425.021 9 -24972425.017 9                 -19459035.794 8       631.000         592.000         455.000                  
G07  24620454.787    24620453.982    24620454.655                    -1501593.847 8  -1501593.856 7                  -1170075.188 7       148.000          54.000          51.000                  
G09  20378898.994    20378898.597    20378901.015                   -18806049.661 9 -18806049.663 9                 -14654066.736 9       640.000        1223.000        1545.000                  
G11  24048425.883    24048425.794    24048428.633                    12140772.055 7  12140772.058 6                   9460337.211 6        86.000          22.000          26.000                  
G16  20118492.615    20118491.636    20118492.396                   -20989263.177 9 -20989263.179 8                 -16355270.163 8       602.000         275.000         384.000                  
G20  23720390.414    23720390.025    23720392.010                    -5648389.040 8  -5648389.049 6                  -4401342.189 6       102.000          20.000          20.000                  
G26  20172296.453    20172295.987    20172299.654                   -22827956.868 9 -22827956.867 9                 -17788018.677 9       616.000         882.000        1637.000                  
G29  22912710.955    22912710.388    22912711.090                    -8979340.568 8  -8979340.566 8                  -6996890.222 8       243.000         141.000         390.000                  
G31  21814555.762    21814555.607    21814555.499                   -15515902.866 8 -15515902.865 8                 -12090313.521 9       309.000         218.000         577.000                  
> 2024 10 31 08 50 20.0000000  0  9
G04  19841336.184    19841335.948    19841337.459                   -25038191.269 9 -25038191.264 9                 -19510282.236 8       638.000         599.000         424.000                  
G07  24645801.872    24645801.584    24645802.101                    -1368392.044 8  -1368392.045 7                  -1066281.649 6       146.000          51.000          47.000                  
G09  20405078.167    20405077.759    20405080.112                   -18668477.401 9 -18668477.404 9                 -14546867.597 9       638.000        1196.000        1427.000                  
G11  24122874.817    24122872.261    24122875.505                    12531989.521 7  12531989.532 6                   9765181.898 6        91.000          23.000          26.000                  
G16  20071814.495    20071813.381    20071813.906                   -21234559.673 9 -21234559.676 8                 -16546410.295 8       620.000         287.000         367.000                  
G20  23782600.006    23782599.476    23782598.890                    -5321474.972 7  -5321474.955 6                  -4146604.082 6        92.000          19.000          17.000                  
G26  20146529.118    20146528.561    20146532.149                   -22963365.508 9 -22963365.508 9                 -17893531.905 9       610.000         875.000        1581.000                  
G29  22942939.206    22942938.647    22942939.427                    -8820489.200 8  -8820489.200 8                  -6873109.986 8       248.000         141.000         386.000                  
G31  21777525.291    21777525.367    21777525.301                   -15710497.761 8 -15710497.763 8                 -12241945.918 9       315.000         226.000         555.000                  
> 2024 10 31 08 50 30.0000000  0  9
G04  19829479.168    19829478.992    19829480.265                   -25100500.107 9 -25100500.101 9                 -19558834.602 8       640.000         605.000         396.000                  
G07  24671399.825    24671399.704    24671400.821                    -1233873.440 8  -1233873.441 7                   -961462.037 6       143.000          53.000          48.000                  
G09  20431817.717    20431817.246    20431819.568                   -18527961.306 9 -18527961.308 9                 -14437374.558 9       636.000        1186.000        1283.000                  
G11  24197545.509    24197543.886    24197546.103                    12924393.180 7  12924393.174 6                  10070950.875 6        90.000          19.000          26.000                  
G16  20025983.700    20025982.761    20025983.198                   -21475401.346 9 -21475401.348 8                 -16734079.122 8       634.000         295.000         348.000                  
G20  23845083.014    23845081.171    23845082.296                    -4993127.706 7  -4993127.711 6                  -3890749.019 6        85.000          20.000          17.000                  
G26  20121710.334    20121709.995    20121713.604                   -23093787.976 9 -23093787.976 9                 -17995159.810 9       615.000         883.000        1502.000                  
G29  22973914.202    22973913.933    22973914.612                    -8657714.515 8  -8657714.517 8                  -6746272.620 8       250.000         141.000         364.000                  
G31  21741049.082    21741048.424    21741048.674                   -15902184.470 8 -15902184.471 8                 -12391312.204 9       328.000         241.000         533.000                  
> 2024 10 31 08 50 40.0000000  0  9
G04  19818282.147    19818281.973    19818283.322                   -25159341.245 9 -25159341.239 9                 -19604684.889 8       648.000         622.000         402.000                  
G07  24697247.109    24697246.207    24697247.567                    -1098047.471 8  -1098047.471 6                   -855623.698 6       140.000          49.000          49.000                  
G09  20459112.530    20459112.226    20459114.487                   -18384524.829 9 -18384524.831 9                 -14325605.895 9       609.000        1093.000        1235.000                  
G11  24272432.496    24272430.636    24272433.190                    13317924.732 7  13317924.715 6                  10377598.753 6        94.000          24.000          22.000                  
G16  19981012.088    19981011.117    19981011.811                   -21711728.296 9 -21711728.297 8                 -16918229.993 8       641.000         301.000         367.000                  
G20  23907830.269    23907827.931    23907828.480                    -4663390.164 7  -4663390.150 6                  -3633810.914 6        83.000          22.000          18.000                  
G26  20097846.014    20097845.537    20097849.264                   -23219196.219 9 -23219196.220 9                 -18092880.525 9       623.000         920.000        1556.000                  
G29  23005628.906    23005627.867    23005628.638                    -8491056.807 8  -8491056.808 8                  -6616409.536 8       247.000         133.000         359.000                  
G31  21705130.612    21705130.212    21705130.340                   -16090936.931 8 -16090936.932 8                 -12538392.095 9       337.000         259.000         578.000                  
