     3.03           OBSERVATION DATA    M (MIXED)           RINEX VERSION / TYPE
BJPP                CNES                20241031 091233 UTC PGM / RUN BY / DATE 
MARKER                                                      MARKER NAME         
SPACECRAFT                                                  MARKER TYPE         
OBSERVER            CNES                                    OBSERVER / AGENCY   
RECNUM              BLACKJACK           RECVERS             REC # / TYPE / VERS 
ANTNUM              BLACKJACK                               ANT # / TYPE        
        0.0000        0.0000        0.0000                  ANTENNA: DELTA H/E/N
G   12 C1C C1W C2W C2X L1C L1W L2X L2W S1C S1W S2W S2X      SYS / # / OBS TYPES 
DBHZ                                                        SIGNAL STRENGTH UNIT
This rinex produced from the following file(s):             COMMENT             
/tmp/mesos_work/slaves/d197f515-9ebc-49f2-8adc-fe7a9d3e6458-COMMENT             
S23/frameworks/8c1b9f46-52ed-4aff-9edf-38d17bf6761e-2899/exeCOMMENT             
cutors/toil-52068/runs/887ebc48-9e2f-46ee-9a13-5f92984a2911/COMMENT             
00677c7557bd5512a041c8f0bab17bd2/7845/5ecd/tmp5viojqllr4a4whCOMMENT             
v7/stg7e57da3e-434a-4dbf-8b1b-e354d6622330/SWOT_KRX_20241031COMMENT             
T083440_20241031T071009_20241031T082749_O_APID1280.PTM_0    COMMENT             
  2024    10    31     7     9   50.0000000                 TIME OF FIRST OBS   
G L1C                                                       SYS / PHASE SHIFT   
G L1W -0.25000                                              SYS / PHASE SHIFT   
G L2W                                                       SYS / PHASE SHIFT   
G L2X  0.25000                                              SYS / PHASE SHIFT   
                                                            END OF HEADER       
> 2024 10 31 07 09 50.0000000  0 10
G03  22207017.946    22207017.908    22207020.640                   -11112286.993 8 -11112286.995 8                  -8658926.048 9       272.000         188.000         598.000                  
G04  23240734.038    23240733.925    23240734.829                    -2950486.062 8  -2950486.035 7                  -2299080.386 7       198.000          61.000          65.000                  
G06  24513766.952    24513768.565    24513772.433                    -2232278.258 7  -2232278.243 6                  -1739439.712 6        51.000          22.000          24.000                  
G11  24656801.482    24656801.007    24656803.080                    -2311357.136 8  -2311357.144 6                  -1801060.925 6       117.000          28.000          25.000                  
G25  21462049.573    21462048.598    21462052.336                   -15403174.186 8 -15403174.189 8                 -12002474.761 9       274.000         179.000         517.000                  
G26  20885826.369    20885826.246    20885830.335                   -19440115.187 8 -19440115.187 8                 -15148142.920 9       426.000         433.000         902.000                  
G28  19721706.838    19721706.564    19721707.147                   -26809018.310 9 -26809018.317 9                 -20890143.040 9       671.000         554.000         711.000                  
G29  21862142.827    21862141.968    21862142.676                   -16650844.752 8 -16650844.753 8                 -12974685.335 9       352.000         283.000         555.000                  
G31  19517807.206    19517806.809    19517806.523                   -26737181.951 9 -26737181.951 9                 -20834167.378 9       797.000        1406.000        1878.000                  
G32  23299341.671    23299340.579    23299344.683                    -3208897.555 8  -3208897.547 7                  -2500442.811 8       171.000          75.000         185.000                  
> 2024 10 31 07 10  0.0000000  0  9
G03  22246646.503    22246646.462    22246649.305                   -10904037.479 8 -10904037.483 8                  -8496653.735 9       265.000         173.000         607.000                  
G04  23295813.112    23295811.923    23295814.342                    -2661046.367 8  -2661046.355 7                  -2073543.029 7       190.000          53.000          68.000                  
G11  24695399.717    24695400.093    24695402.838                    -2108520.948 8  -2108520.935 6                  -1643006.830 6       114.000          26.000          26.000                  
G25  21469333.322    21469332.513    21469336.239                   -15364896.606 8 -15364896.605 8                 -11972648.089 9       273.000         187.000         529.000                  
G26  20852688.606    20852687.886    20852691.980                   -19614257.919 8 -19614257.918 8                 -15283838.550 9       440.000         460.000         840.000                  
G28  19704546.392    19704546.108    19704546.690                   -26899196.605 9 -26899196.613 9                 -20960411.773 9       668.000         541.000         741.000                  
G29  21823138.316    21823137.508    21823138.169                   -16855814.784 8 -16855814.786 8                 -13134402.229 9       349.000         282.000         583.000                  
G31  19521108.554    19521108.199    19521107.933                   -26719833.181 9 -26719833.182 9                 -20820648.857 9       796.000        1415.000        1899.000                  
G32  23239076.059    23239075.886    23239079.728                    -3525592.951 8  -3525592.954 7                  -2747218.388 8       184.000          88.000         191.000                  
> 2024 10 31 07 10 10.0000000  0 10
G03  22286598.427    22286598.394    22286601.335                   -10694088.500 8 -10694088.503 8                  -8333057.188 9       259.000         174.000         597.000                  
G04  23351084.525    23351084.167    23351086.315                    -2370589.573 8  -2370589.571 7                  -1847213.123 7       188.000          55.000          62.000                  
G11  24734474.331    24734474.018    24734476.431                    -1903185.257 8  -1903185.279 6                  -1483005.102 6       115.000          26.000          24.000                  
G16  24231534.314    24231569.139    24231584.292                     -192425.465 7   -192425.476 6                   -149943.973 6        70.000          22.000          20.000                  
G25  21477380.718    21477379.844    21477383.436                   -15322607.973 8 -15322607.975 8                 -11939695.931 9       278.000         189.000         544.000                  
G26  20820288.204    20820287.889    20820291.715                   -19784521.917 8 -19784521.915 9                 -15416511.798 9       458.000         502.000         826.000                  
G28  19688221.394    19688221.171    19688221.761                   -26984985.009 9 -26984985.015 9                 -21027259.872 9       667.000         549.000         761.000                  
G29  21784999.367    21784998.788    21784999.519                   -17056234.812 8 -17056234.817 8                 -13290573.675 9       354.000         282.000         601.000                  
G31  19525245.782    19525245.337    19525244.974                   -26698092.736 9 -26698092.736 9                 -20803708.260 9       800.000        1405.000        1918.000                  
G32  23179019.075    23179018.845    23179022.330                    -3841194.580 8  -3841194.584 7                  -2993141.658 8       198.000          99.000         225.000                  
> 2024 10 31 07 10 20.0000000  0 10
G03  22326870.554    22326870.287    22326873.181                   -10482458.385 8 -10482458.388 8                  -8168150.660 9       252.000         164.000         600.000                  
G04  23406547.455    23406547.173    23406548.729                    -2079130.916 8  -2079130.884 6                  -1620102.556 7       181.000          45.000          57.000                  
G11  24774021.509    24774019.468    24774022.493                    -1695369.237 8  -1695369.213 6                  -1321070.611 6       113.000          22.000          23.000                  
G16  24191058.394    24191092.319    24191096.373                     -405128.071 7   -405128.073 6                   -315685.140 6        74.000          20.000          18.000                  
G25  21486190.629    21486189.753    21486193.439                   -15276311.891 8 -15276311.890 8                 -11903621.069 9       273.000         184.000         532.000                  
G26  20788637.584    20788637.237    20788640.990                   -19950847.936 8 -19950847.937 9                 -15546116.477 9       475.000         529.000         854.000                  
G28  19672737.721    19672737.517    19672738.110                   -27066351.988 9 -27066351.996 9                 -21090662.713 9       669.000         541.000         776.000                  
G29  21747738.135    21747737.836    21747738.533                   -17252042.897 8 -17252042.899 8                 -13443151.401 9       363.000         288.000         585.000                  
G31  19530221.054    19530220.704    19530220.354                   -26671947.067 9 -26671947.068 9                 -20783335.004 9       801.000        1412.000        1888.000                  
G32  23119179.188    23119179.097    23119182.575                    -4155654.550 8  -4155654.555 8                  -3238175.347 8       205.000         101.000         229.000                  
> 2024 10 31 07 10 30.0000000  0 10
G03  22367456.121    22367455.877    22367458.729                   -10269180.517 8 -10269180.520 8                  -8001960.164 9       244.000         157.000         586.000                  
G04  23462195.014    23462194.821    23462196.448                    -1786700.425 8  -1786700.401 6                  -1392234.753 6       174.000          47.000          47.000                  
G11  24814031.900    24814031.743    24814033.640                    -1485107.353 8  -1485107.365 6                  -1157230.253 6       114.000          23.000          23.000                  
G16  24150857.595    24150890.629    24150913.816                     -616389.087 7   -616389.085 6                   -480305.137 6        75.000          19.000          16.000                  
G25  21495758.917    21495758.560    21495762.100                   -15226027.997 8 -15226028.000 8                 -11864438.812 9       274.000         177.000         535.000                  
G26  20757744.372    20757744.046    20757747.800                   -20113192.416 8 -20113192.415 9                 -15672618.642 9       483.000         552.000         867.000                  
G28  19658098.429    19658098.239    19658098.746                   -27143282.066 9 -27143282.075 9                 -21150608.213 9       664.000         536.000         794.000                  
G29  21711363.347    21711363.081    21711363.716                   -17443193.072 8 -17443193.070 8                 -13592099.574 9       370.000         308.000         567.000                  
G31  19536034.112    19536033.878    19536033.452                   -26641398.683 9 -26641398.684 9                 -20759531.064 9       791.000        1392.000        1788.000                  
G32  23059562.853    23059562.816    23059566.375                    -4468939.674 8  -4468939.680 8                  -3482293.535 8       208.000         112.000         251.000                  
> 2024 10 31 07 10 40.0000000  0 10
G03  22408345.729    22408345.658    22408349.126                   -10054301.129 8 -10054301.135 8                  -7834521.725 9       238.000         149.000         584.000                  
G04  23518020.199    23518019.323    23518021.367                    -1493340.768 8  -1493340.765 6                  -1163642.911 6       168.000          44.000          46.000                  
G11  24854501.721    24854499.131    24854501.086                    -1272447.444 8  -1272447.454 6                   -991521.335 6       108.000          32.000          27.000                  
G16  24110934.684    24110967.683    24110983.560                     -826180.866 7   -826180.851 6                   -643778.818 6        76.000          23.000          19.000                  
G25  21506081.116    21506079.454    21506083.327                   -15171789.689 8 -15171789.693 8                 -11822175.196 9       277.000         186.000         544.000                  
G26  20727614.714    20727614.329    20727618.091                   -20271525.384 8 -20271525.383 9                 -15795994.957 9       489.000         555.000         909.000                  
G28  19644303.832    19644303.483    19644304.073                   -27215773.683 9 -27215773.692 9                 -21207095.179 9       663.000         543.000         801.000                  
G29  21675881.603    21675880.814    21675881.306                   -17629653.285 8 -17629653.285 8                 -13737393.224 9       373.000         304.000         576.000                  
G31  19542681.993    19542681.676    19542681.291                   -26606464.024 9 -26606464.024 9                 -20732309.250 9       776.000        1333.000        1738.000                  
G32  23000174.429    23000173.923    23000177.505                    -4781029.682 8  -4781029.681 8                  -3725480.462 8       210.000         107.000         276.000                  
> 2024 10 31 07 10 50.0000000  0 10
G03  22449539.788    22449539.814    22449542.981                    -9837825.563 8  -9837825.563 8                  -7665839.499 9       231.000         144.000         581.000                  
G04  23574020.515    23574020.837    23574022.541                    -1199053.830 8  -1199053.825 6                   -934328.491 6       165.000          41.000          45.000                  
G11  24895423.615    24895422.020    24895424.373                    -1057396.585 8  -1057396.579 6                   -823949.342 6       108.000          27.000          22.000                  
G16  24071306.909    24071338.155    24071361.221                    -1034434.918 7  -1034434.908 6                   -806055.016 6        76.000          20.000          18.000                  
G25  21517155.451    21517154.688    21517158.261                   -15113590.343 8 -15113590.341 8                 -11776825.062 9       272.000         180.000         527.000                  
G26  20698261.595    20698261.131    20698265.076                   -20425776.755 8 -20425776.754 9                 -15916190.851 9       474.000         542.000         978.000                  
G28  19631361.580    19631361.422    19631361.917                   -27283785.322 9 -27283785.331 9                 -21260091.251 9       664.000         543.000         798.000                  
G29  21641305.217    21641304.813    21641305.402                   -17811351.434 8 -17811351.436 8                 -13878976.186 9       380.000         319.000         550.000                  
G31  19550168.981    19550168.748    19550168.232                   -26567119.590 9 -26567119.589 9                 -20701651.256 9       779.000        1342.000        1705.000                  
G32  22941024.772    22941024.095    22941027.698                    -5091863.111 8  -5091863.113 8                  -3967688.239 8       223.000         124.000         302.000                  
> 2024 10 31 07 11  0.0000000  0 10
G03  22491024.799    22491024.635    22491027.804                    -9619820.938 8  -9619820.943 8                  -7495965.798 9       223.000         140.000         576.000                  
G04  23630186.146    23630186.364    23630187.149                     -903903.046 8   -903903.034 6                   -704340.957 6       160.000          39.000          44.000                  
G11  24936789.091    24936786.335    24936787.820                     -840024.161 8   -840024.176 6                   -654568.288 6       102.000          23.000          26.000                  
G16  24031969.070    24032002.655    24032033.376                    -1241144.500 7  -1241144.517 6                   -967127.715 6        80.000          19.000          20.000                  
G25  21528973.742    21528972.656    21528976.347                   -15051486.048 8 -15051486.048 8                 -11728432.129 9       272.000         187.000         509.000                  
G26  20669686.913    20669686.393    20669690.244                   -20575938.723 8 -20575938.723 9                 -16033200.181 9       474.000         535.000        1044.000                  
G28  19619267.872    19619267.592    19619268.136                   -27347338.217 9 -27347338.225 9                 -21309612.945 9       664.000         539.000         819.000                  
G29  21607637.305    21607636.784    21607637.264                   -17988278.393 8 -17988278.395 8                 -14016841.348 9       383.000         329.000         554.000                  
G31  19558487.729    19558487.392    19558487.034                   -26523404.718 9 -26523404.718 9                 -20667587.718 9       781.000        1346.000        1791.000                  
G32  22882113.749    22882113.605    22882116.898                    -5401440.241 8  -5401440.244 8                  -4208917.077 8       234.000         138.000         319.000                  
> 2024 10 31 07 11 10.0000000  0 10
G03  22532800.518    22532800.515    22532804.082                    -9400286.661 8  -9400286.664 8                  -7324900.160 9       230.000         140.000         576.000                  
G04  23686516.803    23686516.780    23686518.533                     -607884.063 8   -607884.075 6                   -473676.905 6       153.000          35.000          31.000                  
G11  24978595.411    24978592.757    24978594.710                     -620332.125 7   -620332.134 6                   -483379.713 6        99.000          21.000          20.000                  
G16  23992944.214    23992973.330    23992997.742                    -1446235.275 7  -1446235.280 6                  -1126938.341 6        83.000          22.000          15.000                  
G25  21541536.774    21541535.974    21541539.557                   -14985466.116 8 -14985466.119 8                 -11676988.083 9       276.000         188.000         503.000                  
G26  20641904.537    20641903.887    20641907.709                   -20721936.715 8 -20721936.713 9                 -16146964.837 9       482.000         545.000        1106.000                  
G28  19608031.207    19608031.062    19608031.559                   -27406387.182 9 -27406387.190 9                 -21355625.142 9       668.000         546.000         825.000                  
G29  21574891.837    21574891.063    21574891.547                   -18160358.530 8 -18160358.530 8                 -14150929.777 9       391.000         346.000         543.000                  
G31  19567643.066    19567642.943    19567642.496                   -26475292.131 9 -26475292.131 9                 -20630097.393 9       775.000        1329.000        1792.000                  
G32  22823455.225    22823454.818    22823458.104                    -5709693.551 8  -5709693.552 8                  -4449114.371 8       250.000         171.000         340.000                  
> 2024 10 31 07 11 20.0000000  0 10
G03  22574856.612    22574856.917    22574860.087                    -9179280.452 8  -9179280.453 8                  -7152687.572 9       235.000         147.000         571.000                  
G04  23743002.980    23743001.963    23743003.906                     -311050.801 8   -311050.812 6                   -242378.335 6       147.000          44.000          30.000                  
G11  25020828.900    25020828.437    25020830.363                     -398381.272 7   -398381.284 6                   -310431.099 6        92.000          17.000          21.000                  
G16  23954226.942    23954255.909    23954266.296                    -1649691.208 7  -1649691.227 6                  -1285477.336 6        80.000          18.000          15.000                  
G25  21554836.021    21554835.270    21554838.686                   -14915578.861 8 -14915578.862 8                 -11622530.507 8       277.000         185.000         484.000                  
G26  20614917.089    20614916.790    20614920.598                   -20863755.390 8 -20863755.390 9                 -16257472.940 9       485.000         563.000        1175.000                  
G28  19597648.913    19597648.731    19597649.298                   -27460946.135 9 -27460946.145 9                 -21398138.650 9       672.000         563.000         823.000                  
G29  21543071.255    21543070.737    21543071.393                   -18327575.321 8 -18327575.322 8                 -14281228.589 9       398.000         349.000         570.000                  
G31  19577629.456    19577629.243    19577628.754                   -26422813.699 9 -26422813.699 9                 -20589205.128 9       779.000        1331.000        1779.000                  
G32  22765049.979    22765049.828    22765053.167                    -6016613.706 8  -6016613.703 8                  -4688272.868 8       268.000         178.000         357.000                  
> 2024 10 31 07 11 30.0000000  0 10
G03  22617189.614    22617189.948    22617192.986                    -8956819.583 8  -8956819.584 8                  -6979341.484 9       239.000         146.000         544.000                  
G04  23799641.016    23799640.144    23799641.436                      -13416.590 8    -13416.587 6                    -10455.676 6       143.000          40.000          33.000                  
G11  25063492.150    25063490.686    25063492.232                     -174192.021 7   -174191.998 6                   -135738.186 6        91.000          24.000          20.000                  
G16  23915830.440    23915859.958    23915885.018                    -1851455.882 7  -1851455.865 6                  -1442694.550 6        88.000          19.000          17.000                  
G25  21568869.303    21568868.329    21568872.146                   -14841833.386 8 -14841833.388 8                 -11565066.559 8       270.000         177.000         460.000                  
G26  20588735.756    20588735.360    20588739.247                   -21001339.617 8 -21001339.616 9                 -16364681.469 9       486.000         563.000        1177.000                  
G28  19588126.069    19588125.837    19588126.468                   -27510989.580 9 -27510989.589 9                 -21437133.542 9       682.000         573.000         821.000                  
G29  21512187.168    21512186.473    21512186.960                   -18489873.096 8 -18489873.099 8                 -14407694.377 9       405.000         365.000         555.000                  
G31  19588448.169    19588447.645    19588447.345                   -26365962.029 9 -26365962.029 9                 -20544905.139 9       771.000        1302.000        1784.000                  
G32  22706908.337    22706908.213    22706911.430                    -6322150.917 8  -6322150.921 8                  -4926353.801 8       279.000         197.000         384.000                  
> 2024 10 31 07 11 40.0000000  0 10
G03  22659793.841    22659793.440    22659796.331                    -8732937.543 8  -8732937.546 8                  -6804887.989 9       245.000         154.000         538.000                  
G04  23856425.748    23856424.584    23856426.778                      284988.988 8    284988.982 6                    222068.078 6       139.000          29.000          31.000                  
G11  25106572.259    25106570.488    25106573.909                       52198.445 7     52198.455 6                     40669.825 6        88.000          22.000          20.000                  
G16  23877765.198    23877794.755    23877815.491                    -2051489.423 7  -2051489.400 6                  -1598566.192 6        84.000          20.000          17.000                  
G25  21583632.221    21583631.179    21583634.690                   -14764255.522 8 -14764255.524 8                 -11504616.282 8       261.000         162.000         452.000                  
G26  20563367.364    20563366.768    20563370.784                   -21134651.416 8 -21134651.417 9                 -16468560.828 9       491.000         570.000        1228.000                  
G28  19579463.984    19579463.646    19579464.295                   -27556509.533 9 -27556509.542 9                 -21472603.640 9       702.000         603.000         835.000                  
G29  21482246.142    21482245.696    21482246.005                   -18647213.861 8 -18647213.862 8                 -14530297.559 9       418.000         384.000         569.000                  
G31  19600096.832    19600096.512    19600096.210                   -26304747.119 9 -26304747.119 9                 -20497205.230 9       766.000        1288.000        1786.000                  
G32  22649036.061    22649035.944    22649039.336                    -6626271.544 8  -6626271.544 8                  -5163330.967 8       287.000         209.000         418.000                  
> 2024 10 31 07 11 50.0000000  0 10
G03  22702658.656    22702658.476    22702661.391                    -8507680.574 8  -8507680.577 8                  -6629363.125 9       246.000         160.000         514.000                  
G04  23913349.016    23913348.404    23913349.427                      584123.794 8    584123.774 6                    455160.024 6       135.000          24.000          36.000                  
G11  25150063.853    25150060.962    25150063.885                      280740.000 7    280740.025 6                    218754.083 6        84.000          21.000          23.000                  
G16  23840036.416    23840063.658    23840076.978                    -2249764.500 7  -2249764.500 6                  -1753055.170 6        89.000          22.000          17.000                  
G25  21599116.371    21599115.364    21599118.878                   -14682885.008 8 -14682885.011 8                 -11441210.698 8       257.000         168.000         446.000                  
G26  20538816.647    20538816.079    20538820.155                   -21263666.462 8 -21263666.460 9                 -16569092.050 9       496.000         578.000        1294.000                  
G28  19571661.542    19571661.197    19571661.757                   -27597511.739 9 -27597511.748 9                 -21504553.431 9       714.000         621.000         821.000                  
G29  21453253.330    21453252.466    21453252.988                   -18799573.212 8 -18799573.214 8                 -14649019.120 9       433.000         417.000         601.000                  
G31  19612571.445    19612571.174    19612570.847                   -26239192.505 9 -26239192.505 9                 -20446123.737 9       763.000        1271.000        1778.000                  
G32  22591437.467    22591437.270    22591440.734                    -6928954.216 8  -6928954.220 8                  -5399187.581 8       291.000         204.000         439.000                  
> 2024 10 31 07 12  0.0000000  0 10
G03  22745784.357    22745784.338    22745787.126                    -8281053.668 8  -8281053.670 8                  -6452770.780 9       248.000         157.000         513.000                  
G04  23970410.579    23970410.548    23970412.251                      883986.903 8    883986.901 6                    688819.521 6       128.000          24.000          25.000                  
G11  25193961.077    25193958.810    25193962.451                      511423.363 7    511423.346 6                    398507.263 6        79.000          21.000          23.000                  
G16  23802652.123    23802680.297    23802695.125                    -2446212.997 7  -2446212.982 6                  -1906092.307 6        95.000          23.000          20.000                  
G25  21615322.334    21615321.384    21615325.044                   -14597721.142 8 -14597721.145 8                 -11374849.251 8       259.000         155.000         435.000                  
G26  20515095.948    20515095.432    20515099.402                   -21388320.218 9 -21388320.217 9                 -16666224.856 9       502.000         592.000        1290.000                  
G28  19564725.214    19564725.041    19564725.559                   -27633961.820 9 -27633961.830 9                 -21532956.097 9       724.000         646.000         826.000                  
G29  21425220.211    21425219.752    21425220.232                   -18946886.870 8 -18946886.870 8                 -14763808.965 9       441.000         430.000         628.000                  
G31  19625875.124    19625874.755    19625874.475                   -26169281.667 9 -26169281.667 9                 -20391647.781 9       755.000        1265.000        1806.000                  
G32  22534124.063    22534124.103    22534127.484                    -7230136.864 8  -7230136.866 8                  -5633875.365 8       288.000         207.000         475.000                  
> 2024 10 31 07 12 10.0000000  0 10
G03  22789158.017    22789157.972    22789161.059                    -8053122.433 8  -8053122.433 8                  -6275162.078 9       245.000         163.000         504.000                  
G04  24027599.224    24027599.607    24027601.784                     1184516.912 8   1184516.897 6                    922998.606 6       117.000          26.000          24.000                  
G11  25238252.698    25238249.653    25238252.960                      744178.454 7    744178.432 6                    579874.786 6        78.000          22.000          18.000                  
G16  23765617.722    23765645.147    23765662.963                    -2640827.388 7  -2640827.360 6                  -2057699.301 6        91.000          18.000          19.000                  
G25  21632239.057    21632237.886    21632241.420                   -14508824.663 8 -14508824.659 8                 -11305579.284 8       252.000         157.000         421.000                  
G26  20492205.842    20492205.112    20492208.979                   -21508609.629 9 -21508609.628 9                 -16759956.888 9       521.000         632.000        1220.000                  
G28  19558650.065    19558649.786    19558650.350                   -27665887.157 9 -27665887.168 9                 -21557833.010 9       722.000         649.000         856.000                  
G29  21398147.984    21398147.370    21398147.965                   -19089152.547 8 -19089152.547 8                 -14874665.353 9       445.000         448.000         657.000                  
G31  19639998.960    19639998.719    19639998.549                   -26095059.579 9 -26095059.579 9                 -20333812.401 9       735.000        1192.000        1809.000                  
G32  22477096.941    22477096.607    22477100.319                    -7529817.877 8  -7529817.877 8                  -5867393.181 8       283.000         203.000         492.000                  
> 2024 10 31 07 12 20.0000000  0 10
G03  22832780.266    22832780.457    22832783.545                    -7823885.749 8  -7823885.750 8                  -6096536.156 8       237.000         145.000         497.000                  
G04  24084916.883    24084917.000    24084918.138                     1485719.194 8   1485719.183 6                   1157701.583 6       114.000          28.000          31.000                  
G11  25282937.122    25282935.873    25282938.392                      979001.243 7    979001.250 6                    762853.519 6        79.000          23.000          18.000                  
G16  23728948.589    23728973.304    23728991.171                    -2833533.623 7  -2833533.612 6                  -2207821.016 6        94.000          22.000          18.000                  
G25  21649866.451    21649865.777    21649869.305                   -14416190.411 8 -14416190.416 8                 -11233396.761 8       252.000         155.000         424.000                  
G26  20470159.058    20470158.460    20470162.257                   -21624465.969 9 -21624465.969 9                 -16850234.595 9       527.000         644.000        1152.000                  
G28  19553443.295    19553442.885    19553443.562                   -27693249.467 9 -27693249.478 9                 -21579154.312 9       728.000         664.000         857.000                  
G29  21372049.259    21372048.786    21372049.318                   -19226302.392 8 -19226302.392 8                 -14981535.382 9       454.000         459.000         705.000                  
G31  19654947.394    19654947.069    19654946.851                   -26016505.660 9 -26016505.660 9                 -20272601.573 9       728.000        1175.000        1775.000                  
G32  22420368.493    22420368.232    22420371.752                    -7827928.445 8  -7827928.446 8                  -6099687.232 9       285.000         209.000         524.000                  
> 2024 10 31 07 12 30.0000000  0 10
G03  22876640.476    22876640.025    22876643.351                    -7593401.738 8  -7593401.740 8                  -5916938.288 8       229.000         134.000         492.000                  
G04  24142351.461    24142351.569    24142352.860                     1787539.867 8   1787539.860 6                   1392886.430 6       106.000          24.000          26.000                  
G11  25328005.576    25328003.437    25328005.657                     1215828.475 7   1215828.445 6                    947394.192 6        74.000          22.000          20.000                  
G16  23692643.366    23692667.114    23692688.888                    -3024317.117 7  -3024317.123 6                  -2356451.503 6        90.000          22.000          18.000                  
G25  21668195.106    21668194.236    21668197.769                   -14319873.382 8 -14319873.382 8                 -11158344.544 8       247.000         151.000         430.000                  
G26  20448957.216    20448956.874    20448960.759                   -21735880.697 9 -21735880.697 9                 -16937051.300 9       510.000         602.000        1142.000                  
G28  19549100.440    19549100.214    19549100.759                   -27716070.814 9 -27716070.826 9                 -21596937.160 9       731.000         667.000         884.000                  
G29  21346925.369    21346925.039    21346925.499                   -19358329.234 8 -19358329.236 8                 -15084413.469 9       455.000         452.000         742.000                  
G31  19670712.250    19670712.166    19670711.970                   -25933659.611 9 -25933659.611 9                 -20208046.227 9       722.000        1152.000        1682.000                  
G32  22363940.599    22363940.290    22363943.763                    -8124459.044 8  -8124459.045 8                  -6330749.984 9       289.000         207.000         552.000                  
> 2024 10 31 07 12 40.0000000  0 10
G03  22920733.690    22920734.296    22920737.318                    -7361686.965 8  -7361686.970 8                  -5736381.385 8       222.000         128.000         489.000                  
G04  24199901.108    24199901.556    24199901.904                     2089966.732 8   2089966.727 6                   1628543.578 6       104.000          24.000          21.000                  
G11  25373447.886    25373447.609    25373450.728                     1454637.990 7   1454637.991 6                   1133479.442 6        73.000          23.000          19.000                  
G16  23656713.931    23656735.656    23656758.659                    -3213121.767 7  -3213121.788 6                  -2503559.639 6        94.000          21.000          16.000                  
G25  21687221.708    21687220.729    21687224.455                   -14219887.788 8 -14219887.788 8                 -11080433.699 8       238.000         145.000         425.000                  
G26  20428610.548    20428610.033    20428613.878                   -21842804.860 9 -21842804.859 9                 -17020368.867 9       507.000         606.000        1157.000                  
G28  19545625.153    19545624.999    19545625.650                   -27734333.090 9 -27734333.101 9                 -21611167.520 9       733.000         667.000         903.000                  
G29  21322785.579    21322784.973    21322785.553                   -19485185.709 8 -19485185.710 8                 -15183262.706 9       451.000         454.000         765.000                  
G31  19687294.566    19687294.258    19687293.911                   -25846520.636 9 -25846520.636 9                 -20140145.746 9       717.000        1131.000        1613.000                  
G32  22307822.880    22307822.695    22307826.082                    -8419359.329 8  -8419359.333 8                  -6560542.475 9       293.000         215.000         585.000                  
> 2024 10 31 07 12 50.0000000  0 10
G03  22965056.156    22965055.990    22965059.213                    -7128773.394 8  -7128773.392 8                  -5554890.350 8       212.000         125.000         466.000                  
G04  24257560.761    24257561.692    24257563.508                     2392972.175 7   2392972.170 6                   1864651.600 6        95.000          25.000          24.000                  
G11  25419264.105    25419260.575    25419262.669                     1695391.927 7   1695391.928 6                   1321079.764 6        72.000          21.000          25.000                  
G16  23621170.438    23621188.782    23621212.081                    -3399907.480 7  -3399907.483 6                  -2649099.056 6        93.000          15.000          16.000                  
G25  21706940.412    21706939.695    21706943.422                   -14116264.100 8 -14116264.096 8                 -10999687.993 8       239.000         140.000         429.000                  
G26  20409123.991    20409123.560    20409127.641                   -21945205.896 8 -21945205.896 9                 -17100161.916 9       496.000         579.000        1163.000                  
G28  19543018.076    19543017.814    19543018.369                   -27748034.573 9 -27748034.585 9                 -21621844.055 9       736.000         682.000         901.000                  
G29  21299635.150    21299634.565    21299635.189                   -19606841.321 8 -19606841.320 8                 -15278059.312 9       442.000         435.000         765.000                  
G31  19704690.557    19704690.256    19704689.933                   -25755104.270 9 -25755104.271 9                 -20068912.241 9       717.000        1136.000        1612.000                  
G32  22252021.981    22252021.974    22252025.661                    -8712593.638 8  -8712593.638 8                  -6789036.804 9       285.000         214.000         601.000                  
> 2024 10 31 07 13  0.0000000  0 10
G03  23009597.327    23009597.358    23009600.807                    -6894706.840 8  -6894706.842 8                  -5372500.891 8       205.000         108.000         436.000                  
G04  24315323.544    24315322.752    24315326.386                     2696514.869 7   2696514.878 6                   2101178.249 6        90.000          25.000          20.000                  
G11  25465439.046    25465434.918    25465438.957                     1938038.431 7   1938038.422 6                   1510154.865 6        63.000          25.000          18.000                  
G16  23586014.405    23586030.846    23586056.562                    -3584647.705 7  -3584647.685 6                  -2793064.659 6        97.000          20.000          19.000                  
G25  21727342.953    21727342.261    21727346.102                   -14009047.376 8 -14009047.377 8                 -10916142.523 8       242.000         145.000         437.000                  
G26  20390502.113    20390501.397    20390505.462                   -22043066.211 8 -22043066.210 9                 -17176416.735 9       490.000         559.000        1178.000                  
G28  19541276.122    19541275.938    19541276.412                   -27757188.311 9 -27757188.322 9                 -21628976.821 9       751.000         700.000         902.000                  
G29  21277477.298    21277476.768    21277477.595                   -19723280.815 8 -19723280.815 8                 -15368791.414 9       438.000         439.000         764.000                  
G31  19722894.532    19722894.374    19722894.099                   -25659440.907 9 -25659440.906 9                 -19994369.397 9       704.000        1104.000        1568.000                  
G32  22196543.127    22196542.515    22196546.312                    -9004140.539 8  -9004140.541 8                  -7016216.382 9       287.000         212.000         615.000                  
> 2024 10 31 07 13 10.0000000  0 10
G03  23054357.009    23054357.567    23054360.526                    -6659491.845 8  -6659491.848 7                  -5189216.554 8       198.000         100.000         421.000                  
G04  24373187.891    24373187.730    24373190.192                     3000594.725 7   3000594.753 6                   2338123.541 6        88.000          21.000          18.000                  
G11  25511968.462    25511968.130    25511970.502                     2182566.444 7   2182566.453 6                   1700695.916 6        63.000          21.000          17.000                  
G16  23551262.202    23551273.377    23551306.743                    -3767275.336 8  -3767275.316 6                  -2935364.746 6       102.000          19.000          18.000                  
G25  21748429.391    21748427.991    21748431.703                   -13898242.279 8 -13898242.283 8                 -10829800.917 8       237.000         140.000         442.000                  
G26  20372754.696    20372754.223    20372758.343                   -22136328.091 8 -22136328.090 9                 -17249088.344 9       493.000         584.000        1223.000                  
G28  19540404.821    19540404.481    19540405.074                   -27761767.705 9 -27761767.717 9                 -21632545.191 9       759.000         722.000         897.000                  
G29  21256323.002    21256322.243    21256322.955                   -19834449.195 8 -19834449.197 8                 -15455416.147 9       447.000         446.000         755.000                  
G31  19741908.796    19741908.575    19741908.294                   -25559520.662 9 -25559520.661 9                 -19916509.496 9       693.000        1064.000        1511.000                  
G32  22141396.445    22141396.052    22141400.019                    -9293936.917 8  -9293936.918 8                  -7242031.883 9       295.000         216.000         632.000                  
> 2024 10 31 07 13 20.0000000  0 10
G03  23099323.169    23099323.430    23099326.724                    -6423193.600 8  -6423193.599 8                  -5005088.117 8       192.000         103.000         389.000                  
G04  24431142.480    24431143.334    24431146.293                     3305151.039 7   3305151.066 6                   2575439.924 6        82.000          24.000          16.000                  
G11  25558846.681    25558844.122    25558845.559                     2428904.031 7   2428904.028 6                   1892645.228 6        65.000          18.000          22.000                  
G16  23516912.732    23516918.510    23516957.554                    -3947783.970 8  -3947783.988 6                  -3075991.734 6       105.000          23.000          18.000                  
G25  21770184.532    21770183.602    21770187.447                   -13783914.897 8 -13783914.901 8                 -10740714.691 8       235.000         138.000         451.000                  
G26  20355881.898    20355881.466    20355885.543                   -22224995.645 9 -22224995.643 9                 -17318179.948 9       502.000         585.000        1278.000                  
G28  19540397.200    19540396.843    19540397.459                   -27761807.723 9 -27761807.734 9                 -21632576.399 9       764.000         719.000         892.000                  
G29  21236169.779    21236169.398    21236169.978                   -19940353.590 8 -19940353.593 8                 -15537939.064 9       452.000         463.000         746.000                  
G31  19761723.321    19761722.889    19761722.773                   -25455395.368 9 -25455395.367 9                 -19835372.940 9       691.000        1063.000        1498.000                  
G32  22086584.030    22086583.346    22086587.166                    -9581980.477 8  -9581980.476 8                  -7466481.454 9       299.000         225.000         640.000                  
> 2024 10 31 07 13 30.0000000  0 10
G03  23144496.433    23144496.444    23144499.530                    -6185809.211 8  -6185809.219 7                  -4820113.344 8       187.000          87.000         373.000                  
G04  24489191.013    24489189.657    24489193.383                     3610191.242 7   3610191.242 6                   2813133.527 6        76.000          23.000          23.000                  
G11  25606064.933    25606064.246    25606066.719                     2677047.171 7   2677047.164 6                   2086002.418 6        59.000          15.000          19.000                  
G16  23482980.505    23482982.625    23483024.385                    -4126099.511 8  -4126099.517 6                  -3214889.707 6       109.000          21.000          19.000                  
G25  21792610.893    21792610.303    21792613.801                   -13666063.914 8 -13666063.916 8                 -10648882.778 8       226.000         127.000         449.000                  
G26  20339895.354    20339894.775    20339898.869                   -22309006.086 8 -22309006.086 9                 -17383642.629 9       498.000         579.000        1295.000                  
G28  19541259.453    19541259.209    19541259.726                   -27757276.430 9 -27757276.441 9                 -21629045.548 9       762.000         741.000         891.000                  
G29  21217029.901    21217029.457    21217030.108                   -20040934.524 8 -20040934.526 8                 -15616313.844 9       464.000         483.000         749.000                  
G31  19782340.903    19782340.526    19782340.301                   -25347049.727 9 -25347049.728 9                 -19750947.803 9       698.000        1089.000        1486.000                  
G32  22032117.629    22032117.453    22032121.182                    -9868201.166 8  -9868201.169 8                  -7689510.597 9       306.000         242.000         660.000                  
> 2024 10 31 07 13 40.0000000  0 10
G03  23189865.001    23189864.846    23189868.173                    -5947395.784 8  -5947395.786 7                  -4634336.712 8       181.000          89.000         356.000                  
G04  24547320.955    24547319.592    24547322.359                     3915662.830 7   3915662.825 6                   3051162.272 6        76.000          18.000          18.000                  
G11  25653617.765    25653614.877    25653619.603                     2926931.490 7   2926931.476 6                   2280717.216 6        60.000          21.000          20.000                  
G16  23449468.388    23449468.253    23449512.805                    -4302208.138 8  -4302208.137 6                  -3352056.231 6       117.000          20.000          15.000                  
G25  21815696.096    21815695.539    21815699.319                   -13544748.844 8 -13544748.841 8                 -10554351.557 8       221.000         126.000         449.000                  
G26  20324795.103    20324794.632    20324798.751                   -22388357.811 9 -22388357.812 9                 -17445475.144 9       508.000         613.000        1395.000                  
G28  19542985.956    19542985.818    19542986.329                   -27748203.075 9 -27748203.086 9                 -21621975.422 9       760.000         740.000         869.000                  
G29  21198902.639    21198902.323    21198902.978                   -20136193.990 8 -20136193.991 8                 -15690542.028 9       465.000         492.000         767.000                  
G31  19803752.899    19803752.392    19803752.106                   -25234529.454 9 -25234529.454 9                 -19663269.695 9       701.000        1084.000        1462.000                  
G32  21978000.749    21978000.345    21978004.061                   -10152588.850 8 -10152588.850 8                  -7911111.418 9       313.000         251.000         687.000                  
> 2024 10 31 07 13 50.0000000  0 10
G03  23235426.950    23235426.314    23235429.562                    -5707969.597 8  -5707969.594 7                  -4447770.916 8       177.000          75.000         331.000                  
G04  24605528.621    24605528.589    24605533.363                     4221554.037 7   4221554.035 6                   3289517.843 6        68.000          18.000          16.000                  
G11  25701495.183    25701493.398    25701500.050                     3178533.159 7   3178533.155 6                   2476768.308 6        57.000          27.000          19.000                  
G16  23416386.075    23416385.418    23416431.948                    -4476055.500 8  -4476055.482 6                  -3487461.792 6       120.000          21.000          18.000                  
G25  21839437.114    21839436.685    21839440.198                   -13419989.150 8 -13419989.150 8                 -10457136.199 8       215.000         114.000         428.000                  
G26  20310589.485    20310588.915    20310593.060                   -22463009.744 9 -22463009.743 9                 -17503645.533 9       526.000         645.000        1504.000                  
G28  19545579.123    19545578.802    19545579.227                   -27734577.374 9 -27734577.384 9                 -21611358.048 9       762.000         741.000         868.000                  
G29  21181795.054    21181794.879    21181795.357                   -20226094.821 8 -20226094.822 8                 -15760594.649 9       474.000         492.000         760.000                  
G31  19825957.799    19825957.694    19825957.311                   -25117840.448 9 -25117840.448 9                 -19572343.232 9       696.000        1068.000        1427.000                  
G32  21924241.881    21924241.705    21924245.373                   -10435092.567 8 -10435092.568 8                  -8131244.207 9       318.000         260.000         696.000                  
> 2024 10 31 07 14  0.0000000  0 10
G03  23281174.544    23281174.073    23281177.650                    -5467562.268 8  -5467562.267 7                  -4260440.593 8       174.000          83.000         303.000                  
G04  24663812.381    24663813.212    24663816.643                     4527838.425 7   4527838.446 6                   3528182.018 6        60.000          22.000          18.000                  
G11  25749695.030    25749690.820    25749695.373                     3431812.749 7   3431812.715 6                   2674127.871 6        55.000          22.000          18.000                  
G16  23383742.728    23383741.043    23383789.254                    -4647602.858 8  -4647602.860 6                  -3621069.322 6       120.000          24.000          18.000                  
G25  21863827.241    21863825.889    21863829.984                   -13291820.409 8 -13291820.406 8                 -10357264.475 8       215.000         114.000         411.000                  
G26  20297282.517    20297282.128    20297286.441                   -22532937.105 9 -22532937.105 9                 -17558134.427 9       525.000         646.000        1559.000                  
G28  19549037.162    19549036.825    19549037.344                   -27716405.344 9 -27716405.354 9                 -21597198.072 9       758.000         725.000         859.000                  
G29  21165711.622    21165710.813    21165711.460                   -20310616.788 8 -20310616.789 8                 -15826455.984 9       475.000         500.000         772.000                  
G31  19848952.353    19848951.923    19848951.729                   -24997004.771 9 -24997004.771 9                 -19478185.601 9       694.000        1053.000        1449.000                  
G32  21870848.540    21870848.183    21870851.903                   -10715676.648 8 -10715676.649 8                  -8349881.089 9       326.000         270.000         702.000                  
> 2024 10 31 07 14 10.0000000  0 10
G03  23327101.077    23327100.473    23327103.875                    -5226218.002 8  -5226217.997 7                  -4072380.196 8       170.000          79.000         285.000                  
G04  24722163.687    24722163.925    24722165.426                     4834475.449 7   4834475.459 6                   3767126.353 6        55.000          19.000          20.000                  
G11  25798200.994    25798197.460    25798202.311                     3686718.060 7   3686718.083 6                   2872755.403 6        53.000          23.000          20.000                  
G16  23351539.843    23351538.537    23351587.132                    -4816824.588 8  -4816824.593 6                  -3752870.559 6       122.000          25.000          18.000                  
G25  21888856.415    21888855.390    21888859.080                   -13160291.387 8 -13160291.387 8                 -10254774.360 8       217.000         115.000         396.000                  
G26  20284876.865    20284876.685    20284880.818                   -22598129.215 9 -22598129.215 9                 -17608933.525 9       539.000         676.000        1526.000                  
G28  19553356.464    19553356.143    19553356.704                   -27693706.876 9 -27693706.887 9                 -21579510.982 9       752.000         713.000         859.000                  
G29  21150652.105    21150651.652    21150652.336                   -20389753.715 8 -20389753.716 8                 -15888121.187 9       471.000         491.000         801.000                  
G31  19872728.697    19872728.457    19872728.335                   -24872058.326 9 -24872058.328 9                 -19380824.773 9       683.000        1024.000        1525.000                  
G32  21817824.582    21817824.553    21817828.144                   -10994318.477 8 -10994318.480 8                  -8567004.568 9       338.000         284.000         737.000                  
> 2024 10 31 07 14 20.0000000  0  9
G03  23373204.557    23373204.693    23373207.782                    -4983939.994 8  -4983939.988 7                  -3883592.212 8       163.000          67.000         281.000                  
G04  24780583.708    24780583.846    24780585.322                     5141466.992 7   5141466.962 6                   4006365.425 6        54.000          20.000          19.000                  
G16  23319793.176    23319790.963    23319841.607                    -4983654.344 8  -4983654.332 6                  -3882814.351 6       124.000          21.000          20.000                  
G25  21914522.863    21914522.464    21914525.945                   -13025410.619 8 -13025410.617 8                 -10149672.501 8       212.000         109.000         376.000                  
G26  20273382.280    20273381.715    20273385.814                   -22658535.591 9 -22658535.589 9                 -17656003.486 9       536.000         678.000        1443.000                  
G28  19558540.916    19558540.679    19558541.225                   -27666462.031 9 -27666462.041 9                 -21558281.231 9       739.000         691.000         849.000                  
G29  21136626.212    21136625.768    21136626.394                   -20463459.980 8 -20463459.982 8                 -15945554.632 9       472.000         490.000         793.000                  
G31  19897288.333    19897288.108    19897287.987                   -24742996.839 9 -24742996.840 9                 -19280257.419 9       676.000        1003.000        1539.000                  
G32  21765182.985    21765182.498    21765186.024                   -11270954.229 8 -11270954.231 8                  -8782564.871 9       354.000         317.000         756.000                  
> 2024 10 31 07 14 30.0000000  0  8
G03  23419474.089    23419474.354    23419477.411                    -4740792.342 8  -4740792.338 7                  -3694126.586 8       161.000          64.000         269.000                  
G04  24839059.203    24839058.257    24839060.882                     5448753.688 7   5448753.696 6                   4245829.683 6        52.000          20.000          20.000                  
G25  21940814.806    21940813.925    21940817.571                   -12887248.236 8 -12887248.235 8                 -10042013.561 8       218.000         114.000         373.000                  
G26  20262795.820    20262795.278    20262799.384                   -22714167.988 9 -22714167.987 9                 -17699353.480 9       527.000         654.000        1401.000                  
G28  19564582.603    19564582.325    19564583.001                   -27634713.147 9 -27634713.157 9                 -21533541.902 9       732.000         687.000         858.000                  
G29  21123630.630    21123630.010    21123630.748                   -20531752.902 8 -20531752.904 9                 -15998769.929 9       468.000         501.000         798.000                  
G31  19922620.018    19922619.849    19922619.689                   -24609877.759 9 -24609877.759 9                 -19176528.297 9       670.000         990.000        1556.000                  
G32  21712923.045    21712922.668    21712926.207                   -11545581.026 8 -11545581.027 8                  -8996559.688 9       366.000         339.000         786.000                  
> 2024 10 31 07 14 40.0000000  0  7
G03  23465908.534    23465908.875    23465912.174                    -4496776.933 8  -4496776.943 7                  -3503984.791 8       155.000          64.000         265.000                  
G25  21967728.796    21967728.211    21967731.899                   -12745812.823 8 -12745812.825 8                  -9931804.233 8       218.000         116.000         353.000                  
G26  20253127.005    20253126.607    20253130.734                   -22764977.201 9 -22764977.200 9                 -17738945.125 9       521.000         644.000        1375.000                  
G28  19571485.045    19571484.720    19571485.312                   -27598441.173 9 -27598441.181 9                 -21505278.067 9       722.000         664.000         847.000                  
G29  21111673.073    21111672.742    21111673.455                   -20594589.263 8 -20594589.264 9                 -16047733.404 9       472.000         501.000         794.000                  
G31  19948724.836    19948724.432    19948724.303                   -24472697.283 9 -24472697.283 9                 -19069634.463 9       652.000         940.000        1538.000                  
G32  21661057.886    21661057.527    21661061.042                   -11818134.201 8 -11818134.203 8                  -9208938.727 9       367.000         336.000         831.000                  
> 2024 10 31 07 14 50.0000000  0  8
G03  23512501.484    23512500.982    23512504.365                    -4251933.565 8  -4251933.574 7                  -3313197.857 8       149.000          63.000         256.000                  
G16  23227334.506    23227334.729    23227353.746                     -166439.681 8   -166439.678 6                   -129695.859 6       131.000          24.000          19.000                  
G25  21995257.185    21995256.564    21995260.132                   -12601151.494 8 -12601151.493 8                  -9819081.214 8       219.000         115.000         347.000                  
G26  20244378.047    20244377.611    20244381.852                   -22810953.420 9 -22810953.419 9                 -17774770.816 9       521.000         637.000        1320.000                  
G28  19579244.161    19579243.896    19579244.568                   -27557666.367 9 -27557666.375 9                 -21473505.549 9       714.000         648.000         813.000                  
G29  21100755.184    21100754.641    21100755.146                   -20651965.041 8 -20651965.043 8                 -16092441.919 9       475.000         494.000         790.000                  
G31  19975595.417    19975595.166    19975595.212                   -24331490.468 9 -24331490.468 9                 -18959603.219 9       631.000         880.000        1535.000                  
G32  21609592.208    21609591.678    21609595.567                   -12088586.816 8 -12088586.817 8                  -9419680.932 9       357.000         326.000         856.000                  
> 2024 10 31 07 15  0.0000000  0  8
G03  23559243.890    23559243.920    23559247.614                    -4006297.474 8  -4006297.469 7                  -3121793.230 8       143.000          62.000         240.000                  
G16  23197466.435    23197466.340    23197467.481                     -323391.205 8   -323391.185 6                   -251994.540 6       133.000          21.000          47.000                  
G25  22023391.413    22023390.125    22023393.923                   -12453307.502 8 -12453307.507 8                  -9703878.220 8       216.000         121.000         348.000                  
G26  20236551.382    20236550.870    20236555.111                   -22852083.508 9 -22852083.507 9                 -17806820.299 9       515.000         629.000        1307.000                  
G28  19587857.038    19587856.753    19587857.397                   -27512405.424 9 -27512405.430 9                 -21438237.299 9       708.000         652.000         799.000                  
G29  21090877.237    21090876.797    21090877.556                   -20703873.397 8 -20703873.398 9                 -16132890.106 9       478.000         504.000         807.000                  
G31  20003226.412    20003226.197    20003226.235                   -24186288.664 9 -24186288.664 9                 -18846459.006 9       616.000         838.000        1508.000                  
G32  21558532.489    21558532.077    21558535.781                   -12356907.670 8 -12356907.671 8                  -9628762.011 9       354.000         306.000         870.000                  
> 2024 10 31 07 15 10.0000000  0  8
G03  23606134.421    23606134.402    23606137.781                    -3759888.072 8  -3759888.071 6                  -2929786.019 8       144.000          50.000         228.000                  
G16  23168089.269    23168088.370    23168090.218                     -477769.795 8   -477769.791 6                   -372289.534 6       139.000          26.000          44.000                  
G25  22052125.323    22052124.414    22052128.080                   -12302308.998 8 -12302309.000 8                  -9586217.172 8       216.000         114.000         345.000                  
G26  20229652.121    20229651.509    20229655.763                   -22888339.967 9 -22888339.965 9                 -17835072.100 9       525.000         645.000        1277.000                  
G28  19597323.183    19597322.981    19597323.594                   -27462660.687 9 -27462660.693 9                 -21399475.191 9       711.000         647.000         771.000                  
G29  21082044.030    21082043.470    21082044.081                   -20750293.406 8 -20750293.408 9                 -16169061.579 9       492.000         528.000         781.000                  
G31  20031614.351    20031614.208    20031614.323                   -24037108.460 9 -24037108.461 9                 -18730214.759 9       610.000         831.000        1447.000                  
G32  21507887.159    21507886.872    21507890.492                   -12623049.968 8 -12623049.971 8                  -9836145.511 9       352.000         314.000         864.000                  
> 2024 10 31 07 15 20.0000000  0  8
G03  23653164.163    23653163.700    23653167.434                    -3512745.885 8  -3512745.887 7                  -2737207.779 8       139.000          52.000         232.000                  
G16  23139206.833    23139205.246    23139208.019                     -629549.017 8   -629549.010 6                   -490559.027 6       134.000          22.000          42.000                  
G25  22081450.406    22081449.322    22081453.146                   -12148205.764 8 -12148205.771 8                  -9466136.854 8       219.000         114.000         349.000                  
G26  20223681.069    20223680.514    20223684.627                   -22919717.850 9 -22919717.849 9                 -17859522.396 9       536.000         676.000        1218.000                  
G28  19607638.087    19607637.677    19607638.301                   -27408456.600 9 -27408456.606 9                 -21357238.291 9       706.000         638.000         748.000                  
G29  21074254.771    21074254.067    21074254.724                   -20791227.179 8 -20791227.180 9                 -16200958.064 9       499.000         540.000         818.000                  
G31  20060752.415    20060752.046    20060752.138                   -23883988.329 9 -23883988.329 9                 -18610900.423 9       606.000         808.000        1428.000                  
G32  21457661.151    21457660.941    21457664.532                   -12886988.161 8 -12886988.161 8                 -10041811.553 9       349.000         311.000         863.000                  
> 2024 10 31 07 15 30.0000000  0  8
G03  23700327.696    23700328.086    23700331.323                    -3264898.530 8  -3264898.521 6                  -2544080.029 8       137.000          50.000         214.000                  
G16  23110826.619    23110824.166    23110826.196                     -778690.209 8   -778690.205 6                   -606772.920 6       138.000          25.000          37.000                  
G25  22111358.880    22111357.926    22111361.796                   -11991035.236 8 -11991035.236 8                  -9343666.375 8       214.000         124.000         363.000                  
G26  20218641.551    20218641.035    20218645.043                   -22946200.703 9 -22946200.703 9                 -17880158.359 9       543.000         694.000        1212.000                  
G28  19618798.883    19618798.550    19618799.167                   -27349805.847 9 -27349805.851 9                 -21311536.459 9       698.000         624.000         728.000                  
G29  21067510.868    21067510.311    21067511.046                   -20826665.731 9 -20826665.733 9                 -16228572.584 9       503.000         565.000         848.000                  
G31  20090634.740    20090634.563    20090634.762                   -23726954.839 9 -23726954.839 9                 -18488536.720 9       603.000         813.000        1408.000                  
G32  21407861.704    21407861.567    21407865.409                   -13148683.842 8 -13148683.844 8                 -10245730.159 9       349.000         304.000         851.000                  
> 2024 10 31 07 15 40.0000000  0  8
G03  23747624.268    23747623.235    23747626.759                    -3016358.995 8  -3016358.999 6                  -2350412.896 8       133.000          49.000         203.000                  
G16  23082957.217    23082956.017    23082958.055                     -925140.390 8   -925140.394 6                   -720889.913 6       137.000          21.000          40.000                  
G25  22141847.053    22141845.783    22141849.747                   -11830821.020 8 -11830821.022 8                  -9218824.219 8       207.000         113.000         376.000                  
G26  20214539.242    20214538.664    20214542.714                   -22967758.842 9 -22967758.841 9                 -17896956.875 9       556.000         722.000        1267.000                  
G28  19630806.012    19630805.761    19630806.398                   -27286707.511 9 -27286707.515 9                 -21262368.955 9       687.000         607.000         711.000                  
G29  21061817.022    21061816.664    21061817.202                   -20856586.643 9 -20856586.645 9                 -16251887.553 9       517.000         580.000         870.000                  
G31  20121259.647    20121259.378    20121259.508                   -23566020.512 9 -23566020.511 9                 -18363133.400 9       607.000         813.000        1348.000                  
G32  21358499.715    21358499.234    21358502.964                   -13408084.259 8 -13408084.262 8                 -10447860.283 9       355.000         315.000         818.000                  
> 2024 10 31 07 15 50.0000000  0  8
G03  23795040.173    23795040.531    23795044.028                    -2767180.858 8  -2767180.848 6                  -2156248.159 8       130.000          45.000         197.000                  
G16  23055602.643    23055601.730    23055603.691                    -1068887.794 8  -1068887.781 6                   -832900.864 6       136.000          24.000          40.000                  
G25  22172901.138    22172900.409    22172904.424                   -11667627.644 8 -11667627.645 7                  -9091660.597 8       203.000         100.000         388.000                  
G26  20211371.541    20211371.090    20211375.186                   -22984404.606 9 -22984404.604 9                 -17909927.568 9       570.000         762.000        1374.000                  
G28  19643651.960    19643651.554    19643652.199                   -27219202.537 9 -27219202.542 9                 -21209767.696 9       677.000         586.000         689.000                  
G29  21057169.519    21057168.931    21057169.679                   -20881010.507 9 -20881010.507 9                 -16270919.098 9       521.000         599.000         924.000                  
G31  20152616.669    20152616.246    20152616.292                   -23401239.512 9 -23401239.511 9                 -18234732.675 9       605.000         815.000        1274.000                  
G32  21309576.508    21309576.221    21309579.682                   -13665177.422 8 -13665177.425 8                 -10648192.565 9       368.000         343.000         776.000                  
> 2024 10 31 07 16  0.0000000  0  8
G03  23842577.465    23842576.387    23842579.726                    -2517378.462 8  -2517378.464 6                  -1961596.985 8       125.000          43.000         194.000                  
G16  23028773.153    23028770.830    23028773.802                    -1209881.876 8  -1209881.873 6                   -942766.363 6       138.000          19.000          39.000                  
G25  22204518.362    22204516.996    22204521.197                   -11501480.990 8 -11501480.985 7                  -8962195.663 8       200.000          96.000         412.000                  
G26  20209143.518    20209143.056    20209147.298                   -22996112.521 9 -22996112.520 9                 -17919050.593 9       560.000         744.000        1441.000                  
G28  19657335.633    19657335.518    19657336.023                   -27147293.689 9 -27147293.690 9                 -21153734.834 9       668.000         574.000         685.000                  
G29  21053570.943    21053570.545    21053571.205                   -20899920.073 9 -20899920.075 9                 -16285653.762 9       513.000         593.000         955.000                  
G31  20184702.331    20184702.163    20184702.144                   -23232627.405 9 -23232627.405 9                 -18103346.684 9       614.000         835.000        1206.000                  
G32  21261102.081    21261101.771    21261105.208                   -13919912.276 8 -13919912.278 8                 -10846687.230 9       387.000         377.000         745.000                  
> 2024 10 31 07 16 10.0000000  0  8
G03  23890228.437    23890227.999    23890231.155                    -2266969.041 8  -2266969.039 6                  -1766472.834 8       125.000          39.000         196.000                  
G16  23002475.797    23002473.460    23002476.375                    -1348075.598 8  -1348075.601 6                  -1050449.791 6       143.000          28.000          46.000                  
G25  22236690.794    22236689.982    22236694.088                   -11332410.597 8 -11332410.593 7                  -8830452.492 8       199.000          96.000         419.000                  
G26  20207859.211    20207858.721    20207862.955                   -23002861.508 9 -23002861.506 9                 -17924309.521 9       554.000         726.000        1408.000                  
G28  19671856.339    19671855.931    19671856.555                   -27070987.865 9 -27070987.865 9                 -21094275.772 9       660.000         554.000         684.000                  
G29  21051024.227    21051023.813    21051024.538                   -20913302.790 9 -20913302.791 9                 -16296081.817 9       515.000         593.000         981.000                  
G31  20217513.721    20217513.422    20217513.356                   -23060203.623 9 -23060203.622 9                 -17968990.550 9       620.000         855.000        1162.000                  
G32  21213085.610    21213085.340    21213088.587                   -14172240.820 8 -14172240.823 8                 -11043306.832 9       408.000         422.000         718.000                  
> 2024 10 31 07 16 20.0000000  0  8
G03  23937984.656    23937984.498    23937987.885                    -2016006.178 8  -2016006.170 6                  -1570917.431 8       118.000          39.000         184.000                  
G16  22976712.886    22976711.482    22976713.135                    -1483458.894 8  -1483458.907 6                  -1155943.267 6       148.000          20.000          40.000                  
G25  22269407.125    22269406.823    22269410.864                   -11160482.775 8 -11160482.777 7                  -8696482.751 8       194.000          90.000         421.000                  
G26  20207515.548    20207514.948    20207519.009                   -23004668.315 9 -23004668.314 9                 -17925717.405 9       546.000         699.000        1400.000                  
G28  19687205.083    19687204.777    19687205.484                   -26990329.331 9 -26990329.332 9                 -21031424.986 9       648.000         545.000         681.000                  
G29  21049524.382    21049524.122    21049524.707                   -20921184.122 9 -20921184.123 9                 -16302223.096 9       505.000         566.000        1005.000                  
G31  20251039.643    20251039.166    20251039.128                   -22884024.745 9 -22884024.744 9                 -17831708.339 9       622.000         860.000        1165.000                  
G32  21165529.036    21165528.929    21165532.065                   -14422151.802 8 -14422151.803 8                 -11238042.618 9       433.000         479.000         696.000                  
> 2024 10 31 07 16 30.0000000  0  8
G03  23985843.900    23985844.431    23985847.348                    -1764503.996 8  -1764504.006 6                  -1374941.801 8       118.000          39.000         176.000                  
G16  22951493.875    22951492.868    22951495.636                    -1615982.794 8  -1615982.778 6                  -1259208.647 6       153.000          22.000          40.000                  
G25  22302662.923    22302662.321    22302666.302                   -10985724.984 8 -10985724.981 7                  -8560307.864 8       193.000          95.000         435.000                  
G26  20208115.820    20208115.562    20208119.711                   -23001511.705 9 -23001511.705 9                 -17923257.702 9       526.000         662.000        1365.000                  
G28  19703381.055    19703380.808    19703381.434                   -26905324.028 9 -26905324.027 9                 -20965187.105 9       644.000         531.000         665.000                  
G29  21049074.154    21049073.399    21049074.150                   -20923551.951 9 -20923551.953 9                 -16304068.156 9       502.000         570.000        1012.000                  
G31  20285276.289    20285276.060    20285276.093                   -22704108.736 9 -22704108.735 9                 -17691514.103 9       622.000         844.000        1189.000                  
G32  21118442.300    21118442.131    21118445.222                   -14669594.699 8 -14669594.701 9                 -11430855.228 9       465.000         543.000         677.000                  
> 2024 10 31 07 16 40.0000000  0  8
G03  24033802.313    24033802.925    24033806.211                    -1512478.936 8  -1512478.944 6                  -1178558.745 8       109.000          36.000         170.000                  
G16  22926829.195    22926827.512    22926829.400                    -1745601.436 8  -1745601.419 6                  -1360210.167 6       158.000          29.000          39.000                  
G25  22336451.767    22336450.566    22336454.383                   -10808167.367 8 -10808167.367 7                  -8421951.293 8       194.000          93.000         422.000                  
G26  20209664.505    20209664.104    20209668.172                   -22993374.249 9 -22993374.247 9                 -17916916.825 9       526.000         652.000        1310.000                  
G28  19720382.365    19720382.066    19720382.855                   -26815981.329 9 -26815981.328 9                 -20895569.444 9       646.000         546.000         661.000                  
G29  21049673.948    21049673.573    21049674.245                   -20920398.332 9 -20920398.334 9                 -16301610.797 9       502.000         565.000        1022.000                  
G31  20320220.287    20320220.137    20320220.200                   -22520476.575 9 -22520476.575 9                 -17548424.175 9       594.000         798.000        1171.000                  
G32  21071834.246    21071834.076    21071837.133                   -14914521.551 8 -14914521.552 9                 -11621707.263 9       492.000         618.000         676.000                  
> 2024 10 31 07 16 50.0000000  0  8
G03  24081850.518    24081850.802    24081854.326                    -1259984.165 7  -1259984.172 6                   -981809.682 8        99.000          33.000         155.000                  
G16  22902717.948    22902716.531    22902718.485                    -1872306.212 8  -1872306.223 6                  -1458941.156 6       161.000          29.000          41.000                  
G25  22370759.645    22370758.403    22370762.543                   -10627877.380 8 -10627877.383 7                  -8281465.621 8       197.000          94.000         428.000                  
G26  20212156.978    20212156.466    20212160.552                   -22980276.705 9 -22980276.703 9                 -17906710.952 9       515.000         633.000        1298.000                  
G28  19738200.246    19738200.051    19738200.591                   -26722348.388 9 -26722348.384 9                 -20822608.750 9       652.000         553.000         652.000                  
G29  21051319.246    21051318.598    21051319.252                   -20911753.644 8 -20911753.646 9                 -16294874.692 9       490.000         537.000        1018.000                  
G31  20355860.681    20355860.334    20355860.333                   -22333186.602 9 -22333186.602 9                 -17402484.001 9       581.000         748.000        1185.000                  
G32  21025707.252    21025706.973    21025709.853                   -15156921.419 9 -15156921.420 9                 -11810590.218 9       523.000         676.000         682.000                  
> 2024 10 31 07 17  0.0000000  0  8
G03  24129985.756    24129985.857    24129989.406                    -1007032.752 7  -1007032.771 6                   -784704.805 8        96.000          26.000         153.000                  
G16  22879171.293    22879168.913    22879170.654                    -1996048.890 8  -1996048.905 6                  -1555364.019 6       160.000          31.000          40.000                  
G25  22405582.013    22405581.082    22405585.178                   -10444882.800 8 -10444882.803 7                  -8138872.481 8       194.000          92.000         425.000                  
G26  20215596.399    20215596.005    20215600.275                   -22962201.241 9 -22962201.242 9                 -17892626.182 9       504.000         604.000        1283.000                  
G28  19756832.952    19756832.652    19756833.255                   -26624433.277 9 -26624433.273 9                 -20746311.291 9       657.000         554.000         643.000                  
G29  21054010.558    21054009.980    21054010.792                   -20897610.050 8 -20897610.052 9                 -16283853.727 9       480.000         518.000        1012.000                  
G31  20392193.248    20392192.831    20392192.963                   -22142257.923 9 -22142257.923 9                 -17253708.469 9       571.000         726.000        1195.000                  
G32  20980070.499    20980070.241    20980073.289                   -15396743.583 9 -15396743.585 9                 -11997464.576 9       547.000         752.000         713.000                  
> 2024 10 31 07 17 10.0000000  0  8
G03  24178206.541    24178204.454    24178208.216                     -753641.232 7   -753641.236 6                   -587256.992 8        96.000          27.000         153.000                  
G16  22856194.669    22856193.800    22856195.149                    -2116785.523 8  -2116785.518 6                  -1649444.523 6       162.000          34.000          41.000                  
G25  22440913.072    22440912.552    22440916.487                   -10259215.343 8 -10259215.350 7                  -7994196.589 8       189.000          94.000         404.000                  
G26  20219985.837    20219985.382    20219989.589                   -22939135.020 9 -22939135.019 9                 -17874652.510 9       503.000         601.000        1220.000                  
G28  19776277.977    19776277.768    19776278.308                   -26522248.553 9 -26522248.548 9                 -20666686.810 9       657.000         563.000         627.000                  
G29  21057748.922    21057748.345    21057749.126                   -20877964.938 8 -20877964.938 9                 -16268545.867 9       476.000         512.000        1004.000                  
G31  20429213.668    20429213.389    20429213.472                   -21947713.846 9 -21947713.845 9                 -17102115.743 9       545.000         658.000        1210.000                  
G32  20934933.423    20934933.013    20934936.077                   -15633941.031 9 -15633941.032 9                 -12182293.693 9       575.000         838.000         762.000                  
> 2024 10 31 07 17 20.0000000  0  8
G03  24226497.604    24226497.179    24226501.447                     -499862.065 7   -499862.071 6                   -389507.117 8        91.000          32.000         139.000                  
G16  22833792.955    22833791.788    22833793.090                    -2234508.770 8  -2234508.765 6                  -1741176.900 6       166.000          29.000          48.000                  
G25  22476740.712    22476739.479    22476743.568                   -10070943.149 8 -10070943.151 7                  -7847491.031 8       185.000          83.000         398.000                  
G26  20225320.328    20225319.776    20225323.928                   -22911102.609 9 -22911102.607 9                 -17852809.089 9       505.000         616.000        1168.000                  
G28  19796526.124    19796525.885    19796526.444                   -26415843.943 9 -26415843.938 9                 -20583774.121 9       659.000         552.000         619.000                  
G29  21062527.582    21062526.929    21062527.628                   -20852853.314 8 -20852853.315 9                 -16248978.384 9       475.000         502.000         992.000                  
G31  20466910.890    20466910.509    20466910.578                   -21749614.296 9 -21749614.296 9                 -16947752.513 9       535.000         639.000        1201.000                  
G32  20890297.513    20890297.315    20890300.364                   -15868503.073 9 -15868503.074 9                 -12365069.271 9       604.000         922.000         812.000                  
> 2024 10 31 07 17 30.0000000  0  8
G03  24274862.362    24274861.344    24274865.100                     -245707.928 7   -245707.918 6                   -191465.061 8        89.000          30.000         138.000                  
G16  22811973.833    22811971.730    22811973.397                    -2349172.285 8  -2349172.300 6                  -1830525.106 6       171.000          27.000          45.000                  
G25  22513057.418    22513056.943    22513060.770                    -9880094.931 8  -9880094.930 7                  -7698778.192 8       183.000          82.000         377.000                  
G26  20231602.436    20231601.846    20231605.933                   -22878090.317 9 -22878090.316 9                 -17827085.247 9       508.000         617.000        1111.000                  
G28  19817575.132    19817574.914    19817575.466                   -26305230.359 9 -26305230.352 9                 -20497581.749 9       652.000         545.000         595.000                  
G29  21068347.029    21068346.463    21068347.173                   -20822272.182 8 -20822272.183 8                 -16225148.946 9       467.000         486.000         996.000                  
G31  20505280.453    20505280.223    20505280.429                   -21547980.107 9 -21547980.106 9                 -16790635.019 9       529.000         627.000        1176.000                  
G32  20846172.919    20846172.682    20846175.790                   -16100379.504 9 -16100379.504 9                 -12545752.167 9       627.000         999.000         847.000                  
> 2024 10 31 07 17 40.0000000  0  8
G03  24323294.496    24323294.383    24323297.637                        8805.977 7      8805.989 6                      6857.320 8        88.000          29.000         134.000                  
G16  22790744.398    22790742.342    22790744.512                    -2460732.842 8  -2460732.838 6                  -1917455.428 6       172.000          37.000          44.000                  
G25  22549859.501    22549858.244    22549862.188                    -9686702.427 8  -9686702.420 7                  -7548082.793 8       180.000          82.000         365.000                  
G26  20238834.162    20238833.333    20238837.522                   -22840088.445 9 -22840088.443 9                 -17797473.423 9       511.000         624.000        1136.000                  
G28  19839422.632    19839422.211    19839422.740                   -26190422.120 9 -26190422.114 9                 -20408120.833 9       638.000         533.000         578.000                  
G29  21075206.967    21075206.417    21075207.202                   -20786222.797 8 -20786222.800 8                 -16197058.535 9       465.000         492.000        1018.000                  
G31  20544318.826    20544318.017    20544318.247                   -21342835.268 9 -21342835.270 9                 -16630781.957 9       527.000         606.000        1166.000                  
G32  20802568.259    20802568.073    20802571.224                   -16329522.960 9 -16329522.961 9                 -12724305.482 9       647.000        1037.000         884.000                  
> 2024 10 31 07 17 50.0000000  0  8
G03  24371786.270    24371786.576    24371789.439                      263632.205 7    263632.220 6                    205423.069 8        88.000          31.000         129.000                  
G16  22770106.998    22770106.097    22770107.709                    -2569180.234 8  -2569180.218 6                  -2001959.884 6       168.000          33.000          43.000                  
G25  22587132.981    22587131.715    22587135.626                    -9490829.979 8  -9490829.981 7                  -7395454.985 8       175.000          77.000         334.000                  
G26  20247010.309    20247009.907    20247014.112                   -22797121.070 9 -22797121.070 9                 -17763992.380 9       513.000         626.000        1213.000                  
G28  19862059.093    19862058.673    19862059.195                   -26071466.823 9 -26071466.817 9                 -20315428.449 9       633.000         505.000         571.000                  
G29  21083100.646    21083100.181    21083100.988                   -20744740.391 8 -20744740.391 8                 -16164734.607 9       458.000         478.000         996.000                  
G31  20584013.430    20584013.146    20584013.228                   -21134236.667 9 -21134236.667 9                 -16468237.658 9       530.000         613.000        1119.000                  
G32  20759486.591    20759486.228    20759489.539                   -16555918.736 9 -16555918.737 9                 -12900717.764 9       659.000        1094.000         923.000                  
> 2024 10 31 07 18  0.0000000  0  8
G03  24420333.578    24420333.395    24420337.130                      518749.680 7    518749.675 6                    404215.771 8        82.000          25.000         115.000                  
G16  22750070.022    22750067.924    22750069.478                    -2674478.606 8  -2674478.609 6                  -2084010.586 6       171.000          32.000          37.000                  
G25  22624870.984    22624869.632    22624873.389                    -9292515.969 8  -9292515.971 7                  -7240924.657 8       169.000          70.000         335.000                  
G26  20256131.674    20256131.355    20256135.629                   -22749187.431 9 -22749187.431 9                 -17726641.521 9       501.000         595.000        1252.000                  
G28  19885480.234    19885480.002    19885480.742                   -25948386.663 9 -25948386.653 9                 -20219521.851 9       628.000         505.000         565.000                  
G29  21092026.457    21092025.886    21092026.692                   -20697835.680 8 -20697835.680 8                 -16128185.515 9       457.000         469.000        1010.000                  
G31  20624359.915    20624359.438    20624359.521                   -20922215.552 9 -20922215.553 9                 -16303026.466 9       531.000         633.000        1047.000                  
G32  20716935.552    20716935.116    20716938.446                   -16779526.101 9 -16779526.102 9                 -13074957.261 9       674.000        1142.000         977.000                  
> 2024 10 31 07 18 10.0000000  0  8
G03  24468936.404    24468934.074    24468937.416                      774147.628 7    774147.634 6                    603227.000 8        85.000          39.000         112.000                  
G16  22730639.949    22730638.011    22730639.873                    -2776582.408 8  -2776582.416 6                  -2163572.028 6       174.000          27.000          42.000                  
G25  22663068.082    22663066.537    22663070.796                    -9091788.847 8  -9091788.853 7                  -7084513.990 8       164.000          73.000         328.000                  
G26  20266200.052    20266199.711    20266203.985                   -22696277.919 8 -22696277.918 9                 -17685413.359 9       498.000         587.000        1270.000                  
G28  19909684.344    19909683.928    19909684.563                   -25821194.625 9 -25821194.618 8                 -20120411.222 9       627.000         496.000         589.000                  
G29  21101983.443    21101983.010    21101983.850                   -20645510.592 8 -20645510.593 8                 -16087412.756 9       449.000         447.000        1005.000                  
G31  20665353.295    20665353.032    20665353.000                   -20706793.472 9 -20706793.472 9                 -16135165.171 9       554.000         668.000         981.000                  
G32  20674924.675    20674924.412    20674927.544                   -17000294.388 9 -17000294.390 9                 -13246984.487 9       700.000        1239.000        1006.000                  
> 2024 10 31 07 18 20.0000000  0  8
G03  24517578.217    24517578.470    24517583.275                     1029779.555 7   1029779.540 6                    802420.551 8        84.000          25.000         104.000                  
G16  22711819.354    22711818.221    22711819.818                    -2875482.957 8  -2875482.945 6                  -2240637.419 6       170.000          28.000          42.000                  
G25  22701711.887    22701710.794    22701714.698                    -8888713.147 8  -8888713.148 7                  -6926273.261 8       160.000          63.000         320.000                  
G26  20277210.032    20277209.690    20277213.978                   -22638420.154 8 -22638420.155 9                 -17640329.420 9       486.000         552.000        1278.000                  
G28  19934660.881    19934660.972    19934661.527                   -25689940.165 9 -25689940.157 8                 -20018135.044 9       618.000         481.000         578.000                  
G29  21112964.598    21112964.077    21112964.972                   -20587804.662 8 -20587804.662 8                 -16042447.136 9       435.000         423.000         968.000                  
G31  20706983.226    20706982.900    20706982.760                   -20488028.216 9 -20488028.215 9                 -15964698.807 9       572.000         727.000         914.000                  
G32  20633456.893    20633456.668    20633459.758                   -17218209.040 9 -17218209.042 9                 -13416788.101 9       721.000        1303.000         999.000                  
> 2024 10 31 07 18 30.0000000  0  8
G03  24566265.435    24566264.296    24566268.999                     1285624.993 7   1285625.014 6                   1001780.472 7        77.000          26.000          99.000                  
G16  22693615.660    22693614.246    22693616.316                    -2971146.116 8  -2971146.113 6                  -2315180.170 6       170.000          32.000          41.000                  
G25  22740795.717    22740794.411    22740798.514                    -8683327.733 8  -8683327.749 7                  -6766232.757 8       158.000          67.000         314.000                  
G26  20289161.069    20289160.672    20289164.950                   -22575617.254 8 -22575617.253 9                 -17591392.126 9       476.000         538.000        1276.000                  
G28  19960406.249    19960406.135    19960406.822                   -25554647.847 9 -25554647.838 8                 -19912712.477 9       614.000         479.000         583.000                  
G29  21124966.807    21124966.177    21124967.154                   -20524733.063 8 -20524733.064 8                 -15993300.476 9       436.000         420.000         968.000                  
G31  20749242.839    20749242.446    20749242.461                   -20265952.239 9 -20265952.239 9                 -15791652.656 9       575.000         735.000         854.000                  
G32  20592539.917    20592539.446    20592542.586                   -17433230.023 9 -17433230.025 9                 -13584336.939 9       734.000        1344.000        1030.000                  
> 2024 10 31 07 18 40.0000000  0  8
G03  24614989.973    24614989.934    24614993.026                     1541673.928 7   1541673.926 6                   1201298.946 7        81.000          25.000          99.000                  
G16  22676035.529    22676033.943    22676036.736                    -3063528.122 8  -3063528.111 6                  -2387166.203 6       172.000          35.000          40.000                  
G25  22780312.756    22780311.972    22780316.238                    -8475661.390 8  -8475661.379 7                  -6604414.900 8       153.000          62.000         317.000                  
G26  20302054.346    20302053.860    20302058.161                   -22507863.349 8 -22507863.348 9                 -17538596.912 9       477.000         535.000        1298.000                  
G28  19986917.346    19986917.004    19986917.656                   -25415332.628 9 -25415332.619 8                 -19804155.195 9       611.000         472.000         579.000                  
G29  21137988.736    21137988.270    21137989.091                   -20456302.203 8 -20456302.204 8                 -15939977.769 9       431.000         415.000         943.000                  
G31  20792128.358    20792127.856    20792127.800                   -20040588.144 9 -20040588.144 9                 -15616044.337 9       563.000         699.000         787.000                  
G32  20552182.752    20552182.645    20552185.665                   -17645307.072 9 -17645307.074 9                 -13749591.801 9       753.000        1426.000        1095.000                  
> 2024 10 31 07 18 50.0000000  0  8
G03  24663745.461    24663744.180    24663748.286                     1797880.340 7   1797880.351 6                   1400940.119 7        80.000          27.000          94.000                  
G16  22659082.337    22659080.056    22659081.894                    -3152621.993 8  -3152621.990 6                  -2456590.035 6       175.000          31.000          45.000                  
G25  22820251.317    22820251.357    22820255.479                    -8265779.148 8  -8265779.140 7                  -6440870.377 8       153.000          58.000         313.000                  
G26  20315883.710    20315883.205    20315887.563                   -22435190.057 8 -22435190.056 9                 -17481968.409 9       479.000         539.000        1305.000                  
G28  20014183.795    20014183.518    20014184.258                   -25272046.323 9 -25272046.315 8                 -19692503.564 9       610.000         459.000         569.000                  
G29  21152022.324    21152021.727    21152022.478                   -20382556.034 8 -20382556.034 8                 -15882513.267 9       432.000         418.000         910.000                  
G31  20835628.190    20835627.717    20835627.679                   -19811995.017 9 -19811995.016 9                 -15437919.888 9       555.000         693.000         716.000                  
G32  20512388.796    20512388.573    20512391.649                   -17854426.431 9 -17854426.432 9                 -13912541.960 9       770.000        1481.000        1175.000                  
> 2024 10 31 07 19  0.0000000  0  8
G03  24712526.044    24712524.389    24712529.161                     2054224.371 7   2054224.363 6                   1600688.537 7        78.000          27.000          82.000                  
G16  22642759.604    22642758.456    22642760.052                    -3238395.486 8  -3238395.497 6                  -2523426.576 6       178.000          31.000          43.000                  
G25  22860604.782    22860604.739    22860609.043                    -8053720.255 8  -8053720.259 7                  -6275629.772 8       151.000          58.000         312.000                  
G26  20330647.962    20330647.288    20330651.558                   -22357604.287 8 -22357604.287 9                 -17421512.005 9       484.000         558.000        1296.000                  
G28  20042200.826    20042200.618    20042201.276                   -25124815.508 9 -25124815.501 8                 -19577778.300 9       604.000         464.000         556.000                  
G29  21167063.646    21167063.004    21167063.751                   -20303513.991 8 -20303513.994 8                 -15820922.107 9       435.000         424.000         877.000                  
G31  20879735.958    20879735.614    20879735.716                   -19580206.371 9 -19580206.372 9                 -15257305.427 9       540.000         647.000         672.000                  
G32  20473164.900    20473164.798    20473167.875                   -18060548.577 9 -18060548.578 9                 -14073156.591 9       770.000        1491.000        1264.000                  
> 2024 10 31 07 19 10.0000000  0  8
G03  24761328.650    24761329.908    24761334.062                     2310696.825 7   2310696.838 6                   1800536.997 7        75.000          20.000          75.000                  
G16  22627077.752    22627075.996    22627078.212                    -3320806.459 8  -3320806.456 6                  -2587642.949 6       182.000          30.000          46.000                  
G25  22901368.335    22901367.060    22901371.398                    -7839513.567 8  -7839513.580 7                  -6108715.565 8       153.000          53.000         310.000                  
G26  20346347.329    20346346.767    20346350.924                   -22275103.770 8 -22275103.769 9                 -17357225.937 9       487.000         565.000        1243.000                  
G28  20070965.326    20070965.068    20070965.860                   -24973656.924 9 -24973656.918 8                 -19459992.432 9       599.000         454.000         547.000                  
G29  21183110.545    21183109.848    21183110.610                   -20219186.586 8 -20219186.588 8                 -15755212.491 9       441.000         439.000         843.000                  
G31  20924447.611    20924447.194    20924447.290                   -19345245.676 9 -19345245.677 9                 -15074219.239 9       522.000         601.000         650.000                  
G32  20434521.057    20434520.779    20434523.901                   -18263624.002 9 -18263624.003 9                 -14231397.171 9       761.000        1453.000        1322.000                  
> 2024 10 31 07 19 20.0000000  0  8
G03  24810148.876    24810150.653    24810154.209                     2567245.772 7   2567245.785 6                   2000445.039 7        80.000          28.000          72.000                  
G16  22612034.722    22612033.255    22612035.479                    -3399856.440 8  -3399856.444 6                  -2649240.384 6       186.000          36.000          45.000                  
G25  22942525.209    22942524.453    22942528.677                    -7623230.961 8  -7623230.951 7                  -5940183.758 8       156.000          61.000         300.000                  
G26  20362973.752    20362973.339    20362977.499                   -22187730.412 8 -22187730.412 9                 -17289142.854 9       494.000         578.000        1131.000                  
G28  20100466.177    20100465.616    20100466.357                   -24818630.903 9 -24818630.895 8                 -19339192.967 9       593.000         443.000         532.000                  
G29  21200152.805    21200152.300    21200153.190                   -20129628.583 8 -20129628.586 8                 -15685427.087 9       447.000         440.000         851.000                  
G31  20969749.723    20969749.706    20969749.940                   -19107179.421 9 -19107179.423 9                 -14888713.136 9       506.000         573.000         610.000                  
G32  20396458.106    20396457.774    20396460.931                   -18463646.225 9 -18463646.226 9                 -14387258.640 9       744.000        1390.000        1423.000                  
> 2024 10 31 07 19 30.0000000  0  9
G03  24858985.823    24858986.512    24858990.324                     2823881.427 7   2823881.438 6                   2200420.643 7        81.000          27.000          67.000                  
G16  22597643.136    22597642.000    22597643.636                    -3475485.657 8  -3475485.653 6                  -2708172.284 6       194.000          33.000          47.000                  
G18  25065728.992    25065730.260    25065754.233                     -454471.497 7   -454471.511 6                   -354136.894 6        82.000          26.000          18.000                  
G25  22984075.188    22984074.972    22984079.094                    -7404882.460 8  -7404882.461 7                  -5770042.173 8       156.000          56.000         287.000                  
G26  20380531.285    20380530.754    20380534.882                   -22095465.445 8 -22095465.446 9                 -17217248.126 9       492.000         573.000        1036.000                  
G28  20130702.742    20130702.277    20130703.035                   -24659736.612 9 -24659736.602 8                 -19215379.317 9       590.000         429.000         515.000                  
G29  21218191.543    21218191.126    21218192.003                   -20034834.065 8 -20034834.065 8                 -15611561.283 9       448.000         452.000         847.000                  
G31  21015642.787    21015642.288    21015642.517                   -18866012.687 8 -18866012.688 9                 -14700791.079 9       497.000         549.000         602.000                  
G32  20358989.043    20358988.765    20358991.998                   -18660547.176 9 -18660547.177 9                 -14540687.942 9       725.000        1324.000        1521.000                  
> 2024 10 31 07 19 40.0000000  0  9
G03  24907828.877    24907827.987    24907831.162                     3080540.486 7   3080540.460 6                   2400414.479 7        80.000          25.000          64.000                  
G16  22583899.865    22583898.566    22583899.973                    -3547708.814 8  -3547708.818 6                  -2764450.128 6       198.000          33.000          47.000                  
G18  25006672.591    25006673.425    25006675.785                     -764802.908 7   -764802.882 6                   -595950.540 6        92.000          22.000          28.000                  
G25  23026003.739    23026002.149    23026006.780                    -7184551.856 8  -7184551.857 7                  -5598356.093 8       151.000          57.000         283.000                  
G26  20399008.975    20399008.413    20399012.665                   -21998365.047 8 -21998365.045 9                 -17141585.532 9       499.000         581.000        1031.000                  
G28  20161661.342    20161661.147    20161661.731                   -24497047.280 9 -24497047.275 8                 -19088608.477 8       587.000         427.000         500.000                  
G29  21237213.581    21237213.262    21237214.120                   -19934872.730 8 -19934872.731 8                 -15533669.389 9       455.000         460.000         827.000                  
G31  21062110.032    21062109.852    21062110.224                   -18621824.463 8 -18621824.461 9                 -14510514.616 9       479.000         515.000         603.000                  
G32  20322112.730    20322112.412    20322115.828                   -18854332.794 9 -18854332.796 9                 -14691689.714 9       708.000        1264.000        1656.000                  
> 2024 10 31 07 19 50.0000000  0  9
G03  24956674.979    24956673.977    24956677.345                     3337227.098 7   3337227.087 6                   2600429.778 7        76.000          31.000          59.000                  
G16  22570813.798    22570812.965    22570814.532                    -3616474.097 8  -3616474.121 6                  -2818033.538 6       194.000          30.000          43.000                  
G18  24947943.934    24947943.894    24947945.303                    -1073424.803 7  -1073424.774 6                   -836435.057 6        95.000          27.000          32.000                  
G25  23068304.939    23068304.105    23068308.509                    -6962255.750 8  -6962255.759 7                  -5425138.463 8       152.000          58.000         262.000                  
G26  20418408.832    20418408.172    20418412.262                   -21896419.347 8 -21896419.346 9                 -17062147.382 9       497.000         577.000        1003.000                  
G28  20193341.018    20193340.683    20193341.457                   -24330569.674 9 -24330569.667 8                 -18958885.747 8       583.000         420.000         482.000                  
G29  21257218.455    21257217.771    21257218.787                   -19829747.922 8 -19829747.924 8                 -15451754.012 9       447.000         453.000         813.000                  
G31  21109150.286    21109150.034    21109150.539                   -18374626.731 8 -18374626.733 8                 -14317893.093 9       463.000         477.000         600.000                  
G32  20285840.928    20285840.703    20285844.060                   -19044942.125 9 -19044942.127 9                 -14840216.459 9       704.000        1231.000        1766.000                  
> 2024 10 31 07 20  0.0000000  0  9
G03  25005517.827    25005518.120    25005522.479                     3593907.276 7   3593907.278 6                   2800440.041 7        75.000          24.000          58.000                  
G16  22558389.124    22558387.310    22558389.605                    -3681768.624 8  -3681768.613 6                  -2868912.443 6       197.000          28.000          48.000                  
G18  24889547.598    24889547.072    24889550.330                    -1380299.937 7  -1380299.952 6                  -1075558.524 6       100.000          28.000          26.000                  
G25  23110970.250    23110969.186    23110973.710                    -6738049.013 8  -6738049.009 7                  -5250432.028 8       149.000          55.000         249.000                  
G26  20438724.752    20438724.102    20438728.390                   -21789657.972 8 -21789657.972 9                 -16978956.758 9       491.000         574.000         979.000                  
G28  20225733.034    20225732.748    20225733.415                   -24160349.325 9 -24160349.319 8                 -18826246.593 8       581.000         420.000         488.000                  
G29  21278197.331    21278196.850    21278197.771                   -19719502.639 8 -19719502.640 8                 -15365848.653 9       445.000         442.000         804.000                  
G31  21156753.498    21156753.404    21156753.842                   -18124470.037 8 -18124470.037 8                 -14122965.878 9       441.000         436.000         575.000                  
G32  20250177.886    20250177.618    20250181.086                   -19232352.855 9 -19232352.858 9                 -14986250.805 9       708.000        1254.000        1934.000                  
> 2024 10 31 07 20 10.0000000  0  9
G03  25054356.496    25054355.659    25054360.735                     3850551.690 7   3850551.712 6                   3000422.392 7        74.000          27.000          59.000                  
G16  22546627.543    22546626.241    22546627.956                    -3743575.788 8  -3743575.804 6                  -2917073.935 7       194.000          41.000          52.000                  
G18  24831492.127    24831490.965    24831494.610                    -1685386.648 8  -1685386.654 6                  -1313288.368 6       107.000          23.000          29.000                  
G25  23153989.571    23153988.366    23153992.792                    -6511982.211 8  -6511982.210 7                  -5074276.198 8       147.000          56.000         231.000                  
G26  20459952.008    20459951.634    20459955.837                   -21678107.365 8 -21678107.363 9                 -16892034.265 9       490.000         560.000         996.000                  
G28  20258829.028    20258828.817    20258829.787                   -23986427.974 9 -23986427.968 8                 -18690723.546 8       585.000         436.000         485.000                  
G29  21300143.311    21300142.705    21300143.632                   -19604176.785 8 -19604176.788 8                 -15275984.416 9       436.000         431.000         772.000                  
G31  21204911.055    21204910.753    21204911.313                   -17871400.932 8 -17871400.931 8                 -13925769.254 9       410.000         376.000         552.000                  
G32  20215128.355    20215128.223    20215131.758                   -19416538.552 9 -19416538.555 9                 -15129772.132 9       712.000        1281.000        2007.000                  
> 2024 10 31 07 20 20.0000000  0  9
G03  25103187.361    25103185.856    25103190.375                     4107152.950 7   4107152.937 6                   3200371.115 7        68.000          23.000          55.000                  
G16  22535536.951    22535535.179    22535536.908                    -3801858.036 8  -3801858.042 6                  -2962488.747 6       192.000          43.000          47.000                  
G18  24773788.723    24773787.392    24773790.811                    -1988621.571 8  -1988621.569 6                  -1549575.307 6       110.000          29.000          32.000                  
G25  23197357.106    23197355.936    23197360.303                    -6284084.170 8  -6284084.177 6                  -4896693.431 8       142.000          48.000         198.000                  
G26  20482089.857    20482089.407    20482093.453                   -21561773.399 8 -21561773.398 9                 -16801384.482 9       491.000         569.000         965.000                  
G28  20292625.719    20292625.423    20292626.414                   -23808826.178 9 -23808826.173 8                 -18552332.639 8       581.000         423.000         486.000                  
G29  21323052.115    21323051.557    21323052.491                   -19483789.869 8 -19483789.870 8                 -15182176.493 9       428.000         415.000         747.000                  
G31  21253617.863    21253617.686    21253618.355                   -17615444.381 8 -17615444.381 8                 -13726322.681 9       380.000         323.000         549.000                  
G32  20180701.970    20180701.630    20180705.124                   -19597451.448 9 -19597451.449 9                 -15270743.214 9       734.000        1355.000        2047.000                  
> 2024 10 31 07 20 30.0000000  0  9
G03  25152001.728    25152001.363    25152005.642                     4363677.493 7   4363677.515 6                   3400260.026 7        66.000          19.000          51.000                  
G16  22525118.931    22525117.429    22525119.925                    -3856604.838 8  -3856604.840 6                  -3005148.665 6       192.000          36.000          46.000                  
G18  24716444.135    24716443.607    24716445.831                    -2289967.609 8  -2289967.585 6                  -1784390.377 6       113.000          25.000          26.000                  
G25  23241062.973    23241061.863    23241066.054                    -6054409.981 8  -6054409.973 6                  -4717726.662 8       142.000          49.000         190.000                  
G26  20505131.159    20505130.814    20505135.105                   -21440689.404 8 -21440689.403 9                 -16707033.384 9       478.000         534.000         980.000                  
G28  20327113.616    20327113.436    20327114.401                   -23627591.192 9 -23627591.187 8                 -18411110.650 8       579.000         417.000         486.000                  
G29  21346915.047    21346914.797    21346915.569                   -19358388.853 8 -19358388.855 8                 -15084461.479 9       419.000         391.000         728.000                  
G31  21302864.832    21302864.573    21302865.020                   -17356651.661 8 -17356651.662 8                 -13524666.112 9       367.000         305.000         557.000                  
G32  20146902.243    20146901.925    20146905.365                   -19775070.504 9 -19775070.506 9                 -15409147.664 9       760.000        1454.000        2099.000                  
> 2024 10 31 07 20 40.0000000  0  9
G03  25200794.546    25200795.896    25200800.672                     4620096.820 7   4620096.816 6                   3600066.922 6        63.000          24.000          48.000                  
G16  22515376.293    22515374.696    22515376.885                    -3907801.718 8  -3907801.729 6                  -3045042.398 6       193.000          34.000          50.000                  
G18  24659467.495    24659466.839    24659469.349                    -2589382.925 8  -2589382.944 6                  -2017700.967 6       118.000          29.000          30.000                  
G25  23285096.711    23285095.577    23285100.128                    -5823009.952 8  -5823009.949 6                  -4537415.082 8       133.000          46.000         171.000                  
G26  20529071.238    20529070.683    20529074.954                   -21314885.051 8 -21314885.050 9                 -16609004.086 9       470.000         519.000        1007.000                  
G28  20362284.828    20362284.577    20362285.460                   -23442766.066 9 -23442766.060 8                 -18267091.131 8       577.000         409.000         481.000                  
G29  21371724.024    21371723.634    21371724.576                   -19228017.153 8 -19228017.155 8                 -14982873.208 9       415.000         384.000         693.000                  
G31  21352641.961    21352641.969    21352642.583                   -17095069.373 8 -17095069.375 8                 -13320835.855 9       361.000         290.000         554.000                  
G32  20113733.992    20113733.827    20113737.245                   -19949370.268 9 -19949370.269 9                 -15544965.672 9       791.000        1566.000        2078.000                  
> 2024 10 31 07 20 50.0000000  0  9
G03  25249570.666    25249570.577    25249575.626                     4876404.152 7   4876404.135 6                   3799786.505 6        60.000          21.000          44.000                  
G16  22506316.751    22506315.188    22506316.991                    -3955413.337 8  -3955413.341 6                  -3082142.447 6       195.000          31.000          48.000                  
G18  24602870.017    24602869.465    24602870.734                    -2886804.220 8  -2886804.240 6                  -2249457.811 6       124.000          28.000          28.000                  
G25  23329454.924    23329452.597    23329457.409                    -5589912.919 8  -5589912.931 6                  -4355781.179 8       129.000          43.000         156.000                  
G26  20553907.392    20553906.966    20553911.339                   -21184369.659 8 -21184369.659 9                 -16507303.852 9       467.000         507.000        1032.000                  
G28  20398134.845    20398134.615    20398135.512                   -23254372.951 9 -23254372.948 8                 -18120291.393 8       564.000         392.000         463.000                  
G29  21397474.727    21397474.137    21397474.847                   -19092697.954 8 -19092697.956 8                 -14877429.751 9       412.000         379.000         655.000                  
G31  21402945.781    21402945.252    21402946.063                   -16830723.330 8 -16830723.331 8                 -13114852.030 9       339.000         267.000         542.000                  
G32  20081206.469    20081206.193    20081209.598                   -20120304.183 9 -20120304.185 9                 -15678160.951 9       826.000        1690.000        2011.000                  
> 2024 10 31 07 21  0.0000000  0  9
G03  25298315.321    25298316.523    25298321.526                     5132566.705 7   5132566.725 6                   3999393.285 6        58.000          25.000          44.000                  
G16  22497940.368    22497939.137    22497940.669                    -3999431.308 8  -3999431.320 6                  -3116442.256 6       190.000          34.000          46.000                  
G18  24546658.226    24546658.310    24546660.985                    -3182194.376 8  -3182194.388 6                  -2479631.951 6       120.000          31.000          41.000                  
G25  23374122.830    23374122.024    23374126.830                    -5355173.725 8  -5355173.725 6                  -4172867.676 8       128.000          48.000         146.000                  
G26  20579633.370    20579632.818    20579637.284                   -21049179.781 8 -21049179.781 8                 -16401961.164 9       458.000         494.000        1063.000                  
G28  20434654.643    20434654.437    20434655.349                   -23062460.348 9 -23062460.343 8                 -17970749.172 8       558.000         389.000         453.000                  
G29  21424157.175    21424156.344    21424157.193                   -18952481.712 8 -18952481.713 8                 -14768170.421 9       404.000         365.000         650.000                  
G31  21453765.083    21453764.915    21453765.572                   -16563665.241 8 -16563665.244 8                 -12906754.922 9       319.000         234.000         544.000                  
G32  20049323.222    20049322.938    20049326.353                   -20287852.177 9 -20287852.178 9                 -15808717.837 9       846.000        1792.000        2003.000                  
> 2024 10 31 07 21 10.0000000  0  9
G03  25347032.118    25347030.194    25347035.075                     5388556.917 7   5388556.918 6                   4198865.799 6        54.000          25.000          34.000                  
G16  22490250.439    22490248.644    22490250.631                    -4039843.674 8  -4039843.676 6                  -3147932.493 6       193.000          33.000          48.000                  
G18  24490842.049    24490841.713    24490844.532                    -3475511.857 8  -3475511.834 6                  -2708191.019 6       122.000          28.000          38.000                  
G25  23419095.748    23419094.547    23419099.127                    -5118842.774 8  -5118842.792 6                  -3988713.841 8       121.000          44.000         130.000                  
G26  20606242.511    20606241.901    20606246.398                   -20909348.571 8 -20909348.568 8                 -16293001.866 9       457.000         493.000        1066.000                  
G28  20471835.587    20471835.532    20471836.443                   -22867072.864 9 -22867072.859 8                 -17818499.250 8       548.000         374.000         440.000                  
G29  21451762.390    21451761.642    21451762.518                   -18807415.467 8 -18807415.468 8                 -14655131.875 9       396.000         358.000         631.000                  
G31  21505091.795    21505091.490    21505092.223                   -16293942.589 8 -16293942.589 8                 -12696581.539 9       316.000         232.000         575.000                  
G32  20018088.500    20018088.436    20018091.882                   -20451990.253 9 -20451990.255 9                 -15936617.654 9       866.000        1882.000        1976.000                  
> 2024 10 31 07 21 20.0000000  0  9
G03  25395710.642    25395709.550    25395715.017                     5644367.748 7   5644367.739 6                   4398198.393 6        54.000          24.000          35.000                  
G16  22483251.940    22483250.835    22483253.385                    -4076617.376 8  -4076617.381 6                  -3176587.428 7       195.000          37.000          53.000                  
G18  24435431.637    24435431.718    24435435.199                    -3766693.346 8  -3766693.365 6                  -2935085.669 6       121.000          33.000          42.000                  
G25  23464364.918    23464364.564    23464369.089                    -4880948.483 8  -4880948.503 6                  -3803341.836 8       115.000          37.000         121.000                  
G26  20633732.222    20633731.747    20633736.202                   -20764888.440 8 -20764888.440 8                 -16180435.625 9       446.000         472.000        1009.000                  
G28  20509673.583    20509673.334    20509674.311                   -22668233.724 9 -22668233.721 8                 -17663559.742 8       541.000         354.000         415.000                  
G29  21480285.665    21480284.853    21480285.719                   -18657525.464 8 -18657525.466 8                 -14538334.560 9       389.000         341.000         628.000                  
G31  21556920.415    21556920.235    21556921.167                   -16021581.245 8 -16021581.247 8                 -12484352.040 9       314.000         223.000         597.000                  
G32  19987511.845    19987511.539    19987514.950                   -20612672.987 9 -20612672.988 9                 -16061824.997 9       880.000        1924.000        1907.000                  
> 2024 10 31 07 21 30.0000000  0 10
G03  25444349.652    25444348.646    25444354.008                     5899967.121 7   5899967.124 6                   4597366.183 6        51.000          26.000          34.000                  
G16  22476947.555    22476946.346    22476948.682                    -4109746.887 8  -4109746.890 6                  -3202402.742 7       197.000          38.000          53.000                  
G18  24380436.616    24380434.901    24380438.027                    -4055702.414 8  -4055702.421 6                  -3160287.563 6       120.000          26.000          46.000                  
G25  23509920.548    23509921.078    23509926.052                    -4641546.084 8  -4641546.073 6                  -3616794.677 8       112.000          35.000         112.000                  
G26  20662095.188    20662094.848    20662099.345                   -20615839.601 8 -20615839.600 8                 -16064293.769 9       434.000         436.000         949.000                  
G27  24737861.967    24737860.547    24737874.951                     -477667.385 7   -477667.373 6                   -372212.454 6        95.000          33.000          39.000                  
G28  20548158.943    20548158.529    20548159.435                   -22465993.317 9 -22465993.312 8                 -17505969.942 8       538.000         356.000         400.000                  
G29  21509716.064    21509715.586    21509716.471                   -18502866.225 8 -18502866.225 8                 -14417820.959 9       388.000         331.000         653.000                  
G31  21609241.190    21609241.029    21609241.936                   -15746633.818 8 -15746633.817 8                 -12270107.419 9       301.000         207.000         608.000                  
G32  19957595.901    19957595.668    19957598.965                   -20769882.154 9 -20769882.155 9                 -16184325.657 9       898.000        2015.000        1887.000                  
> 2024 10 31 07 21 40.0000000  0 10
G10  24561116.999    24561117.018    24561135.297                     -384030.041 7   -384030.049 6                   -299247.265 6        76.000          25.000          21.000                  
G16  22471339.461    22471337.748    22471339.800                    -4139221.773 8  -4139221.770 6                  -3225370.289 7       200.000          36.000          54.000                  
G18  24325861.675    24325859.310    24325863.112                    -4342496.889 8  -4342496.907 6                  -3383763.765 7       119.000          30.000          56.000                  
G25  23555757.493    23555755.568    23555760.342                    -4400684.847 8  -4400684.844 6                  -3429110.792 7       110.000          29.000          96.000                  
G26  20691325.203    20691324.474    20691328.910                   -20462237.488 8 -20462237.486 8                 -15944603.909 9       408.000         396.000         911.000                  
G27  24671691.597    24671691.716    24671696.559                     -825387.822 7   -825387.805 6                   -643164.013 7        98.000          33.000          94.000                  
G28  20587282.635    20587282.426    20587283.193                   -22260396.408 9 -22260396.405 8                 -17345764.654 8       532.000         354.000         381.000                  
G29  21540045.134    21540044.465    21540045.499                   -18343487.140 8 -18343487.141 8                 -14293629.560 9       375.000         318.000         674.000                  
G31  21662045.498    21662045.084    21662045.954                   -15469147.255 8 -15469147.253 8                 -12053884.260 9       297.000         199.000         603.000                  
G32  19928345.581    19928345.264    19928348.533                   -20923594.269 9 -20923594.271 9                 -16304101.345 9       921.000        2124.000        1856.000                  
> 2024 10 31 07 21 50.0000000  0 10
G10  24498334.003    24498335.410    24498340.752                     -713944.955 7   -713944.957 6                   -556320.934 7        79.000          21.000          51.000                  
G16  22466431.725    22466430.257    22466433.375                    -4165008.276 8  -4165008.278 6                  -3245463.767 7       205.000          38.000          58.000                  
G18  24271720.094    24271718.487    24271721.561                    -4627010.651 8  -4627010.648 6                  -3605462.825 7       121.000          26.000          57.000                  
G25  23601864.226    23601863.406    23601867.865                    -4158389.891 8  -4158389.906 6                  -3240309.714 7       108.000          37.000          95.000                  
G26  20721418.699    20721418.120    20721422.662                   -20304094.487 8 -20304094.488 8                 -15821375.707 9       400.000         379.000         873.000                  
G27  24605707.039    24605706.592    24605711.968                    -1172141.608 8  -1172141.623 6                   -913361.693 7       102.000          41.000          99.000                  
G28  20627041.381    20627040.974    20627041.884                   -22051464.305 9 -22051464.304 8                 -17182960.537 8       528.000         350.000         359.000                  
G29  21571267.221    21571266.643    21571267.730                   -18179414.403 8 -18179414.403 8                 -14165780.777 9       361.000         297.000         677.000                  
G31  21715328.046    21715327.999    21715328.853                   -15189144.542 8 -15189144.541 8                 -11835700.469 9       294.000         198.000         568.000                  
G32  19899769.502    19899769.184    19899772.526                   -21073762.263 9 -21073762.265 9                 -16421115.391 9       932.000        2181.000        1843.000                  
> 2024 10 31 07 22  0.0000000  0 10
G10  24435588.444    24435587.636    24435592.731                    -1043686.838 7  -1043686.852 6                   -813262.524 7        83.000          28.000          55.000                  
G16  22462225.365    22462223.568    22462226.317                    -4187116.287 8  -4187116.283 6                  -3262690.892 7       210.000          45.000          57.000                  
G18  24218016.140    24218016.264    24218018.820                    -4909220.508 8  -4909220.506 6                  -3825366.646 7       120.000          32.000          63.000                  
G25  23648231.236    23648230.519    23648235.459                    -3914729.080 8  -3914729.072 6                  -3050444.344 7       109.000          37.000          91.000                  
G26  20752365.660    20752365.063    20752369.921                   -20141466.760 8 -20141466.759 8                 -15694652.907 9       392.000         362.000         855.000                  
G27  24539911.906    24539911.722    24539917.232                    -1517895.725 8  -1517895.735 6                  -1182780.416 8       107.000          38.000         109.000                  
G28  20667422.205    20667421.879    20667422.791                   -21839261.316 9 -21839261.312 8                 -17017607.668 8       521.000         333.000         356.000                  
G29  21603368.693    21603368.240    21603369.608                   -18010718.411 8 -18010718.413 8                 -14034329.460 9       348.000         272.000         676.000                  
G31  21769077.466    21769076.972    21769077.914                   -14906691.548 8 -14906691.547 8                 -11615607.372 9       293.000         194.000         571.000                  
G32  19871868.548    19871868.354    19871871.679                   -21220382.357 9 -21220382.359 9                 -16535364.852 9       952.000        2257.000        1898.000                  
> 2024 10 31 07 22 10.0000000  0 10
G10  24372880.798    24372881.561    24372886.365                    -1373208.660 7  -1373208.666 6                  -1070032.676 7        83.000          29.000          62.000                  
G16  22458723.713    22458721.926    22458724.384                    -4205519.623 8  -4205519.619 6                  -3277031.257 7       213.000          41.000          62.000                  
G18  24164764.135    24164762.749    24164766.231                    -5189066.518 8  -5189066.546 6                  -4043428.514 7       126.000          35.000          70.000                  
G25  23694853.208    23694851.327    23694856.802                    -3669733.250 8  -3669733.268 6                  -2859538.703 7       105.000          34.000          87.000                  
G26  20784162.708    20784161.778    20784166.592                   -19974374.576 8 -19974374.573 8                 -15564451.312 9       386.000         348.000         844.000                  
G27  24474320.423    24474320.857    24474326.116                    -1862579.874 8  -1862579.851 6                  -1451365.406 8       107.000          33.000         120.000                  
G28  20708420.326    20708420.066    20708421.097                   -21623815.244 9 -21623815.241 8                 -16849727.724 8       517.000         328.000         358.000                  
G29  21636343.738    21636343.427    21636344.829                   -17837433.376 8 -17837433.375 8                 -13899302.264 9       335.000         256.000         691.000                  
G31  21823287.282    21823286.869    21823287.855                   -14621817.329 8 -14621817.329 8                 -11393627.616 9       287.000         187.000         567.000                  
G32  19844650.658    19844650.391    19844653.650                   -21363414.399 9 -21363414.401 9                 -16646818.438 9       968.000        2351.000        1956.000                  
> 2024 10 31 07 22 20.0000000  0 10
G10  24310226.172    24310225.077    24310229.715                    -1702471.339 7  -1702471.311 6                  -1326600.884 7        88.000          30.000          71.000                  
G16  22455930.090    22455928.280    22455930.470                    -4220201.414 8  -4220201.390 6                  -3288471.721 7       213.000          34.000          65.000                  
G18  24111970.622    24111969.932    24111972.854                    -5466497.231 8  -5466497.219 6                  -4259608.353 7       136.000          31.000          68.000                  
G25  23741720.708    23741719.787    23741724.193                    -3423441.512 8  -3423441.503 6                  -2667623.300 7       102.000          37.000          78.000                  
G26  20816802.807    20816802.473    20816807.283                   -19802847.438 8 -19802847.436 8                 -15430793.914 9       378.000         338.000         815.000                  
G27  24408944.303    24408944.459    24408949.960                    -2206131.845 8  -2206131.837 6                  -1719068.173 8       115.000          37.000         133.000                  
G28  20750028.780    20750028.447    20750029.291                   -21405162.647 9 -21405162.645 8                 -16679349.224 8       520.000         337.000         357.000                  
G29  21670184.278    21670183.708    21670184.885                   -17659602.892 8 -17659602.894 8                 -13760733.165 9       326.000         240.000         680.000                  
G31  21877950.762    21877950.297    21877951.247                   -14334559.610 8 -14334559.609 8                 -11169790.593 9       291.000         194.000         563.000                  
G32  19818121.290    19818121.063    19818124.376                   -21502827.164 9 -21502827.165 9                 -16755451.824 9       980.000        2425.000        2024.000                  
> 2024 10 31 07 22 30.0000000  0 10
G10  24247622.120    24247620.344    24247625.817                    -2031456.183 7  -2031456.178 6                  -1582952.607 7        92.000          26.000          79.000                  
G16  22453843.636    22453842.041    22453843.887                    -4231166.060 8  -4231166.083 6                  -3297015.710 7       211.000          38.000          61.000                  
G18  24059642.338    24059642.130    24059644.790                    -5741481.905 8  -5741481.892 6                  -4473882.184 7       140.000          32.000          78.000                  
G25  23788823.582    23788823.511    23788827.899                    -3175913.355 8  -3175913.340 6                  -2474744.441 7       103.000          36.000          81.000                  
G26  20850278.025    20850277.326    20850282.137                   -19626936.368 8 -19626936.366 8                 -15293720.470 9       375.000         338.000         802.000                  
G27  24343792.227    24343792.078    24343797.119                    -2548509.624 8  -2548509.617 6                  -1985855.998 8       119.000          46.000         120.000                  
G28  20792236.325    20792235.974    20792236.957                   -21183360.685 9 -21183360.681 8                 -16506516.650 8       511.000         330.000         352.000                  
G29  21704877.089    21704876.340    21704877.594                   -17477291.984 8 -17477291.985 8                 -13618672.831 9       315.000         222.000         658.000                  
G31  21933056.848    21933056.497    21933057.353                   -14044976.442 8 -14044976.445 8                 -10944141.542 9       306.000         214.000         545.000                  
G32  19792282.561    19792282.376    19792285.666                   -21638610.350 9 -21638610.352 9                 -16861256.936 9       987.000        2422.000        2026.000                  
> 2024 10 31 07 22 40.0000000  0 10
G10  24185079.296    24185078.241    24185083.882                    -2360117.535 7  -2360117.538 6                  -1839052.257 7        93.000          34.000          73.000                  
G16  22452468.293    22452466.799    22452469.419                    -4238392.179 8  -4238392.161 6                  -3302646.571 7       212.000          38.000          59.000                  
G18  24007791.978    24007790.909    24007794.103                    -6013963.322 8  -6013963.324 6                  -4686205.429 7       143.000          37.000          87.000                  
G25  23836156.990    23836155.157    23836159.965                    -2927181.484 7  -2927181.454 6                  -2280927.659 7        97.000          29.000          76.000                  
G26  20884582.296    20884581.631    20884586.474                   -19446666.580 8 -19446666.578 8                 -15153250.629 9       372.000         325.000         802.000                  
G27  24278876.446    24278876.646    24278881.455                    -2889644.215 8  -2889644.214 6                  -2251675.106 8       124.000          48.000         132.000                  
G28  20835037.248    20835036.963    20835038.071                   -20958440.352 9 -20958440.349 8                 -16331254.193 8       502.000         309.000         355.000                  
G29  21740414.626    21740414.064    21740415.470                   -17290539.873 8 -17290539.873 8                 -13473151.826 9       301.000         208.000         617.000                  
G31  21988599.244    21988599.048    21988599.941                   -13753099.276 8 -13753099.278 8                 -10716704.962 9       314.000         219.000         535.000                  
G32  19767141.713    19767141.313    19767144.503                   -21770727.741 9 -21770727.742 9                 -16964205.559 9       988.000        2447.000        2078.000                  
> 2024 10 31 07 22 50.0000000  0 10
G10  24122606.566    24122605.733    24122610.922                    -2688412.092 7  -2688412.088 6                  -2094866.105 7        98.000          30.000          85.000                  
G16  22451808.160    22451806.870    22451808.755                    -4241861.938 8  -4241861.930 6                  -3305350.400 7       211.000          40.000          62.000                  
G18  23956426.991    23956426.169    23956428.718                    -6283887.080 8  -6283887.079 6                  -4896535.694 7       155.000          42.000          85.000                  
G25  23883710.371    23883709.490    23883715.010                    -2677281.159 7  -2677281.138 6                  -2086200.401 7        97.000          31.000          72.000                  
G26  20919710.479    20919709.927    20919714.738                   -19262066.866 8 -19262066.865 8                 -15009406.823 9       376.000         330.000         779.000                  
G27  24214210.382    24214210.068    24214214.970                    -3229468.981 8  -3229468.996 7                  -2516473.576 8       131.000          57.000         125.000                  
G28  20878425.318    20878424.971    20878426.245                   -20730435.456 8 -20730435.455 8                 -16153588.188 8       491.000         287.000         334.000                  
G29  21776789.051    21776788.847    21776790.375                   -17099389.202 8 -17099389.198 8                 -13324203.378 9       286.000         185.000         569.000                  
G31  22044571.904    22044571.813    22044572.536                   -13458962.217 8 -13458962.219 8                 -10487507.428 9       310.000         211.000         504.000                  
G32  19742704.338    19742704.042    19742707.265                   -21899146.373 9 -21899146.375 9                 -17064272.041 9       979.000        2413.000        2093.000                  
> 2024 10 31 07 23  0.0000000  0 10
G10  24060205.160    24060205.100    24060210.712                    -3016330.729 8  -3016330.729 6                  -2350387.028 7       103.000          31.000          88.000                  
G16  22451859.136    22451857.495    22451860.191                    -4241592.770 8  -4241592.781 6                  -3305140.783 7       210.000          37.000          65.000                  
G18  23905553.515    23905551.677    23905554.514                    -6551233.422 8  -6551233.418 6                  -5104857.581 7       157.000          35.000          89.000                  
G25  23931474.195    23931473.725    23931478.953                    -2426281.868 7  -2426281.860 6                  -1890616.864 7        96.000          28.000          68.000                  
G26  20955650.564    20955649.901    20955654.856                   -19073201.245 8 -19073201.243 8                 -14862238.934 9       371.000         329.000         782.000                  
G27  24149800.215    24149798.808    24149803.659                    -3567951.400 8  -3567951.411 7                  -2780226.063 8       140.000          54.000         134.000                  
G28  20922387.339    20922387.077    20922388.120                   -20499414.438 8 -20499414.438 8                 -15973571.957 8       484.000         291.000         340.000                  
G29  21813986.666    21813985.716    21813987.318                   -16903917.843 8 -16903917.848 8                 -13171888.169 9       277.000         169.000         548.000                  
G31  22100961.866    22100961.245    22100962.138                   -13162633.757 8 -13162633.756 8                 -10256602.320 8       299.000         204.000         499.000                  
G32  19718970.523    19718970.213    19718973.617                   -22023868.253 9 -22023868.255 9                 -17161457.971 9       978.000        2392.000        2155.000                  
> 2024 10 31 07 23 10.0000000  0 10
G10  23997888.292    23997888.031    23997893.229                    -3343809.977 8  -3343809.983 6                  -2605565.584 7       104.000          34.000          88.000                  
G16  22452628.873    22452627.443    22452630.029                    -4237549.029 8  -4237549.017 6                  -3301989.949 7       206.000          38.000          67.000                  
G18  23855182.605    23855182.289    23855184.602                    -6815928.846 8  -6815928.830 6                  -5311113.816 7       163.000          42.000          94.000                  
G25  23979445.002    23979444.124    23979449.483                    -2174198.987 7  -2174198.982 6                  -1694188.979 7        90.000          35.000          72.000                  
G26  20992400.085    20992399.626    20992404.727                   -18880080.625 8 -18880080.624 8                 -14711755.461 9       367.000         307.000         784.000                  
G27  24085660.465    24085659.555    24085664.579                    -3905004.667 8  -3905004.682 7                  -3042864.911 8       142.000          59.000         143.000                  
G28  20966920.132    20966920.076    20966921.235                   -20265392.036 8 -20265392.035 8                 -15791216.988 8       474.000         280.000         319.000                  
G29  21852000.640    21852000.426    21852002.011                   -16704150.487 8 -16704150.488 8                 -13016225.441 9       268.000         161.000         541.000                  
G31  22157765.071    22157765.005    22157766.030                   -12864128.524 8 -12864128.526 8                 -10024001.039 8       292.000         191.000         500.000                  
G32  19695949.997    19695949.765    19695953.148                   -22144841.937 9 -22144841.939 9                 -17255723.234 9       979.000        2374.000        2159.000                  
> 2024 10 31 07 23 20.0000000  0 10
G10  23935657.494    23935656.996    23935661.881                    -3670834.832 8  -3670834.816 6                  -2860390.062 7       111.000          34.000          90.000                  
G16  22454114.777    22454113.113    22454114.869                    -4229744.548 8  -4229744.560 6                  -3295908.666 7       204.000          35.000          63.000                  
G18  23805321.907    23805321.527    23805324.333                    -7077948.679 8  -7077948.668 6                  -5515285.184 7       169.000          37.000          99.000                  
G25  24027609.798    24027608.040    24027613.160                    -1921096.336 7  -1921096.342 6                  -1496966.487 7        95.000          31.000          70.000                  
G26  21029948.242    21029947.700    21029952.660                   -18682765.307 8 -18682765.305 8                 -14558003.399 9       343.000         284.000         834.000                  
G27  24021800.159    24021799.746    24021804.724                    -4240590.397 8  -4240590.403 7                  -3304360.233 8       145.000          60.000         160.000                  
G28  21012012.509    21012012.013    21012013.529                   -20028431.801 8 -20028431.799 8                 -15606572.806 8       466.000         268.000         313.000                  
G29  21890818.952    21890818.423    21890819.886                   -16500161.243 8 -16500161.248 8                 -12857272.928 9       255.000         145.000         539.000                  
G31  22214971.037    22214970.855    22214972.234                   -12563509.779 8 -12563509.780 8                  -9789752.875 8       295.000         187.000         499.000                  
G32  19673643.295    19673642.941    19673646.344                   -22262065.248 9 -22262065.249 9                 -17347066.123 9       970.000        2351.000        2187.000                  
> 2024 10 31 07 23 30.0000000  0 10
G10  23873521.339    23873521.561    23873526.665                    -3997358.578 8  -3997358.582 6                  -3114824.067 7       110.000          40.000          99.000                  
G16  22456317.645    22456316.535    22456319.716                    -4218162.754 8  -4218162.760 6                  -3286884.028 7       197.000          35.000          60.000                  
G18  23755980.808    23755980.670    23755983.015                    -7337237.205 8  -7337237.208 6                  -5717328.251 7       175.000          46.000          94.000                  
G25  24075961.223    24075959.755    24075965.859                    -1667006.200 7  -1667006.214 6                  -1298974.571 7        91.000          32.000          61.000                  
G26  21068288.799    21068288.200    21068293.221                   -18481285.016 8 -18481285.015 8                 -14401005.919 9       331.000         258.000         815.000                  
G27  23958232.628    23958232.054    23958237.363                    -4574638.485 8  -4574638.492 7                  -3564657.393 8       149.000          70.000         167.000                  
G28  21057657.515    21057657.178    21057658.600                   -19788566.136 8 -19788566.134 8                 -15419664.660 8       461.000         269.000         299.000                  
G29  21930432.049    21930431.126    21930433.065                   -16291993.537 8 -16291993.536 8                 -12695064.473 9       245.000         138.000         530.000                  
G31  22272573.563    22272572.932    22272574.417                   -12260809.179 8 -12260809.183 8                  -9553882.493 8       293.000         193.000         479.000                  
G32  19652056.261    19652055.988    19652059.455                   -22375505.311 9 -22375505.313 9                 -17435461.024 9       969.000        2368.000        2136.000                  
> 2024 10 31 07 23 40.0000000  0 10
G10  23811488.951    23811489.511    23811495.262                    -4323336.377 8  -4323336.383 6                  -3368832.638 8       112.000          39.000         107.000                  
G16  22459243.637    22459242.141    22459244.779                    -4202789.946 8  -4202789.947 6                  -3274905.349 7       193.000          39.000          66.000                  
G18  23707169.896    23707169.922    23707171.892                    -7593741.009 8  -7593741.014 6                  -5917201.393 8       176.000          44.000         106.000                  
G25  24124494.518    24124492.898    24124499.196                    -1411962.839 7  -1411962.818 6                  -1100239.907 7        89.000          29.000          64.000                  
G26  21107415.345    21107415.087    21107420.088                   -18275672.373 8 -18275672.372 8                 -14240788.423 9       311.000         227.000         796.000                  
G27  23894971.653    23894970.618    23894975.657                    -4907080.694 8  -4907080.693 7                  -3823703.211 8       150.000          60.000         191.000                  
G28  21103849.111    21103848.516    21103849.844                   -19545829.614 8 -19545829.615 8                 -15230519.455 8       463.000         262.000         286.000                  
G29  21970831.054    21970830.832    21970832.718                   -16079693.623 8 -16079693.623 8                 -12529636.126 9       248.000         138.000         565.000                  
G31  22330565.087    22330565.097    22330566.268                   -11956060.892 8 -11956060.895 8                  -9316416.519 8       291.000         199.000         458.000                  
G32  19631195.087    19631194.769    19631198.259                   -22485131.977 9 -22485131.978 9                 -17520884.439 9       987.000        2432.000        2176.000                  
> 2024 10 31 07 23 50.0000000  0 10
G10  23749565.390    23749564.323    23749569.357                    -4648757.169 8  -4648757.167 6                  -3622407.173 8       115.000          35.000         121.000                  
G16  22462886.594    22462884.840    22462887.731                    -4183647.593 8  -4183647.603 6                  -3259989.359 7       190.000          33.000          60.000                  
G18  23658892.431    23658891.917    23658894.992                    -7847441.189 8  -7847441.195 6                  -6114889.894 8       176.000          44.000         108.000                  
G25  24173194.737    24173195.337    24173201.198                    -1156034.445 7  -1156034.452 6                   -900815.640 7        84.000          27.000          60.000                  
G26  21147315.668    21147315.281    21147320.562                   -18065994.867 8 -18065994.868 8                 -14077403.509 9       287.000         204.000         795.000                  
G27  23832021.424    23832021.049    23832026.057                    -5237882.730 8  -5237882.728 7                  -4081470.961 8       156.000          64.000         200.000                  
G28  21150573.330    21150573.009    21150574.282                   -19300291.359 8 -19300291.359 8                 -15039191.121 8       459.000         262.000         264.000                  
G29  22012001.852    22012001.500    22012003.068                   -15863342.432 8 -15863342.435 8                 -12361050.947 9       239.000         128.000         580.000                  
G31  22388933.765    22388933.451    22388934.846                   -11649333.013 8 -11649333.011 8                  -9077408.014 8       281.000         178.000         428.000                  
G32  19611058.577    19611058.346    19611061.781                   -22590949.964 9 -22590949.966 9                 -17603340.057 9       999.000        2494.000        2123.000                  
> 2024 10 31 07 24  0.0000000  0 10
G10  23687757.574    23687756.711    23687761.978                    -4973556.753 8  -4973556.748 6                  -3875497.632 8       119.000          44.000         146.000                  
G16  22467252.336    22467250.699    22467253.378                    -4160704.989 8  -4160704.999 6                  -3242112.145 7       191.000          39.000          66.000                  
G18  23611162.223    23611161.234    23611164.703                    -8098266.107 8  -8098266.106 6                  -6310337.921 8       176.000          49.000         106.000                  
G25  24222062.461    24222062.331    24222068.977                     -899236.042 7   -899236.040 6                   -700713.501 7        81.000          31.000          59.000                  
G26  21187986.520    21187986.252    21187991.549                   -17852267.728 8 -17852267.730 8                 -13910863.040 9       272.000         175.000         786.000                  
G27  23769401.178    23769400.069    23769405.483                    -5566957.033 8  -5566957.033 7                  -4337892.410 8       158.000          79.000         222.000                  
G28  21197828.042    21197827.592    21197828.944                   -19051967.406 8 -19051967.407 8                 -14845692.092 8       453.000         256.000         256.000                  
G29  22053937.536    22053936.793    22053939.156                   -15642968.739 8 -15642968.742 8                 -12189331.355 9       231.000         121.000         609.000                  
G31  22447676.779    22447676.115    22447677.484                   -11340640.510 8 -11340640.510 8                  -8836868.639 8       271.000         171.000         406.000                  
G32  19591656.115    19591655.737    19591659.137                   -22692911.614 9 -22692911.616 9                 -17682790.724 9      1014.000        2585.000        2150.000                  
> 2024 10 31 07 24 10.0000000  0 10
G10  23626071.684    23626071.206    23626076.070                    -5297718.181 8  -5297718.194 6                  -4128090.799 8       125.000          45.000         164.000                  
G16  22472338.315    22472336.463    22472338.913                    -4133979.842 8  -4133979.844 6                  -3221287.494 7       191.000          29.000          62.000                  
G18  23563983.583    23563982.773    23563985.564                    -8346191.992 8  -8346191.990 6                  -6503526.957 8       179.000          44.000         114.000                  
G25  24271083.435    24271083.271    24271090.726                     -641629.988 7   -641629.980 6                   -499982.028 6        80.000          25.000          47.000                  
G26  21229416.237    21229415.922    21229421.281                   -17634554.368 8 -17634554.371 8                 -13741216.426 9       263.000         165.000         777.000                  
G27  23707115.815    23707115.657    23707120.980                    -5894263.415 8  -5894263.420 7                  -4592936.254 8       160.000          64.000         241.000                  
G28  21245600.641    21245600.265    21245601.410                   -18800921.632 8 -18800921.632 8                 -14650072.183 8       446.000         243.000         238.000                  
G29  22096624.205    22096623.729    22096625.935                   -15418649.260 8 -15418649.259 8                 -12014537.123 9       227.000         120.000         646.000                  
G31  22506780.718    22506780.447    22506781.766                   -11030045.923 8 -11030045.923 8                  -8594847.137 8       268.000         171.000         399.000                  
G32  19572987.183    19572986.880    19572990.319                   -22791017.523 9 -22791017.525 9                 -17759236.922 9      1030.000        2639.000        2223.000                  
> 2024 10 31 07 24 20.0000000  0 10
G10  23564515.624    23564515.569    23564520.791                    -5621193.669 8  -5621193.666 7                  -4380149.496 8       135.000          58.000         170.000                  
G16  22478145.675    22478144.637    22478147.324                    -4103460.161 8  -4103460.173 6                  -3197506.057 7       193.000          30.000          65.000                  
G18  23517366.245    23517365.701    23517368.919                    -8591164.801 8  -8591164.810 6                  -6694414.875 8       180.000          42.000         119.000                  
G25  24320253.743    24320252.445    24320258.947                     -383247.782 7   -383247.769 6                   -298645.809 6        76.000          26.000          46.000                  
G26  21271598.214    21271597.792    21271603.123                   -17412888.271 8 -17412888.272 8                 -13568489.755 9       261.000         163.000         775.000                  
G27  23645181.467    23645181.449    23645186.635                    -6219730.805 8  -6219730.810 7                  -4846547.114 8       163.000          68.000         253.000                  
G28  21293884.828    21293884.274    21293885.687                   -18547187.273 8 -18547187.271 8                 -14452357.269 8       424.000         233.000         227.000                  
G29  22140052.820    22140052.442    22140054.622                   -15190430.764 8 -15190430.770 8                 -11836704.703 9       228.000         111.000         648.000                  
G31  22566240.962    22566240.582    22566242.189                   -10717581.004 8 -10717581.002 8                  -8351368.233 8       262.000         157.000         385.000                  
G32  19555057.409    19555057.237    19555060.772                   -22885238.344 9 -22885238.346 9                 -17832655.785 9      1022.000        2632.000        2284.000                  
> 2024 10 31 07 24 30.0000000  0 10
G10  23503099.530    23503098.535    23503103.895                    -5943940.041 8  -5943940.060 6                  -4631640.007 8       144.000          48.000         187.000                  
G16  22484677.032    22484675.765    22484678.430                    -4069139.841 8  -4069139.845 6                  -3170763.079 7       194.000          35.000          62.000                  
G18  23471321.585    23471320.101    23471323.417                    -8833135.898 8  -8833135.885 7                  -6882963.789 8       184.000          52.000         120.000                  
G25  24369565.213    24369561.470    24369568.805                     -124125.919 7   -124125.934 6                    -96733.242 6        76.000          27.000          41.000                  
G26  21314524.766    21314524.247    21314529.597                   -17187308.630 8 -17187308.630 8                 -13392713.572 9       255.000         148.000         769.000                  
G27  23583610.253    23583609.215    23583614.713                    -6543293.022 8  -6543293.025 7                  -5098673.416 8       168.000          79.000         260.000                  
G28  21342673.081    21342672.676    21342674.403                   -18290802.755 8 -18290802.754 8                 -14252577.269 8       414.000         208.000         234.000                  
G29  22184214.162    22184212.911    22184215.533                   -14958365.609 8 -14958365.604 8                 -11655874.885 9       219.000         118.000         655.000                  
G31  22626049.834    22626049.950    22626051.534                   -10403282.621 8 -10403282.627 8                  -8106460.664 8       252.000         138.000         364.000                  
G32  19537871.709    19537871.407    19537875.006                   -22975550.494 9 -22975550.495 9                 -17903028.933 9      1016.000        2586.000        2286.000                  
> 2024 10 31 07 24 40.0000000  0 10
G10  23441825.696    23441824.999    23441830.094                    -6265935.269 8  -6265935.275 7                  -4882545.192 8       154.000          54.000         203.000                  
G16  22491929.138    22491926.747    22491929.980                    -4031035.095 8  -4031035.080 6                  -3141071.185 7       189.000          32.000          57.000                  
G18  23425851.903    23425851.002    23425854.359                    -9072078.283 8  -9072078.287 7                  -7069152.648 8       182.000          56.000         129.000                  
G25  24419003.705    24419001.488    24419008.243                      135678.262 7    135678.267 6                    105710.957 6        73.000          31.000          38.000                  
G26  21358184.260    21358184.011    21358189.253                   -16957876.487 8 -16957876.486 8                 -13213935.442 9       250.000         152.000         761.000                  
G27  23522409.730    23522408.826    23522413.805                    -6864904.901 8  -6864904.900 7                  -5349279.962 8       176.000          92.000         281.000                  
G28  21391954.073    21391954.023    21391955.679                   -18031828.013 8 -18031828.015 8                 -14050778.944 8       396.000         201.000         232.000                  
G29  22229092.662    22229091.737    22229094.027                   -14722527.887 8 -14722527.887 8                 -11472105.404 9       226.000         116.000         667.000                  
G31  22686197.272    22686197.031    22686198.551                   -10087208.748 8 -10087208.752 8                  -7860169.597 8       240.000         130.000         345.000                  
G32  19521430.054    19521429.719    19521433.292                   -23061952.346 9 -23061952.347 9                 -17970355.088 9      1010.000        2551.000        2390.000                  
> 2024 10 31 07 24 50.0000000  0 10
G10  23380703.957    23380703.476    23380708.616                    -6587129.916 8  -6587129.910 7                  -5132826.552 8       161.000          65.000         220.000                  
G16  22499901.590    22499899.814    22499902.411                    -3989135.716 8  -3989135.683 6                  -3108422.438 7       191.000          33.000          59.000                  
G18  23380968.593    23380968.160    23380971.392                    -9307938.146 8  -9307938.154 7                  -7252939.529 8       190.000          56.000         127.000                  
G25  24468567.554    24468564.902    24468571.729                      396134.681 7    396134.682 6                    308663.390 6        71.000          26.000          35.000                  
G26  21402571.125    21402570.046    21402575.423                   -16724626.295 8 -16724626.294 8                 -13032182.208 9       245.000         150.000         753.000                  
G27  23461593.397    23461592.911    23461597.747                    -7184494.008 8  -7184494.014 7                  -5598310.308 8       182.000          90.000         297.000                  
G28  21441722.670    21441722.146    21441723.768                   -17770295.657 8 -17770295.656 8                 -13846987.661 8       382.000         183.000         236.000                  
G29  22274680.067    22274679.313    22274681.448                   -14482964.917 8 -14482964.915 8                 -11285433.132 9       234.000         123.000         635.000                  
G31  22746676.504    22746675.782    22746677.652                    -9769390.153 8  -9769390.159 8                  -7612519.007 8       228.000         116.000         302.000                  
G32  19505737.726    19505737.420    19505741.090                   -23144415.820 9 -23144415.821 9                 -18034612.361 9      1001.000        2513.000        2504.000                  
> 2024 10 31 07 25  0.0000000  0 10
G10  23319743.706    23319743.196    23319748.391                    -6907477.199 8  -6907477.201 7                  -5382447.625 8       163.000          71.000         235.000                  
G16  22508598.284    22508596.536    22508598.540                    -3943435.343 8  -3943435.359 6                  -3072811.859 7       191.000          41.000          60.000                  
G18  23336682.040    23336682.212    23336684.693                    -9540665.054 8  -9540665.030 7                  -7434285.129 8       195.000          53.000         136.000                  
G25  24518247.822    24518246.148    24518254.346                      657210.526 7    657210.511 6                    512098.483 6        68.000          21.000          31.000                  
G26  21447676.244    21447675.563    21447681.067                   -16487596.069 8 -16487596.068 8                 -12847483.482 9       242.000         146.000         775.000                  
G27  23401176.508    23401175.156    23401180.021                    -7501990.638 8  -7501990.636 7                  -5845710.132 8       186.000          97.000         300.000                  
G28  21491970.490    21491970.112    21491972.048                   -17506241.331 8 -17506241.335 8                 -13641231.175 8       361.000         164.000         235.000                  
G29  22320966.693    22320965.980    22320968.050                   -14239727.511 8 -14239727.518 8                 -11095897.663 9       229.000         118.000         610.000                  
G31  22807480.935    22807480.674    22807482.315                    -9449860.412 8  -9449860.411 8                  -7363535.053 8       222.000         107.000         262.000                  
G32  19490799.487    19490799.272    19490802.851                   -23222916.537 9 -23222916.538 9                 -18095781.759 9       995.000        2482.000        2601.000                  
> 2024 10 31 07 25 10.0000000  0 10
G10  23258948.135    23258947.082    23258952.499                    -7226961.596 8  -7226961.607 7                  -5631396.319 8       162.000          68.000         252.000                  
G16  22518013.090    22518011.328    22518014.059                    -3893960.117 8  -3893960.138 6                  -3034259.816 7       187.000          34.000          64.000                  
G18  23292996.089    23292995.139    23292998.135                    -9770240.550 8  -9770240.539 7                  -7613175.067 8       201.000          57.000         139.000                  
G25  24568036.720    24568033.681    24568041.476                      918841.695 7    918841.672 6                    715966.297 6        65.000          25.000          34.000                  
G26  21493487.968    21493486.780    21493492.569                   -16246855.877 8 -16246855.875 8                 -12659893.860 9       235.000         135.000         796.000                  
G27  23341163.262    23341162.849    23341167.671                    -7817356.535 8  -7817356.538 7                  -6091449.640 8       189.000          98.000         312.000                  
G28  21542685.072    21542685.006    21542687.061                   -17239732.471 8 -17239732.467 8                 -13433562.081 8       345.000         151.000         233.000                  
G29  22367936.173    22367936.004    22367938.307                   -13992898.419 8 -13992898.421 8                 -10903563.472 9       225.000         115.000         598.000                  
G31  22868598.641    22868598.585    22868600.336                    -9128684.575 8  -9128684.579 8                  -7113268.418 8       222.000         114.000         220.000                  
G32  19476613.943    19476613.684    19476617.191                   -23297462.441 9 -23297462.443 9                 -18153869.483 9      1005.000        2526.000        2641.000                  
> 2024 10 31 07 25 20.0000000  0 10
G10  23198327.557    23198327.120    23198332.245                    -7545520.551 8  -7545520.546 7                  -5879623.862 8       162.000          67.000         293.000                  
G16  22528149.928    22528148.228    22528151.340                    -3840690.301 8  -3840690.308 6                  -2992750.944 7       187.000          34.000          66.000                  
G18  23249920.782    23249920.682    23249923.216                    -9996599.826 8  -9996599.827 7                  -7789558.834 8       206.000          58.000         143.000                  
G25  24617924.613    24617923.562    24617931.578                     1181011.084 7   1181011.087 6                    920253.445 6        64.000          25.000          32.000                  
G26  21540000.499    21539999.840    21540005.480                   -16002429.525 8 -16002429.529 8                 -12469431.901 9       228.000         129.000         799.000                  
G27  23281573.010    23281572.160    23281577.235                    -8130506.517 8  -8130506.517 7                  -6335462.438 8       183.000          94.000         317.000                  
G28  21593863.823    21593863.265    21593865.507                   -16970789.519 8 -16970789.515 8                 -13223996.270 8       329.000         146.000         234.000                  
G29  22415583.568    22415582.699    22415584.995                   -13742513.943 8 -13742513.947 8                 -10708458.845 9       228.000         116.000         576.000                  
G31  22930026.752    22930026.085    22930028.094                    -8805880.775 8  -8805880.778 8                  -6861733.231 8       222.000         110.000         208.000                  
G32  19463188.171    19463187.880    19463191.422                   -23368015.440 9 -23368015.442 9                 -18208845.856 9      1019.000        2608.000        2729.000                  
> 2024 10 31 07 25 30.0000000  0 10
G10  23137890.219    23137889.866    23137894.631                    -7863121.589 8  -7863121.579 7                  -6127104.968 8       171.000          73.000         323.000                  
G16  22539007.055    22539005.131    22539008.329                    -3783637.281 8  -3783637.296 6                  -2948294.109 7       183.000          36.000          61.000                  
G18  23207464.728    23207464.238    23207466.825                   -10219708.852 8 -10219708.834 7                  -7963409.928 8       206.000          65.000         142.000                  
G25  24667908.153    24667906.742    24667914.588                     1443671.539 7   1443671.534 6                   1124923.178 6        62.000          22.000          31.000                  
G26  21587204.732    21587203.544    21587209.545                   -15754371.636 8 -15754371.630 8                 -12276140.159 9       223.000         124.000         784.000                  
G27  23222414.263    23222413.700    23222418.677                    -8441385.596 8  -8441385.585 7                  -6577705.698 8       190.000          97.000         342.000                  
G28  21645495.271    21645494.865    21645497.313                   -16699463.438 8 -16699463.436 8                 -13012573.486 8       321.000         138.000         227.000                  
G29  22463893.953    22463893.264    22463895.642                   -13488641.191 8 -13488641.191 8                 -10510636.075 9       230.000         129.000         565.000                  
G31  22991755.431    22991754.857    22991756.408                    -8481497.343 8  -8481497.345 8                  -6608967.152 8       219.000         109.000         194.000                  
G32  19450523.568    19450523.265    19450526.814                   -23434568.535 9 -23434568.537 9                 -18260705.443 9      1051.000        2761.000        2780.000                  
> 2024 10 31 07 25 40.0000000  0 10
G10  23077639.399    23077639.015    23077643.956                    -8179739.180 8  -8179739.174 7                  -6373819.718 8       174.000          76.000         348.000                  
G16  22550579.310    22550577.985    22550581.553                    -3722820.683 8  -3722820.692 6                  -2900904.597 7       177.000          32.000          59.000                  
G18  23165632.067    23165631.438    23165634.243                   -10439541.269 8 -10439541.257 7                  -8134707.800 8       215.000          68.000         146.000                  
G25  24717975.084    24717973.092    24717980.816                     1706768.935 7   1706768.928 6                   1329933.431 6        62.000          24.000          32.000                  
G26  21635087.299    21635086.603    21635092.686                   -15502744.552 8 -15502744.551 8                 -12080067.215 9       213.000         114.000         780.000                  
G27  23163697.162    23163696.468    23163701.474                    -8749945.852 8  -8749945.859 8                  -6818142.062 8       192.000         112.000         364.000                  
G28  21697569.610    21697569.208    21697571.190                   -16425812.255 8 -16425812.255 8                 -12799338.911 8       311.000         127.000         212.000                  
G29  22512854.254    22512853.394    22512855.698                   -13231354.758 8 -13231354.760 8                 -10310153.288 9       232.000         120.000         552.000                  
G31  23053773.103    23053773.442    23053774.929                    -8155589.829 8  -8155589.825 7                  -6355013.475 8       205.000          94.000         189.000                  
G32  19438619.927    19438619.691    19438623.193                   -23497122.601 9 -23497122.602 9                 -18309448.889 9      1087.000        2958.000        2810.000                  
> 2024 10 31 07 25 50.0000000  0 10
G10  23017589.164    23017588.143    23017593.495                    -8495306.221 8  -8495306.223 7                  -6619715.837 8       186.000          89.000         395.000                  
G16  22562873.233    22562871.097    22562874.680                    -3658219.504 8  -3658219.492 6                  -2850566.046 7       170.000          28.000          67.000                  
G18  23124435.447    23124434.999    23124437.603                   -10656029.859 8 -10656029.864 7                  -8303400.084 8       217.000          71.000         145.000                  
G25  24768120.320    24768120.382    24768128.366                     1970291.182 7   1970291.194 6                   1535274.704 6        59.000          22.000          24.000                  
G26  21683645.506    21683645.203    21683650.935                   -15247569.630 8 -15247569.624 7                 -11881229.720 9       204.000          98.000         770.000                  
G27  23105438.671    23105437.457    23105442.351                    -9056098.011 8  -9056098.005 8                  -7056701.977 8       196.000         117.000         376.000                  
G28  21750083.440    21750082.830    21750085.045                   -16149852.764 8 -16149852.766 8                 -12584305.654 8       303.000         118.000         213.000                  
G29  22562457.747    22562456.927    22562458.914                   -12970688.169 8 -12970688.173 8                 -10107036.606 9       235.000         124.000         540.000                  
G31  23116079.129    23116078.862    23116080.942                    -7828172.145 8  -7828172.151 7                  -6099883.039 8       185.000          86.000         177.000                  
G32  19427484.885    19427484.585    19427488.084                   -23555637.987 9 -23555637.989 9                 -18355045.282 9      1109.000        3107.000        2831.000                  
> 2024 10 31 07 26  0.0000000  0 10
G10  22957738.530    22957737.499    22957742.477                    -8809823.443 8  -8809823.440 7                  -6864793.907 8       192.000          92.000         412.000                  
G16  22575877.614    22575875.450    22575878.645                    -3589881.672 8  -3589881.667 6                  -2797315.804 7       169.000          26.000          62.000                  
G18  23083874.302    23083874.409    23083876.974                   -10869175.930 8 -10869175.935 7                  -8469487.787 8       214.000          60.000         147.000                  
G25  24818335.397    24818332.714    24818340.920                     2234157.080 7   2234157.074 6                   1740883.787 6        58.000          21.000          28.000                  
G26  21732862.126    21732861.252    21732867.175                   -14988936.755 8 -14988936.753 7                 -11679697.699 9       197.000          91.000         735.000                  
G27  23047641.937    23047640.781    23047645.598                    -9359820.736 8  -9359820.741 8                  -7293368.829 8       196.000         114.000         388.000                  
G28  21803019.748    21803019.314    21803021.387                   -15871669.658 8 -15871669.660 8                 -12367539.688 8       294.000         108.000         198.000                  
G29  22612684.227    22612683.835    22612686.098                   -12706743.228 8 -12706743.236 8                  -9901365.344 9       237.000         132.000         543.000                  
G31  23178657.101    23178656.516    23178658.524                    -7499326.144 8  -7499326.135 7                  -5843639.629 8       169.000          67.000         175.000                  
G32  19417112.719    19417112.491    19417115.961                   -23610143.909 9 -23610143.910 9                 -18397517.399 9      1138.000        3237.000        2881.000                  
> 2024 10 31 07 26 10.0000000  0 10
G10  22898101.989    22898101.798    22898106.279                    -9123212.328 8  -9123212.328 7                  -7108992.755 8       196.000          99.000         421.000                  
G16  22589597.659    22589596.651    22589600.032                    -3517777.164 8  -3517777.191 6                  -2741130.471 7       169.000          32.000          64.000                  
G18  23043965.758    23043964.770    23043967.324                   -11078902.377 8 -11078902.380 7                  -8632910.841 8       217.000          71.000         143.000                  
G25  24868612.641    24868610.818    24868618.750                     2498365.935 7   2498365.939 6                   1946760.084 6        58.000          24.000          30.000                  
G26  21782733.786    21782733.205    21782739.254                   -14726857.224 8 -14726857.219 7                 -11475479.954 9       193.000          85.000         710.000                  
G27  22990325.910    22990325.610    22990330.303                    -9661013.697 8  -9661013.701 8                  -7528064.422 8       202.000         121.000         412.000                  
G28  21856378.385    21856377.803    21856380.112                   -15591268.765 8 -15591268.759 8                 -12149045.574 8       284.000         104.000         181.000                  
G29  22663531.403    22663530.491    22663532.768                   -12439543.088 8 -12439543.092 8                  -9693157.545 9       247.000         136.000         554.000                  
G31  23241505.326    23241504.773    23241507.047                    -7169054.625 8  -7169054.623 7                  -5586285.423 8       153.000          53.000         143.000                  
G32  19407512.902    19407512.606    19407516.159                   -23660591.419 9 -23660591.422 9                 -18436827.115 9      1149.000        3297.000        2928.000                  
> 2024 10 31 07 26 20.0000000  0 10
G10  22838685.389    22838684.899    22838689.556                    -9435447.949 8  -9435447.950 8                  -7352292.964 8       209.000         110.000         426.000                  
G16  22604030.877    22604029.477    22604032.968                    -3441930.413 8  -3441930.400 6                  -2682029.102 7       167.000          28.000          65.000                  
G18  23004710.044    23004709.952    23004712.505                   -11285186.421 8 -11285186.423 7                  -8793651.486 8       219.000          61.000         140.000                  
G25  24918947.254    24918942.894    24918952.684                     2762863.707 7   2762863.733 6                   2152861.550 6        59.000          23.000          25.000                  
G26  21833249.568    21833249.023    21833254.978                   -14461396.465 8 -14461396.462 7                 -11268627.475 9       191.000          87.000         702.000                  
G27  22933500.829    22933500.686    22933505.246                    -9959630.252 8  -9959630.252 8                  -7760752.419 8       206.000         125.000         446.000                  
G28  21910148.131    21910147.278    21910149.226                   -15308709.539 8 -15308709.540 7                 -11928869.634 8       278.000          98.000         171.000                  
G29  22714982.731    22714981.867    22714984.324                   -12169164.845 8 -12169164.842 8                  -9482473.283 9       250.000         144.000         574.000                  
G31  23304614.017    23304614.191    23304616.219                    -6837413.994 8  -6837413.985 7                  -5327864.353 8       145.000          54.000         117.000                  
G32  19398684.329    19398683.963    19398687.484                   -23706986.105 9 -23706986.106 9                 -18472978.779 9      1144.000        3266.000        2859.000                  
> 2024 10 31 07 26 30.0000000  0 11
G10  22779494.191    22779493.982    22779498.451                    -9746497.863 8  -9746497.866 8                  -7594669.279 8       212.000         116.000         433.000                  
G16  22619173.881    22619172.097    22619174.912                    -3362359.520 8  -3362359.507 6                  -2620025.796 7       166.000          31.000          53.000                  
G18  22966116.021    22966115.984    22966118.377                   -11487998.530 8 -11487998.524 7                  -8951686.721 8       214.000          66.000         138.000                  
G23  24602910.545    24602888.332    24602911.134                     -445049.998 7   -445050.010 6                   -346795.266 6        73.000          28.000          15.000                  
G25  24969324.518    24969321.662    24969331.309                     3027602.276 7   3027602.278 6                   2359150.598 6        55.000          20.000          22.000                  
G26  21884397.717    21884396.905    21884402.678                   -14192613.039 8 -14192613.034 7                 -11059185.897 9       196.000          95.000         670.000                  
G27  22877176.563    22877175.958    22877180.783                   -10255616.488 8 -10255616.485 8                  -7991390.813 8       208.000         124.000         471.000                  
G28  21964317.931    21964317.384    21964319.239                   -15024044.090 8 -15024044.086 7                 -11707052.442 8       265.000          88.000         161.000                  
G29  22767025.330    22767024.707    22767027.160                   -11895678.586 8 -11895678.588 8                  -9269367.176 9       247.000         147.000         590.000                  
G31  23367975.575    23367974.669    23367976.466                    -6504453.145 8  -6504453.155 6                  -5068414.536 8       138.000          45.000         103.000                  
G32  19390627.013    19390626.722    19390630.193                   -23749327.133 9 -23749327.135 9                 -18505971.763 9      1132.000        3222.000        2798.000                  
> 2024 10 31 07 26 40.0000000  0 11
G10  22720540.942    22720540.411    22720545.026                   -10056299.607 8 -10056299.604 8                  -7836072.974 8       226.000         117.000         450.000                  
G16  22635027.062    22635024.129    22635026.881                    -3279053.832 8  -3279053.821 6                  -2555112.212 7       162.000          30.000          53.000                  
G18  22928194.432    22928194.180    22928196.261                   -11687280.103 8 -11687280.097 7                  -9106970.891 8       213.000          63.000         132.000                  
G23  24536389.416    24536371.275    24536380.187                     -794606.724 7   -794606.716 6                   -619174.598 6        72.000          19.000          19.000                  
G25  25019746.529    25019743.369    25019751.827                     3292565.003 7   3292565.026 6                   2565614.248 6        55.000          23.000          25.000                  
G26  21936171.950    21936171.546    21936177.173                   -13920536.162 8 -13920536.162 7                 -10847177.980 9       192.000          95.000         646.000                  
G27  22821368.173    22821367.786    22821372.546                   -10548888.881 8 -10548888.884 8                  -8219914.527 8       210.000         126.000         486.000                  
G28  22018884.484    22018883.902    22018886.116                   -14737294.912 8 -14737294.912 7                 -11483611.554 8       253.000          86.000         152.000                  
G29  22819651.754    22819651.057    22819653.468                   -11619124.899 8 -11619124.901 8                  -9053870.841 9       254.000         148.000         590.000                  
G31  23431583.091    23431582.102    23431584.503                    -6170191.255 8  -6170191.259 6                  -4807950.893 7       134.000          49.000          88.000                  
G32  19383346.806    19383346.457    19383349.961                   -23787584.671 9 -23787584.673 9                 -18535782.766 9      1111.000        3086.000        2806.000                  
> 2024 10 31 07 26 50.0000000  0 11
G10  22661830.216    22661829.967    22661834.366                   -10364824.269 8 -10364824.263 8                  -8076481.524 8       232.000         133.000         476.000                  
G16  22651585.118    22651583.032    22651586.379                    -3192037.142 8  -3192037.174 6                  -2487306.933 7       168.000          29.000          52.000                  
G18  22890948.046    22890948.263    22890950.849                   -11883006.833 8 -11883006.810 7                  -9259485.035 8       213.000          54.000         139.000                  
G23  24470002.296    24469984.725    24470014.222                    -1143476.218 7  -1143476.213 6                   -891023.420 6        69.000          22.000          17.000                  
G25  25070198.167    25070197.847    25070207.295                     3557701.382 7   3557701.393 6                   2772213.308 6        53.000          29.000          25.000                  
G26  21988561.175    21988560.554    21988566.454                   -13645229.033 8 -13645229.029 7                 -10632652.985 9       181.000          77.000         618.000                  
G27  22766086.348    22766085.718    22766090.265                   -10839397.564 8 -10839397.563 8                  -8446284.694 9       212.000         127.000         508.000                  
G28  22073836.604    22073836.167    22073838.226                   -14448518.065 8 -14448518.063 7                 -11258590.658 8       237.000          77.000         149.000                  
G29  22872847.866    22872847.323    22872849.486                   -11339578.212 8 -11339578.211 8                  -8836042.290 9       252.000         146.000         576.000                  
G31  23495428.418    23495428.011    23495429.664                    -5834680.977 8  -5834680.990 6                  -4546514.448 7       134.000          49.000          71.000                  
G32  19376842.581    19376842.358    19376845.848                   -23821763.528 9 -23821763.530 9                 -18562415.563 9      1082.000        2943.000        2797.000                  
> 2024 10 31 07 27  0.0000000  0 10
G10  22603369.929    22603369.325    22603373.787                   -10672035.220 8 -10672035.216 8                  -8315866.421 9       243.000         147.000         520.000                  
G16  22668845.620    22668844.158    22668846.514                    -3101326.623 8  -3101326.633 6                  -2416623.349 6       168.000          26.000          47.000                  
G18  22854385.424    22854384.778    22854387.183                   -12075147.442 8 -12075147.433 7                  -9409204.804 8       211.000          60.000         133.000                  
G23  24403752.928    24403735.436    24403756.995                    -1491625.042 7  -1491625.033 6                  -1162309.641 6        65.000          23.000          18.000                  
G26  22041554.020    22041553.574    22041559.592                   -13366747.574 8 -13366747.572 7                 -10415654.467 9       174.000          77.000         588.000                  
G27  22711340.938    22711340.497    22711344.862                   -11127085.133 8 -11127085.135 8                  -8670456.566 9       217.000         129.000         509.000                  
G28  22129165.466    22129165.343    22129167.149                   -14157761.940 8 -14157761.938 7                 -11032027.465 8       222.000          69.000         132.000                  
G29  22926600.131    22926599.943    22926602.303                   -11057105.530 8 -11057105.531 8                  -8615933.727 9       249.000         136.000         579.000                  
G31  23559502.409    23559502.383    23559505.282                    -5497967.307 8  -5497967.302 6                  -4284140.285 7       124.000          42.000          69.000                  
G32  19371115.004    19371114.750    19371118.232                   -23851861.753 9 -23851861.755 9                 -18585868.637 9      1077.000        2903.000        2735.000                  
> 2024 10 31 07 27 10.0000000  0 10
G10  22545171.258    22545170.669    22545174.781                   -10977872.005 8 -10977872.006 8                  -8554180.539 9       247.000         157.000         538.000                  
G16  22686811.625    22686809.969    22686812.867                    -3006916.611 8  -3006916.604 6                  -2343057.014 6       171.000          33.000          50.000                  
G18  22818514.771    22818514.070    22818516.568                   -12263647.755 8 -12263647.752 7                  -9556087.978 8       212.000          60.000         134.000                  
G23  24337649.822    24337633.782    24337649.695                    -1838996.034 7  -1838996.007 6                  -1433025.154 6        69.000          21.000          18.000                  
G26  22095145.776    22095144.863    22095150.687                   -13085124.453 8 -13085124.457 7                 -10196207.877 9       175.000          72.000         553.000                  
G27  22657148.117    22657147.428    22657151.714                   -11411870.820 8 -11411870.822 8                  -8892367.239 9       221.000         130.000         539.000                  
G28  22184866.779    22184866.011    22184868.158                   -13865051.264 8 -13865051.255 7                 -10803941.234 8       212.000          57.000         127.000                  
G29  22980901.724    22980901.227    22980903.655                   -10771750.380 8 -10771750.379 8                  -8393579.070 9       246.000         136.000         564.000                  
G31  23623803.652    23623802.441    23623804.604                    -5160071.321 8  -5160071.329 6                  -4020844.816 7       115.000          36.000          65.000                  
G32  19366168.651    19366168.391    19366171.854                   -23877854.647 9 -23877854.648 9                 -18606122.743 9      1070.000        2872.000        2698.000                  
> 2024 10 31 07 27 20.0000000  0 10
G10  22487235.694    22487234.936    22487239.121                   -11282324.160 8 -11282324.159 8                  -8791415.726 9       248.000         158.000         543.000                  
G16  22705472.932    22705470.755    22705473.980                    -2908852.528 8  -2908852.539 6                  -2266643.358 7       174.000          31.000          51.000                  
G18  22783337.545    22783336.953    22783339.195                   -12448504.413 8 -12448504.420 7                  -9700131.942 8       216.000          63.000         135.000                  
G23  24271697.844    24271682.278    24271694.679                    -2185581.949 7  -2185581.963 6                  -1703131.876 6        66.000          21.000          21.000                  
G26  22149318.329    22149317.978    22149323.648                   -12800442.762 8 -12800442.764 7                  -9974377.978 9       168.000          69.000         527.000                  
G27  22603513.922    22603512.332    22603516.658                   -11693724.050 8 -11693724.049 8                  -9111992.894 9       216.000         129.000         574.000                  
G28  22240925.627    22240924.640    22240926.895                   -13570460.842 8 -13570460.832 7                 -10574390.250 8       203.000          52.000         130.000                  
G29  23035734.075    23035732.957    23035735.666                   -10483606.558 8 -10483606.563 8                  -8169051.417 9       239.000         135.000         548.000                  
G31  23688314.383    23688312.955    23688315.265                    -4821064.217 8  -4821064.212 6                  -3756683.529 7       102.000          37.000          58.000                  
G32  19361998.441    19361998.254    19362001.725                   -23899768.577 9 -23899768.579 9                 -18623198.457 9      1074.000        2879.000        2681.000                  
> 2024 10 31 07 27 30.0000000  0 10
G10  22429577.482    22429576.497    22429580.800                   -11585319.553 8 -11585319.555 8                  -9027515.762 9       249.000         159.000         552.000                  
G16  22724832.099    22724829.586    22724833.068                    -2807119.161 8  -2807119.163 6                  -2187370.485 6       174.000          31.000          45.000                  
G18  22748865.866    22748865.503    22748867.809                   -12629653.268 8 -12629653.268 7                  -9841286.715 8       217.000          62.000         136.000                  
G23  24205905.736    24205892.149    24205905.317                    -2531313.897 7  -2531313.886 6                  -1972549.977 6        69.000          21.000          23.000                  
G26  22204069.078    22204068.989    22204074.703                   -12512724.368 8 -12512724.384 7                  -9750181.812 8       161.000          67.000         489.000                  
G27  22550452.843    22550452.770    22550457.046                   -11972552.919 8 -11972552.919 8                  -9329261.915 9       210.000         124.000         614.000                  
G28  22297338.498    22297338.356    22297341.109                   -13274003.952 8 -13274003.947 6                 -10343384.869 8       201.000          47.000         137.000                  
G29  23091090.432    23091089.730    23091092.066                   -10192706.452 8 -10192706.452 8                  -7942376.002 9       236.000         130.000         507.000                  
G31  23753034.534    23753033.106    23753036.936                    -4480955.544 7  -4480955.547 6                  -3491663.858 7        93.000          26.000          62.000                  
G32  19358611.088    19358610.873    19358614.262                   -23917569.203 9 -23917569.205 9                 -18637068.999 9      1077.000        2890.000        2623.000                  
> 2024 10 31 07 27 40.0000000  0 10
G10  22372200.929    22372200.827    22372204.888                   -11886830.694 8 -11886830.692 8                  -9262459.274 9       254.000         158.000         546.000                  
G16  22744882.976    22744881.780    22744885.189                    -2701746.892 8  -2701746.908 6                  -2105262.138 6       169.000          34.000          45.000                  
G18  22715103.077    22715103.264    22715104.943                   -12807075.607 8 -12807075.598 7                  -9979537.717 8       226.000          70.000         138.000                  
G23  24140281.163    24140270.843    24140281.684                    -2876167.569 7  -2876167.571 6                  -2241288.096 6        62.000          21.000          20.000                  
G26  22259385.187    22259384.981    22259390.721                   -12222036.129 8 -12222036.142 7                  -9523671.482 8       164.000          65.000         485.000                  
G27  22497978.138    22497977.410    22497981.976                   -12248310.361 8 -12248310.363 8                  -9544137.615 9       211.000         117.000         637.000                  
G28  22354097.111    22354096.609    22354098.841                   -12975738.501 8 -12975738.525 7                 -10110970.209 8       193.000          58.000         133.000                  
G29  23146956.976    23146955.751    23146958.093                    -9899127.309 8  -9899127.309 8                  -7713613.017 8       232.000         126.000         468.000                  
G31  23817954.780    23817953.655    23817956.183                    -4139799.532 7  -4139799.539 6                  -3225828.091 7        85.000          26.000          59.000                  
G32  19356004.279    19356004.036    19356007.447                   -23931267.799 9 -23931267.800 9                 -18647743.152 9      1083.000        2922.000        2575.000                  
> 2024 10 31 07 27 50.0000000  0 10
G10  22315116.219    22315115.807    22315119.733                   -12186814.220 8 -12186814.221 8                  -9496212.459 9       263.000         162.000         557.000                  
G16  22765623.789    22765623.010    22765625.615                    -2592751.155 8  -2592751.185 6                  -2020330.280 6       160.000          27.000          44.000                  
G18  22682056.145    22682055.857    22682058.336                   -12980737.863 8 -12980737.862 7                 -10114858.792 8       236.000          73.000         133.000                  
G23  24074832.001    24074824.433    24074831.064                    -3220102.840 7  -3220102.831 6                  -2509303.246 6        68.000          25.000          23.000                  
G26  22315256.822    22315256.619    22315262.184                   -11928429.477 8 -11928429.478 7                  -9294887.043 8       165.000          73.000         492.000                  
G27  22446099.519    22446098.797    22446103.116                   -12520933.977 8 -12520933.982 8                  -9756571.393 9       214.000         126.000         674.000                  
G28  22411191.781    22411191.270    22411193.311                   -12675706.668 8 -12675706.668 6                  -9877179.133 8       192.000          49.000         131.000                  
G29  23203321.239    23203320.164    23203322.581                    -9602930.779 8  -9602930.780 8                  -7482810.505 8       232.000         121.000         436.000                  
G31  23883066.985    23883065.447    23883067.853                    -3797634.478 7  -3797634.485 6                  -2959206.042 7        81.000          25.000          53.000                  
G32  19354178.696    19354178.486    19354181.898                   -23940860.965 9 -23940860.966 9                 -18655218.284 9      1083.000        2925.000        2584.000                  
> 2024 10 31 07 28  0.0000000  0 10
G10  22258332.420    22258332.014    22258336.029                   -12485213.187 8 -12485213.190 8                  -9728730.930 9       258.000         161.000         592.000                  
G16  22787054.425    22787052.205    22787055.260                    -2480134.918 8  -2480134.951 6                  -1932577.238 6       158.000          27.000          41.000                  
G18  22649733.457    22649733.567    22649735.701                   -13150593.716 8 -13150593.718 7                 -10247213.851 8       236.000          76.000         135.000                  
G23  24009567.279    24009562.107    24009572.856                    -3563065.997 7  -3563065.990 6                  -2776574.206 6        63.000          18.000          17.000                  
G26  22371676.875    22371676.464    22371681.726                   -11631942.605 8 -11631942.601 7                  -9063858.272 9       166.000          68.000         501.000                  
G27  22394831.279    22394831.006    22394835.197                   -12790348.053 8 -12790348.059 8                  -9966504.242 9       216.000         132.000         712.000                  
G28  22468616.875    22468615.426    22468618.273                   -12373937.096 8 -12373937.092 7                  -9642033.982 8       194.000          51.000         133.000                  
G29  23260173.879    23260173.435    23260175.698                    -9304165.129 8  -9304165.132 8                  -7250006.080 8       231.000         121.000         404.000                  
G31  23948364.869    23948364.466    23948367.889                    -3454485.105 7  -3454485.117 6                  -2691816.991 7        75.000          19.000          51.000                  
G32  19353137.481    19353137.230    19353140.639                   -23946332.599 9 -23946332.601 9                 -18659481.835 9      1077.000        2913.000        2604.000                  
> 2024 10 31 07 28 10.0000000  0 10
G10  22201853.721    22201853.172    22201856.998                   -12782011.407 8 -12782011.402 8                  -9960002.072 9       247.000         145.000         627.000                  
G16  22809164.933    22809162.566    22809165.428                    -2363942.860 8  -2363942.882 6                  -1842037.866 6       161.000          30.000          42.000                  
G18  22618136.513    22618135.881    22618138.240                   -13316638.542 8 -13316638.533 7                 -10376599.289 8       242.000          76.000         128.000                  
G23  23944491.577    23944486.766    23944494.070                    -3905044.019 7  -3905044.004 6                  -3043074.490 6        66.000          21.000          21.000                  
G26  22428629.848    22428628.471    22428634.323                   -11332654.786 8 -11332654.780 7                  -8830646.951 8       160.000          70.000         497.000                  
G27  22344181.700    22344180.456    22344184.480                   -13056518.007 8 -13056518.009 8                 -10173909.203 9       216.000         133.000         739.000                  
G28  22526358.310    22526357.845    22526360.465                   -12070499.171 8 -12070499.175 6                  -9405588.813 8       195.000          50.000         124.000                  
G29  23317499.345    23317498.562    23317500.794                    -9002919.472 8  -9002919.477 8                  -7015269.184 8       232.000         123.000         378.000                  
G31  24013838.334    24013838.122    24013840.833                    -3110416.998 7  -3110416.994 6                  -2423712.001 6        74.000          24.000          37.000                  
G32  19352875.556    19352875.314    19352878.681                   -23947708.437 9 -23947708.437 9                 -18660553.863 9      1060.000        2823.000        2527.000                  
> 2024 10 31 07 28 20.0000000  0 10
G10  22145693.489    22145693.000    22145697.303                   -13077131.898 8 -13077131.897 8                 -10189965.928 9       230.000         134.000         650.000                  
G16  22831958.539    22831956.611    22831959.690                    -2244159.735 8  -2244159.753 6                  -1748700.267 6       156.000          30.000          42.000                  
G18  22587276.329    22587276.283    22587278.079                   -13478807.758 8 -13478807.750 7                 -10502964.784 8       242.000          77.000         134.000                  
G23  23879615.652    23879612.872    23879617.847                    -4245963.025 7  -4245963.037 6                  -3308746.014 6        72.000          26.000          19.000                  
G26  22486111.618    22486110.847    22486116.344                   -11030584.756 8 -11030584.759 7                  -8595267.673 8       165.000          62.000         483.000                  
G27  22294165.481    22294165.183    22294169.329                   -13319348.834 8 -13319348.839 8                 -10378712.267 9       211.000         123.000         776.000                  
G28  22584416.972    22584416.279    22584418.857                   -11765401.444 8 -11765401.434 7                  -9167850.303 8       193.000          53.000         131.000                  
G29  23375290.726    23375290.107    23375292.388                    -8699222.172 8  -8699222.173 8                  -6778621.927 8       232.000         116.000         354.000                  
G31  24079486.691    24079486.036    24079489.757                    -2765434.593 7  -2765434.583 6                  -2154894.628 6        70.000          23.000          32.000                  
G32  19353399.770    19353399.377    19353402.696                   -23944954.309 9 -23944954.311 9                 -18658407.742 9      1051.000        2759.000        2463.000                  
> 2024 10 31 07 28 30.0000000  0 10
G10  22089854.739    22089854.597    22089858.776                   -13370564.869 8 -13370564.870 8                 -10418614.820 9       223.000         129.000         635.000                  
G16  22855425.875    22855424.760    22855427.920                    -2120838.619 8  -2120838.616 6                  -1652605.822 6       155.000          27.000          42.000                  
G18  22557153.424    22557153.453    22557154.981                   -13637105.063 8 -13637105.063 7                 -10626313.220 8       246.000          80.000         128.000                  
G23  23814945.221    23814941.937    23814947.030                    -4585816.452 7  -4585816.456 6                  -3573572.361 6        76.000          26.000          20.000                  
G26  22544106.731    22544105.666    22544111.236                   -10725818.861 8 -10725818.859 7                  -8357787.736 8       170.000          78.000         479.000                  
G27  22244791.116    22244790.359    22244794.749                   -13578813.266 8 -13578813.269 8                 -10580892.166 9       203.000         114.000         802.000                  
G28  22642776.221    22642775.468    22642778.139                   -11458719.871 8 -11458719.870 7                  -8928877.653 8       190.000          55.000         122.000                  
G29  23433530.407    23433530.106    23433532.415                    -8393169.150 8  -8393169.154 8                  -6540139.057 8       227.000         112.000         333.000                  
G31  24145294.255    24145294.846    24145296.948                    -2419609.912 7  -2419609.909 6                  -1885420.877 6        68.000          27.000          32.000                  
G32  19354703.148    19354702.833    19354706.192                   -23938104.508 9 -23938104.510 9                 -18653070.214 9      1043.000        2740.000        2466.000                  
> 2024 10 31 07 28 40.0000000  0 10
G10  22034353.149    22034352.192    22034356.237                   -13662231.676 8 -13662231.678 8                 -10645887.511 9       231.000         131.000         616.000                  
G16  22879569.816    22879567.603    22879570.306                    -1993964.301 8  -1993964.306 6                  -1553742.614 6       156.000          32.000          42.000                  
G18  22527779.567    22527779.019    22527780.805                   -13791466.059 8 -13791466.062 7                 -10746594.409 8       246.000          82.000         125.000                  
G23  23750488.483    23750487.433    23750492.151                    -4924528.684 7  -4924528.685 6                  -3837503.717 6        83.000          28.000          23.000                  
G26  22602610.694    22602610.458    22602616.109                   -10418374.663 8 -10418374.667 7                  -8118220.830 8       173.000          80.000         480.000                  
G27  22196075.087    22196074.593    22196079.024                   -13834815.485 8 -13834815.490 8                 -10780374.260 9       199.000         103.000         824.000                  
G28  22701436.051    22701435.188    22701437.844                   -11150461.257 8 -11150461.254 7                  -8688676.151 8       187.000          54.000         118.000                  
G29  23492214.579    23492213.369    23492215.263                    -8084787.366 8  -8084787.365 8                  -6299841.579 8       219.000         111.000         313.000                  
G31  24211262.750    24211263.511    24211265.605                    -2072945.689 7  -2072945.680 6                  -1615292.976 6        70.000          28.000          31.000                  
G32  19356792.379    19356792.156    19356795.393                   -23927125.165 9 -23927125.166 9                 -18644514.871 9      1046.000        2760.000        2461.000                  
> 2024 10 31 07 28 50.0000000  0 10
G10  21979187.971    21979187.402    21979191.451                   -13952123.665 8 -13952123.664 8                 -10871777.242 9       240.000         142.000         607.000                  
G16  22904379.065    22904376.888    22904379.283                    -1863592.713 8  -1863592.738 6                  -1452154.335 6       161.000          27.000          41.000                  
G18  22499153.810    22499153.165    22499154.740                   -13941897.406 8 -13941897.399 7                 -10863813.551 8       249.000          79.000         121.000                  
G23  23686254.695    23686251.217    23686255.049                    -5262094.184 7  -5262094.166 6                  -4100541.530 6        93.000          22.000          27.000                  
G26  22661608.883    22661608.167    22661613.796                   -10108340.107 8 -10108340.101 7                  -7876635.473 8       181.000          83.000         465.000                  
G27  22148023.071    22148022.668    22148026.898                   -14087330.189 8 -14087330.186 8                 -10977138.830 9       198.000         105.000         844.000                  
G28  22760380.444    22760380.527    22760382.824                   -10840702.555 8 -10840702.566 6                  -8447305.768 8       186.000          44.000         117.000                  
G29  23551321.349    23551321.220    23551323.278                    -7774173.865 8  -7774173.864 8                  -6057805.114 8       215.000         108.000         304.000                  
G31  24277376.499    24277376.904    24277380.498                    -1725514.835 7  -1725514.840 6                  -1344567.640 6        61.000          23.000          26.000                  
G32  19359660.490    19359660.218    19359663.422                   -23912053.485 9 -23912053.487 9                 -18632770.685 9      1059.000        2816.000        2466.000                  
> 2024 10 31 07 29  0.0000000  0 10
G10  21924375.713    21924375.024    21924378.698                   -14240165.956 8 -14240165.956 8                 -11096225.669 9       238.000         144.000         605.000                  
G16  22929854.176    22929852.798    22929854.937                    -1729714.230 8  -1729714.217 6                  -1347833.377 6       155.000          32.000          40.000                  
G18  22471286.637    22471285.715    22471287.634                   -14088340.403 8 -14088340.398 7                 -10977924.893 8       248.000          79.000         121.000                  
G23  23622247.290    23622247.247    23622250.080                    -5598441.090 8  -5598441.080 6                  -4362629.817 6       101.000          25.000          30.000                  
G26  22721094.512    22721094.866    22721100.135                    -9795736.966 8  -9795736.960 7                  -7633048.639 8       186.000          81.000         446.000                  
G27  22100652.253    22100651.427    22100655.830                   -14336266.197 8 -14336266.195 8                 -11171114.799 9       189.000         105.000         867.000                  
G28  22819610.134    22819609.382    22819611.434                   -10529454.329 8 -10529454.333 6                  -8204774.724 8       182.000          50.000         109.000                  
G29  23610848.682    23610847.822    23610849.843                    -7461359.449 8  -7461359.448 8                  -5814053.661 8       208.000         104.000         291.000                  
G31  24343637.122    24343635.133    24343638.102                    -1377323.804 7  -1377323.826 6                  -1073250.026 6        55.000          26.000          26.000                  
G32  19363312.514    19363312.351    19363315.561                   -23892861.489 9 -23892861.490 9                 -18617815.875 9      1072.000        2894.000        2535.000                  
> 2024 10 31 07 29 10.0000000  0 10
G10  21869916.373    21869916.355    21869920.375                   -14526346.031 8 -14526346.033 8                 -11319223.040 9       241.000         144.000         611.000                  
G16  22955988.302    22955985.814    22955989.253                    -1592382.557 8  -1592382.550 6                  -1240821.663 6       153.000          32.000          40.000                  
G18  22444176.647    22444176.489    22444177.861                   -14230799.717 8 -14230799.711 7                 -11088932.066 8       250.000          88.000         119.000                  
G23  23558477.037    23558476.330    23558477.655                    -5933559.855 8  -5933559.823 6                  -4623761.204 6       116.000          23.000          32.000                  
G26  22781054.764    22781053.761    22781059.363                    -9480649.624 8  -9480649.631 7                  -7387526.078 8       176.000          79.000         425.000                  
G27  22053966.713    22053966.753    22053971.057                   -14581595.325 8 -14581595.331 8                 -11362280.218 9       194.000         103.000         861.000                  
G28  22879107.526    22879107.817    22879109.875                   -10216789.497 8 -10216789.506 7                  -7961139.822 8       186.000          54.000         110.000                  
G29  23670776.274    23670775.467    23670777.544                    -7146437.310 8  -7146437.309 7                  -5568659.830 8       202.000          87.000         277.000                  
G31  24410025.396    24410025.221    24410028.315                    -1028441.828 7  -1028441.864 6                   -801394.157 6        53.000          22.000          22.000                  
G32  19367742.078    19367741.812    19367745.046                   -23869584.446 9 -23869584.447 9                 -18599677.921 9      1093.000        2987.000        2569.000                  
> 2024 10 31 07 29 20.0000000  0  9
G10  21815824.776    21815824.041    21815828.029                   -14810602.366 8 -14810602.363 8                 -11540721.367 9       244.000         150.000         591.000                  
G16  22982777.538    22982775.307    22982778.783                    -1451603.343 8  -1451603.356 6                  -1131123.569 6       147.000          29.000          34.000                  
G18  22417834.547    22417833.464    22417835.282                   -14369232.076 8 -14369232.079 7                 -11196801.366 8       251.000          83.000         117.000                  
G23  23494950.237    23494949.948    23494951.869                    -6267392.021 8  -6267392.045 6                  -4883889.975 6       118.000          24.000          34.000                  
G26  22841479.816    22841479.068    22841484.494                    -9163113.720 8  -9163113.717 7                  -7140095.552 8       173.000          71.000         401.000                  
G27  22007983.313    22007983.073    22007987.263                   -14823240.909 8 -14823240.912 8                 -11550575.331 9       192.000         110.000         858.000                  
G28  22938871.627    22938870.604    22938873.064                    -9902732.037 8  -9902732.032 6                  -7716419.773 8       175.000          41.000         102.000                  
G29  23731096.383    23731096.138    23731098.194                    -6829451.661 8  -6829451.666 7                  -5321658.074 8       195.000          85.000         278.000                  
G32  19372951.363    19372951.061    19372954.270                   -23842209.653 9 -23842209.654 9                 -18578346.900 9      1119.000        3144.000        2629.000                  
> 2024 10 31 07 29 30.0000000  0  9
G10  21762109.983    21762109.637    21762113.113                   -15092875.222 8 -15092875.223 8                 -11760674.114 9       253.000         162.000         543.000                  
G16  23010221.500    23010218.814    23010221.542                    -1307384.711 8  -1307384.698 6                  -1018745.417 6       148.000          30.000          30.000                  
G18  22392265.872    22392265.029    22392266.800                   -14503596.836 8 -14503596.833 7                 -11301501.117 8       252.000          85.000         120.000                  
G23  23431680.287    23431679.541    23431681.347                    -6599880.732 8  -6599880.731 6                  -5142971.905 6       128.000          33.000          38.000                  
G26  22902363.387    22902362.423    22902368.454                    -8843166.638 8  -8843166.644 7                  -6890786.194 8       167.000          72.000         392.000                  
G27  21962715.083    21962714.678    21962718.670                   -15061128.504 8 -15061128.505 8                 -11735942.153 9       204.000         110.000         840.000                  
G28  22998895.263    22998894.007    22998896.436                    -9587307.443 8  -9587307.422 6                  -7470634.434 7       171.000          37.000          98.000                  
G29  23791800.832    23791800.366    23791802.432                    -6510448.460 8  -6510448.464 7                  -5073084.210 8       190.000          82.000         267.000                  
G32  19378942.287    19378941.983    19378945.168                   -23810727.090 9 -23810727.091 9                 -18553815.015 9      1132.000        3231.000        2676.000                  
> 2024 10 31 07 29 40.0000000  0  9
G10  21708774.712    21708774.485    21708777.936                   -15373151.980 8 -15373151.981 8                 -11979071.497 8       247.000         145.000         486.000                  
G16  23038308.368    23038306.909    23038309.900                    -1159782.552 8  -1159782.563 6                   -903730.752 6       144.000          26.000          36.000                  
G18  22367469.265    22367468.793    22367470.632                   -14633901.417 8 -14633901.412 7                 -11403037.086 8       248.000          79.000         124.000                  
G23  23368666.805    23368666.526    23368668.614                    -6931016.151 8  -6931016.129 6                  -5400999.327 6       139.000          31.000          48.000                  
G26  22963689.637    22963689.435    22963695.219                    -8520893.020 8  -8520893.022 7                  -6639663.958 8       168.000          74.000         359.000                  
G27  21918166.970    21918166.441    21918170.167                   -15295231.387 8 -15295231.387 8                 -11918359.898 9       205.000         121.000         821.000                  
G28  23059164.368    23059164.154    23059166.050                    -9270588.237 8  -9270588.250 6                  -7223840.322 7       163.000          36.000          89.000                  
G29  23852871.690    23852870.691    23852873.176                    -6189520.668 8  -6189520.661 7                  -4823010.676 8       179.000          78.000         264.000                  
G32  19385707.721    19385707.380    19385710.593                   -23775174.741 9 -23775174.742 9                 -18526111.883 9      1139.000        3264.000        2773.000                  
> 2024 10 31 07 29 50.0000000  0  9
G10  21655831.054    21655830.363    21655834.250                   -15651373.009 8 -15651373.011 8                 -12195867.011 8       242.000         149.000         460.000                  
G16  23067037.823    23067036.645    23067039.317                    -1008806.716 8  -1008806.749 6                   -786087.246 6       136.000          28.000          32.000                  
G18  22343452.916    22343452.605    22343454.348                   -14760107.315 8 -14760107.311 7                 -11501379.295 8       251.000          79.000         128.000                  
G23  23305921.180    23305921.526    23305923.841                    -7260741.488 8  -7260741.493 6                  -5657928.027 7       145.000          39.000          57.000                  
G26  23025453.015    23025451.612    23025457.284                    -8196330.640 8  -8196330.632 7                  -6386758.282 8       161.000          66.000         333.000                  
G27  21874352.723    21874351.951    21874355.905                   -15525476.322 8 -15525476.328 8                 -12097771.463 9       200.000         119.000         800.000                  
G28  23119675.224    23119674.854    23119677.060                    -8952599.857 8  -8952599.866 6                  -6976057.247 7       158.000          36.000          82.000                  
G29  23914299.780    23914298.837    23914301.295                    -5866714.123 8  -5866714.135 7                  -4571473.186 8       172.000          72.000         257.000                  
G32  19393249.044    19393248.782    19393252.004                   -23735544.518 9 -23735544.520 9                 -18495231.175 9      1138.000        3246.000        2881.000                  
> 2024 10 31 07 30  0.0000000  0  9
G10  21603288.131    21603287.515    21603291.259                   -15927487.781 8 -15927487.787 8                 -12411021.284 8       253.000         163.000         467.000                  
G16  23096407.461    23096404.700    23096407.361                     -854476.799 8   -854476.809 6                   -665830.174 6       137.000          18.000          33.000                  
G18  22320221.756    22320221.771    22320223.154                   -14882186.035 8 -14882186.043 7                 -11596505.518 8       252.000          86.000         140.000                  
G23  23243454.952    23243453.990    23243456.346                    -7589008.965 8  -7589008.957 6                  -5913720.716 7       150.000          36.000          59.000                  
G26  23087641.157    23087640.471    23087646.161                    -7869526.397 8  -7869526.382 7                  -6132105.706 8       160.000          66.000         308.000                  
G27  21831284.420    21831283.806    21831287.918                   -15751799.750 8 -15751799.749 8                 -12274127.286 9       219.000         123.000         783.000                  
G28  23180421.352    23180421.431    23180423.087                    -8633376.690 8  -8633376.691 6                  -6727312.003 7       152.000          30.000          73.000                  
G29  23976074.159    23976074.068    23976076.454                    -5542083.624 8  -5542083.621 7                  -4318514.443 8       168.000          68.000         233.000                  
G32  19401565.986    19401565.714    19401568.958                   -23691838.375 9 -23691838.376 9                 -18461174.432 9      1118.000        3128.000        2891.000                  
> 2024 10 31 07 30 10.0000000  0  9
G10  21551151.027    21551150.995    21551154.584                   -16201467.775 8 -16201467.773 8                 -12624512.097 9       267.000         180.000         512.000                  
G16  23126404.937    23126401.994    23126405.962                     -696835.148 8   -696835.153 6                   -542992.568 6       128.000          21.000          32.000                  
G18  22297777.451    22297777.158    22297779.024                   -15000132.110 8 -15000132.113 7                 -11688411.500 8       255.000          90.000         141.000                  
G23  23181270.016    23181269.042    23181271.037                    -7915792.711 8  -7915792.727 6                  -6168357.275 7       162.000          39.000          66.000                  
G26  23150243.297    23150243.160    23150248.672                    -7540549.184 8  -7540549.179 7                  -5875759.927 8       158.000          67.000         275.000                  
G27  21788970.337    21788969.980    21788973.993                   -15974160.738 8 -15974160.736 8                 -12447395.482 9       230.000         143.000         769.000                  
G28  23241392.488    23241391.534    23241394.081                    -8312974.989 8  -8312974.986 6                  -6477648.418 7       143.000          36.000          68.000                  
G29  24038182.004    24038181.763    24038183.999                    -5215705.897 8  -5215705.892 7                  -4064194.232 8       162.000          58.000         226.000                  
G32  19410653.969    19410653.584    19410656.844                   -23644081.045 9 -23644081.047 9                 -18423960.911 9      1089.000        2975.000        2900.000                  
> 2024 10 31 07 30 20.0000000  0  9
G10  21499431.105    21499430.813    21499434.478                   -16473258.617 8 -16473258.614 8                 -12836297.118 9       275.000         200.000         560.000                  
G16  23157029.357    23157027.606    23157029.948                     -535898.909 8   -535898.917 6                   -417587.732 6       133.000          21.000          29.000                  
G18  22276125.505    22276125.081    22276126.637                   -15113915.123 8 -15113915.129 7                 -11777073.539 8       259.000          96.000         147.000                  
G23  23119377.233    23119376.634    23119378.787                    -8241040.879 8  -8241040.879 6                  -6421797.267 7       167.000          45.000          66.000                  
G26  23213250.593    23213250.997    23213256.366                    -7209442.059 8  -7209442.064 7                  -5617754.472 8       155.000          62.000         249.000                  
G27  21747423.204    21747422.881    21747426.545                   -16192493.137 8 -16192493.135 8                 -12617524.547 9       236.000         159.000         781.000                  
G28  23302581.510    23302580.760    23302582.403                    -7991424.883 8  -7991424.887 6                  -6227089.988 7       139.000          33.000          59.000                  
G29  24100614.257    24100612.410    24100614.545                    -4887631.579 8  -4887631.586 7                  -3808552.008 8       162.000          65.000         206.000                  
G32  19420512.608    19420512.400    19420515.710                   -23592272.311 9 -23592272.312 9                 -18383590.444 9      1056.000        2802.000        2925.000                  
> 2024 10 31 07 30 30.0000000  0  9
G10  21448137.131    21448136.844    21448140.638                   -16742809.785 8 -16742809.785 8                 -13046336.890 9       281.000         193.000         583.000                  
G16  23188278.818    23188275.704    23188278.318                     -371690.029 8   -371690.009 6                   -289632.788 6       129.000          25.000          30.000                  
G18  22255270.088    22255269.703    22255271.918                   -15223509.782 8 -15223509.776 7                 -11862471.932 8       267.000          97.000         144.000                  
G23  23057786.279    23057785.149    23057786.912                    -8564705.665 8  -8564705.677 6                  -6674003.460 7       172.000          41.000          70.000                  
G26  23276655.538    23276654.669    23276660.108                    -6876252.125 8  -6876252.127 7                  -5358126.062 8       150.000          55.000         230.000                  
G27  21706654.539    21706653.913    21706657.377                   -16406735.431 8 -16406735.436 8                 -12784466.497 9       248.000         166.000         803.000                  
G28  23363982.244    23363981.700    23363983.832                    -7668760.536 8  -7668760.543 6                  -5975663.328 6       129.000          31.000          49.000                  
G29  24163355.790    24163355.336    24163357.878                    -4557915.238 8  -4557915.248 7                  -3551630.292 8       156.000          57.000         193.000                  
G32  19431141.609    19431141.355    19431144.656                   -23536416.926 9 -23536416.928 9                 -18340066.777 9      1031.000        2672.000        2864.000                  
> 2024 10 31 07 30 40.0000000  0  9
G10  21397275.011    21397274.536    21397278.243                   -17010092.677 8 -17010092.676 8                 -13254609.169 9       299.000         218.000         619.000                  
G16  23220140.205    23220138.581    23220140.923                     -204252.598 8   -204252.581 6                   -159162.105 6       134.000          20.000          26.000                  
G18  22235212.879    22235212.101    22235213.653                   -15328913.386 8 -15328913.381 7                 -11944604.572 8       273.000          97.000         141.000                  
G23  22996500.441    22996500.212    22996501.625                    -8886760.821 8  -8886760.822 6                  -6924955.400 7       179.000          44.000          74.000                  
G26  23340442.160    23340441.853    23340447.377                    -6541048.105 8  -6541048.105 7                  -5096928.240 8       141.000          55.000         210.000                  
G27  21666671.102    21666670.649    21666674.203                   -16616848.508 8 -16616848.508 8                 -12948190.892 9       250.000         175.000         838.000                  
G28  23425586.110    23425584.501    23425586.392                    -7345037.466 8  -7345037.441 6                  -5723411.701 6       124.000          31.000          50.000                  
G29  24226396.855    24226396.242    24226398.581                    -4226632.826 8  -4226632.816 6                  -3293488.271 8       154.000          50.000         173.000                  
G32  19442535.495    19442535.135    19442538.453                   -23476541.989 9 -23476541.991 9                 -18293410.983 9      1011.000        2562.000        2784.000                  
> 2024 10 31 07 30 50.0000000  0  9
G10  21346855.134    21346854.492    21346858.152                   -17275052.064 8 -17275052.060 8                 -13461070.978 9       331.000         266.000         656.000                  
G16  23252613.486    23252610.868    23252614.983                      -33604.838 8    -33604.845 6                    -26189.855 6       128.000          27.000          31.000                  
G18  22215957.631    22215957.523    22215959.184                   -15430097.648 8 -15430097.647 8                 -12023449.410 8       278.000         109.000         143.000                  
G23  22935532.062    22935531.298    22935533.109                    -9207153.421 8  -9207153.426 6                  -7174611.837 7       185.000          46.000          77.000                  
G26  23404604.894    23404604.783    23404609.828                    -6203872.044 8  -6203872.053 7                  -4834193.774 8       137.000          53.000         193.000                  
G27  21627485.828    21627485.437    21627489.129                   -16822767.236 8 -16822767.242 8                 -13108646.961 9       263.000         187.000         880.000                  
G28  23487383.919    23487382.869    23487385.289                    -7020284.369 8  -7020284.398 6                  -5470357.446 7       115.000          24.000          52.000                  
G29  24289726.198    24289725.943    24289728.738                    -3893833.444 8  -3893833.464 7                  -3034164.220 8       144.000          57.000         169.000                  
G32  19454693.878    19454693.629    19454696.951                   -23412648.861 9 -23412648.862 9                 -18243624.119 9      1001.000        2531.000        2753.000                  
> 2024 10 31 07 31  0.0000000  0  9
G10  21296886.570    21296885.926    21296889.795                   -17537637.951 8 -17537637.948 8                 -13665683.296 9       352.000         303.000         704.000                  
G16  23285693.808    23285690.875    23285693.996                      140229.099 8    140229.091 6                    109265.110 6       127.000          30.000          30.000                  
G18  22197510.520    22197509.896    22197511.389                   -15527040.670 8 -15527040.670 8                 -12098989.386 8       284.000         111.000         137.000                  
G23  22874888.603    22874887.866    22874889.720                    -9525835.814 8  -9525835.819 6                  -7422935.658 7       181.000          47.000          76.000                  
G26  23469134.177    23469133.425    23469138.570                    -5864771.294 8  -5864771.291 6                  -4569959.554 8       135.000          41.000         173.000                  
G27  21589110.045    21589109.747    21589113.376                   -17024432.635 8 -17024432.634 8                 -13265788.744 9       273.000         212.000         934.000                  
G28  23549371.840    23549370.442    23549372.299                    -6694535.117 8  -6694535.116 6                  -5216526.997 6       109.000          27.000          41.000                  
G29  24353334.637    24353334.252    24353336.560                    -3559571.502 8  -3559571.510 6                  -2773700.511 8       139.000          48.000         155.000                  
G32  19467615.580    19467615.340    19467618.616                   -23344745.105 9 -23344745.106 9                 -18190712.078 9       999.000        2508.000        2704.000                  
> 2024 10 31 07 31 10.0000000  0  9
G10  21247375.300    21247374.676    21247378.318                   -17797821.705 8 -17797821.703 8                 -13868423.803 9       360.000         334.000         731.000                  
G16  23319369.505    23319368.302    23319371.067                      317203.108 8    317203.106 6                    247166.928 6       129.000          25.000          31.000                  
G18  22179869.398    22179868.972    22179870.758                   -15619742.860 8 -15619742.865 8                 -12171224.822 8       289.000         115.000         136.000                  
G23  22814574.813    22814574.606    22814576.767                    -9842781.594 8  -9842781.590 6                  -7669906.272 7       179.000          50.000          80.000                  
G26  23534015.740    23534015.167    23534020.846                    -5523814.422 8  -5523814.422 6                  -4304279.011 8       127.000          43.000         160.000                  
G27  21551551.003    21551550.518    21551554.130                   -17221807.714 8 -17221807.715 8                 -13419587.408 9       284.000         221.000         972.000                  
G28  23611538.234    23611537.127    23611539.866                    -6367844.729 8  -6367844.736 6                  -4961963.190 6       102.000          27.000          36.000                  
G29  24417207.323    24417206.269    24417208.740                    -3223922.201 8  -3223922.197 6                  -2512155.751 8       138.000          47.000         140.000                  
G32  19481294.831    19481294.557    19481297.808                   -23272860.402 9 -23272860.404 9                 -18134698.005 9      1001.000        2508.000        2636.000                  
> 2024 10 31 07 31 20.0000000  0  9
G10  21198331.307    21198331.021    21198334.483                   -18055548.010 8 -18055548.011 8                 -14069249.419 9       372.000         341.000         729.000                  
G16  23353641.260    23353639.106    23353641.469                      497297.373 8    497297.356 6                    387500.073 6       129.000          28.000          27.000                  
G18  22163040.670    22163040.133    22163042.080                   -15708178.783 8 -15708178.781 8                 -12240135.889 8       291.000         112.000         140.000                  
G23  22754602.767    22754602.748    22754604.492                   -10157937.466 8 -10157937.466 6                  -7915482.155 7       177.000          46.000          90.000                  
G26  23599243.279    23599242.777    23599248.287                    -5181043.029 8  -5181043.021 6                  -4037184.553 8       123.000          47.000         137.000                  
G27  21514820.051    21514819.695    21514823.240                   -17414829.424 8 -17414829.424 8                 -13569993.824 9       294.000         234.000        1024.000                  
G28  23673879.740    23673878.384    23673881.231                    -6040241.064 7  -6040241.037 6                  -4706687.714 6        97.000          23.000          30.000                  
G29  24481333.487    24481333.054    24481335.532                    -2886933.713 8  -2886933.709 6                  -2249567.467 8       135.000          42.000         122.000                  
G32  19495730.833    19495730.578    19495733.848                   -23196998.313 9 -23196998.314 9                 -18075584.664 9       997.000        2495.000        2584.000                  
> 2024 10 31 07 31 30.0000000  0  9
G10  21149764.644    21149764.359    21149767.879                   -18310766.645 8 -18310766.644 8                 -14268121.006 9       386.000         365.000         731.000                  
G16  23388500.961    23388498.798    23388500.974                      680486.300 8    680486.300 6                    530244.671 6       127.000          26.000          26.000                  
G18  22147027.190    22147026.655    22147028.321                   -15792329.179 8 -15792329.179 8                 -12305707.578 8       292.000         115.000         146.000                  
G23  22694980.784    22694979.909    22694981.462                   -10471255.191 8 -10471255.177 6                  -8159625.718 7       179.000          46.000          88.000                  
G26  23664807.640    23664806.327    23664812.236                    -4836503.766 8  -4836503.767 6                  -3768712.528 8       119.000          41.000         125.000                  
G27  21478928.748    21478927.920    21478931.685                   -17603440.706 8 -17603440.707 8                 -13716963.566 9       302.000         254.000        1046.000                  
G28  23736386.661    23736386.847    23736390.164                    -5711756.938 7  -5711756.930 6                  -4450726.173 6        96.000          22.000          29.000                  
G29  24545705.345    24545704.137    24545707.047                    -2548659.190 8  -2548659.193 6                  -1985977.082 8       129.000          45.000         115.000                  
G32  19510921.913    19510921.732    19510924.993                   -23117168.407 9 -23117168.409 9                 -18013379.536 9       989.000        2466.000        2531.000                  
> 2024 10 31 07 31 40.0000000  0  9
G10  21101680.928    21101680.348    21101683.906                   -18563449.224 8 -18563449.224 8                 -14465016.454 9       400.000         385.000         775.000                  
G16  23423940.497    23423937.689    23423940.975                      866722.036 8    866722.021 6                    675363.380 6       122.000          25.000          30.000                  
G18  22131828.726    22131828.262    22131830.044                   -15872197.629 8 -15872197.629 8                 -12367942.684 8       295.000         114.000         148.000                  
G23  22635712.729    22635712.430    22635714.238                   -10782708.286 8 -10782708.276 6                  -8402316.325 7       176.000          43.000          95.000                  
G26  23730694.321    23730693.649    23730699.561                    -4490264.980 8  -4490264.998 6                  -3498916.196 8       115.000          41.000         115.000                  
G27  21443882.765    21443882.235    21443885.791                   -17787607.044 8 -17787607.047 8                 -13860469.711 9       310.000         260.000        1060.000                  
G28  23799053.422    23799052.691    23799055.538                    -5382446.722 7  -5382446.711 6                  -4194120.902 6        92.000          22.000          27.000                  
G29  24610307.918    24610306.744    24610309.539                    -2209173.186 8  -2209173.170 6                  -1721442.700 8       126.000          41.000         108.000                  
G32  19526862.018    19526861.742    19526865.014                   -23033402.659 9 -23033402.660 9                 -17948107.494 9       985.000        2430.000        2492.000                  
> 2024 10 31 07 31 50.0000000  0  9
G10  21054090.050    21054089.481    21054093.110                   -18813540.452 8 -18813540.450 8                 -14659892.651 9       409.000         411.000         796.000                  
G16  23459955.846    23459953.592    23459956.846                     1055983.192 8   1055983.214 6                    822839.613 6       124.000          18.000          31.000                  
G18  22117449.420    22117448.782    22117450.687                   -15947761.736 8 -15947761.732 8                 -12426823.764 8       294.000         121.000         148.000                  
G23  22576810.048    22576809.585    22576811.514                   -11092243.194 8 -11092243.212 6                  -8643512.247 8       178.000          49.000         105.000                  
G26  23796897.099    23796896.314    23796901.954                    -4142367.814 8  -4142367.810 6                  -3227827.623 8       110.000          35.000         106.000                  
G27  21409694.320    21409694.089    21409697.417                   -17967267.771 8 -17967267.771 8                 -14000464.975 9       324.000         288.000        1053.000                  
G28  23861871.126    23861870.267    23861872.657                    -5052337.543 7  -5052337.537 6                  -3936893.122 6        89.000          23.000          30.000                  
G29  24675131.634    24675131.014    24675132.963                    -1868522.962 8  -1868522.983 6                  -1456001.133 8       123.000          38.000         104.000                  
G32  19543549.989    19543549.673    19543552.875                   -22945706.904 9 -22945706.906 9                 -17879773.108 9       978.000        2387.000        2468.000                  
> 2024 10 31 07 32  0.0000000  0  9
G10  21007001.677    21007001.265    21007004.640                   -19060990.618 8 -19060990.617 8                 -14852710.912 9       432.000         454.000         798.000                  
G16  23496540.666    23496538.979    23496541.506                     1248242.361 8   1248242.375 6                    972651.935 6       128.000          24.000          32.000                  
G18  22103892.379    22103891.570    22103893.180                   -16019005.572 8 -16019005.573 8                 -12482338.397 8       295.000         113.000         150.000                  
G23  22518281.011    22518281.128    22518282.981                   -11399811.768 8 -11399811.765 6                  -8883175.975 8       185.000          45.000         106.000                  
G26  23863405.872    23863405.315    23863411.809                    -3792858.762 8  -3792858.746 6                  -2955483.031 7       103.000          35.000          94.000                  
G27  21376373.630    21376373.288    21376376.742                   -18142368.593 8 -18142368.595 8                 -14136907.085 9       331.000         292.000        1063.000                  
G28  23924834.821    23924833.780    23924837.214                    -4721461.749 7  -4721461.742 6                  -3679067.907 6        90.000          20.000          23.000                  
G29  24740166.544    24740166.082    24740168.782                    -1526760.998 8  -1526761.003 6                  -1189693.285 7       114.000          35.000          97.000                  
G32  19560983.414    19560983.180    19560986.321                   -22854093.133 9 -22854093.135 9                 -17808385.736 9       970.000        2363.000        2435.000                  
> 2024 10 31 07 32 10.0000000  0  9
G10  20960421.212    20960421.027    20960424.338                   -19305771.244 8 -19305771.244 8                 -15043448.998 9       446.000         489.000         791.000                  
G16  23533688.779    23533685.868    23533687.470                     1443450.361 8   1443450.341 6                   1124762.027 6       121.000          25.000          29.000                  
G18  22091156.035    22091155.246    22091156.773                   -16085935.602 8 -16085935.594 8                 -12534491.627 8       297.000         121.000         158.000                  
G23  22460132.632    22460132.460    22460133.978                   -11705387.148 8 -11705387.142 7                  -9121286.561 8       186.000          53.000         103.000                  
G26  23930210.034    23930208.539    23930215.230                    -3441805.439 7  -3441805.434 6                  -2681935.124 7        92.000          28.000          86.000                  
G27  21343926.899    21343926.382    21343929.887                   -18312877.398 8 -18312877.402 8                 -14269770.994 9       335.000         310.000        1018.000                  
G28  23987933.975    23987933.253    23987937.116                    -4389872.710 7  -4389872.702 6                  -3420686.968 6        83.000          23.000          25.000                  
G29  24805398.329    24805399.038    24805400.940                    -1183960.657 8  -1183960.671 6                   -922576.319 7       114.000          40.000          87.000                  
G32  19579155.992    19579155.774    19579158.949                   -22758595.372 9 -22758595.373 9                 -17733971.884 9       960.000        2309.000        2455.000                  
> 2024 10 31 07 32 20.0000000  0  9
G10  20914360.516    20914360.080    20914363.434                   -19547823.007 8 -19547823.005 9                 -15232060.706 9       461.000         524.000         841.000                  
G16  23571392.612    23571389.720    23571392.670                     1641588.654 8   1641588.653 6                   1279155.469 6       118.000          30.000          24.000                  
G18  22079244.615    22079244.293    22079246.051                   -16148528.212 8 -16148528.210 8                 -12583265.053 8       293.000         111.000         158.000                  
G23  22402373.835    22402373.700    22402375.132                   -12008911.323 8 -12008911.320 6                  -9357798.800 8       191.000          50.000         118.000                  
G26  23997299.648    23997298.696    23997305.467                    -3089244.184 7  -3089244.185 6                  -2407212.222 7        89.000          28.000          74.000                  
G27  21312365.750    21312365.349    21312368.668                   -18478731.894 8 -18478731.895 8                 -14399008.167 9       349.000         342.000         944.000                  
G28  24051165.313    24051165.107    24051166.485                    -4057592.491 7  -4057592.491 6                  -3161767.423 6        80.000          21.000          30.000                  
G29  24870821.990    24870821.287    24870823.763                     -840163.960 8   -840163.948 6                   -654682.986 7       110.000          37.000          72.000                  
G32  19598067.174    19598066.843    19598069.954                   -22659217.193 9 -22659217.195 9                 -17656534.323 9       952.000        2271.000        2438.000                  
> 2024 10 31 07 32 30.0000000  0  9
G10  20868825.135    20868824.483    20868827.667                   -19787114.525 8 -19787114.524 9                 -15418521.563 9       486.000         571.000         909.000                  
G16  23609645.902    23609643.401    23609645.365                     1842610.369 8   1842610.366 6                   1435795.746 6       111.000          27.000          26.000                  
G18  22068158.060    22068157.428    22068159.477                   -16206788.757 8 -16206788.753 8                 -12628662.851 8       287.000         114.000         161.000                  
G23  22345010.797    22345010.757    22345012.154                   -12310354.161 8 -12310354.157 7                  -9592689.228 8       201.000          53.000         114.000                  
G26  24064665.706    24064663.857    24064670.362                    -2735239.097 7  -2735239.078 6                  -2131364.253 7        83.000          25.000          63.000                  
G27  21281696.982    21281696.249    21281699.502                   -18639898.704 8 -18639898.706 8                 -14524592.596 9       365.000         370.000         902.000                  
G28  24114519.248    24114517.722    24114521.103                    -3724670.748 7  -3724670.725 6                  -2902348.018 6        77.000          23.000          21.000                  
G29  24936420.146    24936420.564    24936422.622                     -495440.329 8   -495440.321 6                   -386067.376 7       104.000          32.000          73.000                  
G32  19617710.476    19617710.143    19617713.277                   -22555990.798 9 -22555990.799 9                 -17576098.140 9       941.000        2222.000        2385.000                  
> 2024 10 31 07 32 40.0000000  0  9
G10  20823824.820    20823824.370    20823827.434                   -20023591.934 9 -20023591.933 9                 -15602789.604 9       505.000         617.000         939.000                  
G16  23648443.907    23648440.503    23648444.092                     2046490.812 8   2046490.831 6                   1594663.614 6       103.000          24.000          25.000                  
G18  22057898.593    22057898.528    22057900.253                   -16260700.994 8 -16260700.993 8                 -12670672.351 8       295.000         108.000         170.000                  
G23  22288054.882    22288054.260    22288055.731                   -12609662.886 8 -12609662.880 7                  -9825916.712 8       206.000          58.000         124.000                  
G26  24132296.276    24132295.427    24132302.332                    -2379831.349 7  -2379831.337 6                  -1854423.297 7        77.000          28.000          65.000                  
G27  21251930.071    21251929.713    21251932.780                   -18796322.745 8 -18796322.745 8                 -14646481.363 9       383.000         403.000         892.000                  
G28  24177985.521    24177988.140    24177990.421                    -3391134.278 7  -3391134.287 6                  -2642449.546 6        71.000          24.000          22.000                  
G29  25002185.544    25002186.062    25002188.770                     -149836.254 7   -149836.260 6                   -116765.698 7        99.000          31.000          71.000                  
G32  19638084.077    19638083.752    19638086.870                   -22448926.501 9 -22448926.502 9                 -17492671.395 9       938.000        2208.000        2330.000                  
> 2024 10 31 07 32 50.0000000  0  9
G10  20779369.106    20779368.704    20779371.847                   -20257207.269 8 -20257207.268 9                 -15784827.463 9       498.000         597.000         944.000                  
G16  23687778.417    23687775.112    23687778.773                     2253198.957 8   2253198.974 6                   1755734.843 6       103.000          26.000          29.000                  
G18  22048469.078    22048468.545    22048470.215                   -16310255.519 8 -16310255.517 8                 -12709286.235 8       292.000         112.000         180.000                  
G23  22231512.683    22231512.528    22231514.031                   -12906790.479 8 -12906790.466 7                 -10057444.618 8       217.000          67.000         133.000                  
G26  24200187.525    24200186.480    24200191.658                    -2023067.790 7  -2023067.787 6                  -1576425.895 7        72.000          24.000          59.000                  
G27  21223075.481    21223074.951    21223077.878                   -18947955.837 8 -18947955.841 8                 -14764636.968 9       395.000         422.000         890.000                  
G28  24241570.694    24241570.133    24241572.378                    -3057015.356 7  -3057015.349 6                  -2382097.305 6        68.000          22.000          20.000                  
G29  25068111.545    25068110.267    25068113.515                      196596.237 7    196596.256 6                    153181.477 7        89.000          30.000          63.000                  
G32  19659184.977    19659184.613    19659187.722                   -22338040.954 9 -22338040.955 9                 -17406267.052 9       943.000        2232.000        2246.000                  
> 2024 10 31 07 33  0.0000000  0  9
G10  20735463.543    20735463.089    20735466.283                   -20487932.359 8 -20487932.359 9                 -15964613.181 9       498.000         604.000         970.000                  
G16  23727642.757    23727638.691    23727642.978                     2462683.808 7   2462683.803 6                   1918969.760 6        97.000          29.000          31.000                  
G18  22039866.335    22039865.754    22039867.459                   -16355463.624 8 -16355463.624 8                 -12744513.299 8       294.000         115.000         187.000                  
G23  22175391.267    22175391.405    22175393.006                   -13201709.574 8 -13201709.560 7                 -10287251.616 8       219.000          63.000         138.000                  
G26  24268323.534    24268321.382    24268327.978                    -1665014.605 7  -1665014.603 6                  -1297423.575 6        67.000          25.000          50.000                  
G27  21195137.669    21195137.074    21195140.103                   -19094770.306 8 -19094770.307 8                 -14879037.794 9       399.000         451.000         934.000                  
G28  24305252.145    24305250.976    24305252.726                    -2722365.603 7  -2722365.607 6                  -2121331.517 6        62.000          24.000          24.000                  
G29  25134179.924    25134178.683    25134182.069                      543785.933 7    543785.944 6                    423718.676 7        84.000          25.000          66.000                  
G32  19681005.854    19681005.563    19681008.564                   -22223371.217 9 -22223371.219 9                 -17316914.017 9       946.000        2235.000        2152.000                  
> 2024 10 31 07 33 10.0000000  0 10
G08  23986912.187    23986912.966    23986928.878                     -362716.164 7   -362716.140 6                   -282638.866 6        98.000          36.000          29.000                  
G10  20692118.235    20692117.889    20692120.991                   -20715713.148 9 -20715713.146 9                 -16142104.640 9       525.000         660.000        1041.000                  
G16  23768029.892    23768025.437    23768030.032                     2674920.146 7   2674920.175 6                   2084348.656 6        96.000          27.000          25.000                  
G18  22032093.080    22032092.566    22032094.210                   -16396311.610 8 -16396311.611 8                 -12776342.866 8       290.000         112.000         195.000                  
G23  22119700.244    22119700.526    22119701.769                   -13494366.747 8 -13494366.750 7                 -10515296.084 8       225.000          71.000         146.000                  
G26  24336693.705    24336694.471    24336700.933                    -1305711.236 7  -1305711.249 6                  -1017446.963 6        67.000          21.000          44.000                  
G27  21168126.736    21168126.142    21168129.137                   -19236713.564 8 -19236713.567 8                 -14989642.853 9       408.000         456.000         978.000                  
G28  24369030.754    24369028.015    24369029.326                    -2387210.374 7  -2387210.391 6                  -1860170.598 6        57.000          25.000          17.000                  
G29  25200383.367    25200382.210    25200385.748                      891688.065 7    891688.059 6                    694810.992 7        86.000          26.000          60.000                  
G32  19703544.631    19703544.373    19703547.387                   -22104928.820 9 -22104928.821 9                 -17224621.251 9       941.000        2234.000        2076.000                  
> 2024 10 31 07 33 20.0000000  0 10
G08  23935867.583    23935867.417    23935871.767                     -630950.663 8   -630950.663 6                   -491650.328 7       104.000          31.000         100.000                  
G10  20649343.444    20649342.889    20649345.935                   -20940497.453 9 -20940497.452 9                 -16317261.192 9       552.000         746.000        1136.000                  
G16  23808933.975    23808931.708    23808935.823                     2889880.562 7   2889880.554 6                   2251850.243 6        91.000          25.000          24.000                  
G18  22025151.306    22025151.222    22025153.079                   -16432788.495 8 -16432788.495 8                 -12804766.385 8       292.000         120.000         189.000                  
G23  22064450.073    22064449.923    22064451.443                   -13784710.251 8 -13784710.243 7                 -10741537.689 8       234.000          75.000         156.000                  
G26  24405298.010    24405296.945    24405304.571                     -945200.127 7   -945200.122 6                   -736529.412 6        56.000          21.000          34.000                  
G27  21142052.066    21142051.629    21142054.589                   -19373735.848 8 -19373735.848 8                 -15096413.399 9       410.000         459.000        1056.000                  
G28  24432899.700    24432896.956    24432901.592                    -2051576.361 7  -2051576.353 6                  -1598639.733 6        55.000          25.000          19.000                  
G29  25266714.408    25266712.843    25266716.425                     1240256.586 7   1240256.583 6                    966422.568 7        79.000          29.000          53.000                  
G32  19726798.903    19726798.552    19726801.549                   -21982727.561 9 -21982727.562 9                 -17129399.482 9       942.000        2211.000        2037.000                  
> 2024 10 31 07 33 30.0000000  0 10
G08  23885241.565    23885241.357    23885245.414                     -896992.845 8   -896992.848 6                   -698955.800 8       102.000          37.000         104.000                  
G10  20607141.459    20607141.145    20607144.256                   -21162268.705 9 -21162268.704 9                 -16490069.907 9       563.000         762.000        1218.000                  
G16  23850347.796    23850342.823    23850346.361                     3107501.869 7   3107501.891 6                   2421425.240 6        89.000          22.000          23.000                  
G18  22019036.940    22019036.589    22019038.165                   -16464919.863 8 -16464919.860 8                 -12829803.787 8       290.000         113.000         188.000                  
G23  22009643.056    22009642.362    22009644.283                   -14072723.876 8 -14072723.870 7                 -10965963.808 8       232.000          69.000         162.000                  
G26  24474116.766    24474115.948    24474122.158                     -583557.327 7   -583557.323 6                   -454730.007 6        55.000          31.000          39.000                  
G27  21116916.754    21116916.008    21116919.095                   -19505823.934 8 -19505823.937 8                 -15199339.102 9       407.000         458.000        1151.000                  
G28  24496846.974    24496846.316    24496849.182                    -1715526.971 7  -1715526.973 6                  -1336788.214 6        51.000          24.000          17.000                  
G29  25333157.317    25333155.337    25333158.004                     1589410.266 7   1589410.274 6                   1238490.121 6        77.000          23.000          48.000                  
G32  19750758.831    19750758.458    19750761.458                   -21856817.449 9 -21856817.451 9                 -17031287.697 9       947.000        2246.000        1960.000                  
> 2024 10 31 07 33 40.0000000  0  8
G08  23835046.746    23835045.980    23835049.893                    -1160769.792 8  -1160769.782 6                   -904496.137 8       105.000          33.000         110.000                  
G10  20565525.113    20565524.700    20565527.835                   -21380964.302 9 -21380964.301 9                 -16660482.005 9       562.000         762.000        1295.000                  
G16  23892262.419    23892257.370    23892260.989                     3327766.718 7   3327766.696 6                   2593060.170 6        83.000          20.000          23.000                  
G18  22013753.560    22013752.822    22013754.735                   -16492686.035 8 -16492686.032 8                 -12851439.734 8       291.000         114.000         192.000                  
G23  21955291.072    21955290.455    21955292.188                   -14358345.116 8 -14358345.109 7                 -11188525.738 8       237.000          71.000         163.000                  
G27  21092731.072    21092730.338    21092733.496                   -19632919.513 8 -19632919.514 8                 -15298374.550 9       397.000         438.000        1180.000                  
G29  25399702.838    25399701.768    25399705.029                     1939114.610 7   1939114.634 6                   1510986.745 6        72.000          26.000          42.000                  
G32  19775423.658    19775423.258    19775426.276                   -21727202.728 9 -21727202.730 9                 -16930289.191 9       944.000        2245.000        1920.000                  
> 2024 10 31 07 33 50.0000000  0  8
G08  23785295.703    23785295.025    23785299.983                    -1422210.603 8  -1422210.610 6                  -1108216.113 8       110.000          37.000         120.000                  
G10  20524505.302    20524505.028    20524508.198                   -21596523.736 9 -21596523.736 9                 -16828450.352 9       553.000         757.000        1373.000                  
G16  23934676.201    23934671.733    23934676.043                     3550655.665 7   3550655.658 6                   2766739.833 6        87.000          21.000          24.000                  
G18  22009303.490    22009303.172    22009304.634                   -16516070.242 8 -16516070.241 8                 -12869661.167 8       298.000         116.000         198.000                  
G23  21901405.288    21901405.372    21901406.925                   -14641513.382 8 -14641513.370 7                 -11409176.261 8       236.000          77.000         167.000                  
G27  21069505.644    21069505.336    21069508.594                   -19754967.284 8 -19754967.284 8                 -15393476.653 9       391.000         417.000        1247.000                  
G29  25466346.536    25466345.213    25466349.965                     2289333.663 7   2289333.673 6                   1783884.416 6        67.000          20.000          38.000                  
G32  19800792.141    19800791.816    19800794.856                   -21593890.113 9 -21593890.115 9                 -16826409.224 9       940.000        2218.000        1867.000                  
> 2024 10 31 07 34  0.0000000  0  8
G08  23735992.241    23735991.117    23735995.979                    -1681303.454 8  -1681303.457 6                  -1310106.515 8       111.000          37.000         126.000                  
G10  20484082.615    20484082.383    20484085.586                   -21808945.713 9 -21808945.710 9                 -16993973.907 9       553.000         753.000        1398.000                  
G16  23977574.332    23977571.287    23977576.117                     3776089.815 7   3776089.810 6                   2942402.709 6        82.000          27.000          22.000                  
G18  22005679.348    22005678.968    22005680.435                   -16535115.806 8 -16535115.799 8                 -12884501.836 8       300.000         123.000         187.000                  
G23  21847987.496    21847987.314    21847988.683                   -14922227.161 8 -14922227.164 7                 -11627914.200 8       241.000          80.000         173.000                  
G27  21047240.514    21047240.017    21047243.318                   -19871972.199 8 -19871972.200 8                 -15484649.282 9       397.000         438.000        1327.000                  
G29  25533071.921    25533070.947    25533074.046                     2639972.956 7   2639972.918 6                   2057109.480 6        64.000          22.000          41.000                  
G32  19826851.798    19826851.452    19826854.502                   -21456945.818 9 -21456945.819 9                 -16719699.369 9       939.000        2212.000        1873.000                  
> 2024 10 31 07 34 10.0000000  0  8
G08  23687152.281    23687151.675    23687155.688                    -1937959.780 8  -1937959.797 6                  -1510098.345 8       116.000          37.000         141.000                  
G10  20444272.057    20444271.654    20444274.792                   -22018152.418 9 -22018152.417 9                 -17156992.069 9       566.000         773.000        1401.000                  
G16  24020958.670    24020954.172    24020958.601                     4004066.942 7   4004066.951 6                   3120047.208 6        80.000          22.000          28.000                  
G18  22002887.098    22002886.470    22002888.084                   -16549790.280 8 -16549790.271 8                 -12895936.466 8       297.000         122.000         198.000                  
G23  21795050.847    21795051.075    21795052.877                   -15200408.186 8 -15200408.186 7                 -11844678.571 8       240.000          84.000         175.000                  
G27  21025948.620    21025947.920    21025951.032                   -19983863.517 8 -19983863.518 8                 -15571837.285 9       410.000         461.000        1313.000                  
G29  25599872.799    25599871.956    25599875.597                     2991015.043 7   2991015.047 6                   2330648.445 6        67.000          22.000          36.000                  
G32  19853604.293    19853604.044    19853607.111                   -21316359.860 9 -21316359.862 9                 -16610151.848 9       931.000        2149.000        1913.000                  
> 2024 10 31 07 34 20.0000000  0  8
G08  23638780.208    23638779.794    23638783.968                    -2192153.612 8  -2192153.608 6                  -1708171.368 8       112.000          40.000         150.000                  
G10  20405075.793    20405075.532    20405078.712                   -22224128.865 9 -22224128.865 9                 -17317493.161 9       572.000         794.000        1386.000                  
G16  24064810.673    24064808.010    24064813.040                     4234521.878 7   4234521.881 6                   3299622.381 6        76.000          24.000          24.000                  
G18  22000920.628    22000919.917    22000921.523                   -16560124.794 8 -16560124.796 8                 -12903989.303 8       295.000         110.000         187.000                  
G23  21742600.717    21742599.989    21742601.349                   -15476040.782 8 -15476040.776 7                 -12059457.151 8       246.000          87.000         171.000                  
G27  21005630.659    21005630.121    21005633.126                   -20090634.305 8 -20090634.307 8                 -15655035.255 9       417.000         479.000        1261.000                  
G29  25666735.596    25666734.387    25666738.412                     3342380.592 7   3342380.590 6                   2604439.424 6        60.000          25.000          32.000                  
G32  19881039.801    19881039.569    19881042.652                   -21172185.295 9 -21172185.297 9                 -16497808.013 9       916.000        2101.000        1990.000                  
> 2024 10 31 07 34 30.0000000  0  8
G08  23590890.238    23590889.863    23590894.543                    -2443816.738 8  -2443816.735 6                  -1904272.407 8       118.000          45.000         160.000                  
G10  20366505.785    20366505.143    20366508.205                   -22426817.900 9 -22426817.900 9                 -17475432.626 9       596.000         872.000        1367.000                  
G16  24109134.372    24109128.968    24109134.698                     4467431.643 7   4467431.657 6                   3481110.441 6        71.000          23.000          23.000                  
G18  21999781.118    21999781.304    21999782.682                   -16566109.115 8 -16566109.111 8                 -12908652.386 8       293.000         114.000         189.000                  
G23  21690644.721    21690644.716    21690646.028                   -15749066.971 8 -15749066.972 7                 -12272204.769 8       250.000          84.000         178.000                  
G27  20986296.475    20986295.766    20986298.833                   -20192236.610 8 -20192236.612 9                 -15734205.868 9       427.000         501.000        1239.000                  
G29  25733654.036    25733651.961    25733656.535                     3694033.092 7   3694033.101 6                   2878453.968 6        58.000          24.000          29.000                  
G32  19909156.245    19909155.803    19909158.919                   -21024433.291 9 -21024433.292 9                 -16382676.566 9       892.000        2003.000        2074.000                  
> 2024 10 31 07 34 40.0000000  0  8
G08  23543490.548    23543488.439    23543493.758                    -2692907.526 8  -2692907.515 6                  -2098369.031 8       121.000          39.000         174.000                  
G10  20328566.701    20328566.089    20328569.045                   -22626189.166 9 -22626189.166 9                 -17630786.820 9       627.000         955.000        1344.000                  
G16  24153911.493    24153908.060    24153912.025                     4702746.396 7   4702746.409 6                   3664472.522 6        67.000          22.000          25.000                  
G18  21999467.289    21999466.828    21999468.186                   -16567760.563 8 -16567760.559 8                 -12909939.200 8       290.000         117.000         188.000                  
G23  21639191.877    21639191.308    21639192.970                   -16019455.410 8 -16019455.407 7                 -12482897.001 8       261.000          97.000         183.000                  
G27  20967949.341    20967948.852    20967951.821                   -20288650.102 8 -20288650.105 9                 -15809333.228 9       441.000         534.000        1190.000                  
G29  25800613.235    25800612.613    25800616.443                     4045909.696 7   4045909.703 6                   3152643.158 6        60.000          21.000          28.000                  
G32  19937945.780    19937945.507    19937948.710                   -20873142.043 9 -20873142.044 9                 -16264787.269 9       863.000        1870.000        2172.000                  
> 2024 10 31 07 34 50.0000000  0  8
G08  23496593.321    23496591.491    23496596.066                    -2939354.753 8  -2939354.755 6                  -2290405.725 8       119.000          40.000         188.000                  
G10  20291270.112    20291269.729    20291272.629                   -22822182.851 9 -22822182.850 9                 -17783509.139 9       630.000         968.000        1357.000                  
G16  24199145.065    24199140.614    24199145.407                     4940446.068 7   4940446.071 6                   3849692.892 6        64.000          18.000          20.000                  
G18  21999979.835    21999979.379    21999980.835                   -16565067.604 8 -16565067.603 8                 -12907840.763 8       295.000         108.000         195.000                  
G23  21588251.612    21588251.492    21588253.262                   -16287144.946 8 -16287144.937 8                 -12691486.192 8       272.000         103.000         181.000                  
G27  20950599.387    20950598.628    20950601.636                   -20379826.046 8 -20379826.048 9                 -15880379.381 9       447.000         537.000        1166.000                  
G29  25867608.013    25867609.678    25867612.480                     4397978.036 7   4397978.031 6                   3426981.662 6        56.000          25.000          29.000                  
G32  19967407.422    19967407.131    19967410.290                   -20718320.360 9 -20718320.361 9                 -16144147.005 9       838.000        1759.000        2208.000                  
> 2024 10 31 07 35  0.0000000  0  8
G08  23450202.850    23450201.915    23450207.035                    -3183130.358 8  -3183130.345 6                  -2480360.649 8       123.000          43.000         196.000                  
G10  20254619.482    20254619.109    20254622.128                   -23014782.527 9 -23014782.526 9                 -17933586.777 9       627.000         958.000        1382.000                  
G16  24244819.239    24244814.694    24244819.449                     5180467.678 7   5180467.663 6                   4036722.745 6        61.000          20.000          16.000                  
G18  22001312.369    22001312.277    22001313.821                   -16558062.877 8 -16558062.877 8                 -12902382.510 8       292.000         103.000         194.000                  
G23  21537829.579    21537828.709    21537830.489                   -16552117.708 8 -16552117.704 8                 -12897958.418 8       290.000         115.000         184.000                  
G27  20934246.919    20934245.862    20934248.878                   -20465760.096 8 -20465760.098 9                 -15947340.941 9       445.000         548.000        1167.000                  
G29  25934629.274    25934628.485    25934632.992                     4750163.049 7   4750163.059 6                   3701411.037 6        56.000          23.000          19.000                  
G32  19997530.784    19997530.549    19997533.690                   -20560020.535 9 -20560020.536 9                 -16020796.471 9       808.000        1638.000        2199.000                  
> 2024 10 31 07 35 10.0000000  0  8
G08  23404336.227    23404335.321    23404339.875                    -3424163.579 8  -3424163.597 6                  -2668178.656 8       129.000          45.000         213.000                  
G10  20218626.042    20218625.687    20218628.656                   -23203929.212 9 -23203929.212 9                 -18080973.771 9       628.000         963.000        1434.000                  
G16  24290931.920    24290926.784    24290933.776                     5422789.523 7   5422789.512 6                   4225544.946 6        59.000          22.000          24.000                  
G18  22003467.803    22003467.414    22003469.040                   -16546737.064 8 -16546737.061 8                 -12893557.178 8       296.000         115.000         195.000                  
G23  21487935.298    21487935.293    21487936.428                   -16814312.974 8 -16814312.971 8                 -13102266.364 8       307.000         128.000         187.000                  
G27  20918900.166    20918899.426    20918902.447                   -20546406.292 8 -20546406.294 9                 -16010182.092 9       439.000         520.000        1194.000                  
G29  26001664.068    26001664.054    26001668.084                     5102433.094 7   5102433.084 6                   3975906.716 6        54.000          22.000          25.000                  
G32  20028314.087    20028314.007    20028317.076                   -20398252.504 9 -20398252.506 9                 -15894743.447 9       789.000        1562.000        2200.000                  
> 2024 10 31 07 35 20.0000000  0  9
G08  23359000.572    23358999.231    23359003.640                    -3662408.132 8  -3662408.143 6                  -2853823.686 8       135.000          46.000         227.000                  
G10  20183296.310    20183295.853    20183298.884                   -23389588.565 9 -23389588.564 9                 -18225643.363 9       629.000         965.000        1525.000                  
G16  24337473.909    24337467.621    24337474.529                     5667366.802 7   5667366.786 6                   4416123.539 6        61.000          28.000          21.000                  
G18  22006442.309    22006441.889    22006443.182                   -16531106.181 8 -16531106.179 8                 -12881377.250 8       289.000         115.000         203.000                  
G23  21438576.814    21438576.308    21438577.376                   -17073694.477 8 -17073694.475 8                 -13304381.766 8       324.000         136.000         174.000                  
G24  24506701.516    24506697.780    24506707.692                     -176821.332 8   -176821.342 6                   -137785.644 7       115.000          30.000          59.000                  
G27  20904563.361    20904563.013    20904566.104                   -20621744.418 8 -20621744.419 8                 -16068887.094 9       426.000         492.000        1208.000                  
G29  26068705.442    26068703.235    26068706.706                     5454731.883 7   5454731.884 6                   4250424.588 6        56.000          26.000          21.000                  
G32  20059751.083    20059750.751    20059753.914                   -20233050.899 9 -20233050.901 9                 -15766014.919 9       765.000        1470.000        2246.000                  
> 2024 10 31 07 35 30.0000000  0  9
G08  23314203.321    23314202.080    23314206.395                    -3897819.134 8  -3897819.126 7                  -3037260.750 8       137.000          51.000         246.000                  
G10  20148636.355    20148635.847    20148639.001                   -23571727.849 9 -23571727.848 9                 -18367570.038 9       630.000         974.000        1677.000                  
G16  24384435.171    24384428.639    24384436.099                     5914152.868 7   5914152.883 6                   4608424.311 6        58.000          23.000          21.000                  
G18  22010232.411    22010232.029    22010233.660                   -16511188.446 8 -16511188.446 8                 -12865856.916 8       288.000         108.000         198.000                  
G23  21389759.888    21389759.554    21389760.833                   -17330227.322 8 -17330227.319 8                 -13504277.435 8       337.000         156.000         187.000                  
G24  24468782.273    24468782.384    24468786.153                     -376084.998 8   -376085.007 6                   -293056.810 8       117.000          38.000         150.000                  
G27  20891240.630    20891240.004    20891243.065                   -20691756.774 8 -20691756.775 8                 -16123442.140 9       428.000         491.000        1206.000                  
G29  26135740.880    26135738.369    26135743.452                     5807004.481 7   5807004.480 6                   4524922.078 6        54.000          26.000          26.000                  
G32  20091834.311    20091834.042    20091837.259                   -20064451.933 9 -20064451.934 9                 -15634639.097 9       738.000        1385.000        2260.000                  
> 2024 10 31 07 35 40.0000000  0  9
G08  23269957.401    23269955.935    23269960.897                    -4130329.539 8  -4130329.536 6                  -3218437.610 8       134.000          50.000         253.000                  
G10  20114656.441    20114655.992    20114659.313                   -23750292.346 9 -23750292.346 9                 -18506711.165 9       623.000         943.000        1835.000                  
G16  24431812.447    24431805.769    24431814.361                     6163123.204 7   6163123.221 6                   4802427.041 6        53.000          20.000          23.000                  
G18  22014838.899    22014838.546    22014840.177                   -16486980.615 8 -16486980.614 8                 -12846993.658 8       291.000         116.000         202.000                  
G23  21341496.325    21341496.164    21341497.212                   -17583854.358 8 -17583854.355 8                 -13701908.836 8       361.000         168.000         188.000                  
G24  24431019.524    24431018.920    24431022.775                     -574534.975 8   -574534.984 6                   -447693.051 8       120.000          41.000         175.000                  
G27  20878938.116    20878937.901    20878940.955                   -20756404.708 8 -20756404.710 9                 -16173817.129 9       432.000         501.000        1266.000                  
G29  26202765.325    26202762.677    26202769.075                     6159217.475 7   6159217.503 6                   4799372.239 6        53.000          24.000          19.000                  
G32  20124561.411    20124561.095    20124564.368                   -19892469.890 9 -19892469.892 9                 -15500627.134 9       725.000        1334.000        2242.000                  
> 2024 10 31 07 35 50.0000000  0  9
G08  23226269.477    23226268.001    23226272.888                    -4359911.362 8  -4359911.391 6                  -3397332.464 8       140.000          49.000         270.000                  
G10  20081359.966    20081359.489    20081362.826                   -23925266.583 9 -23925266.583 9                 -18643054.696 9       622.000         940.000        1931.000                  
G16  24479591.978    24479586.945    24479595.197                     6414214.521 7   6414214.522 6                   4998082.526 6        55.000          23.000          27.000                  
G18  22020254.679    22020254.649    22020256.054                   -16458519.323 8 -16458519.319 8                 -12824816.008 8       295.000         119.000         199.000                  
G23  21293788.762    21293788.958    21293790.046                   -17834557.440 8 -17834557.438 8                 -13897261.832 8       373.000         180.000         200.000                  
G24  24393409.922    24393409.288    24393413.090                     -772173.759 8   -772173.752 6                   -601697.210 8       122.000          43.000         177.000                  
G27  20867656.863    20867656.250    20867659.457                   -20815689.785 8 -20815689.786 9                 -16220013.263 9       436.000         518.000        1349.000                  
G29  26269763.659    26269761.409    26269767.262                     6511297.500 7   6511297.490 6                   5073719.583 6        53.000          21.000          23.000                  
G32  20157922.240    20157921.869    20157925.053                   -19717158.061 9 -19717158.062 9                 -15364020.500 9       725.000        1323.000        2202.000                  
> 2024 10 31 07 36  0.0000000  0  8
G08  23183153.868    23183152.836    23183157.190                    -4586485.853 8  -4586485.861 7                  -3573883.953 8       143.000          53.000         283.000                  
G10  20048759.005    20048758.772    20048762.092                   -24096584.433 9 -24096584.434 9                 -18776549.094 9       621.000         945.000        2045.000                  
G16  24527776.418    24527768.656    24527777.297                     6667414.367 7   6667414.390 6                   5195378.942 6        57.000          23.000          20.000                  
G18  22026482.802    22026482.472    22026484.123                   -16425791.049 8 -16425791.050 8                 -12799313.440 8       292.000         106.000         199.000                  
G23  21246651.597    21246650.991    21246652.147                   -18082267.541 8 -18082267.536 8                 -14090282.642 8       378.000         188.000         204.000                  
G24  24355963.618    24355963.587    24355967.381                     -968952.577 8   -968952.580 6                   -755031.258 8       121.000          45.000         172.000                  
G27  20857404.928    20857404.403    20857407.451                   -20869563.962 8 -20869563.962 9                 -16261993.113 9       443.000         533.000        1384.000                  
G32  20191916.075    20191915.823    20191918.898                   -19538519.307 9 -19538519.307 9                 -15224821.467 9       724.000        1320.000        2139.000                  
> 2024 10 31 07 36 10.0000000  0  8
G08  23140614.904    23140614.756    23140618.883                    -4810026.002 8  -4810025.997 7                  -3748071.025 8       145.000          53.000         298.000                  
G10  20016857.152    20016856.408    20016859.888                   -24264231.743 9 -24264231.741 9                 -18907183.318 9       619.000         941.000        2180.000                  
G16  24576348.556    24576339.649    24576348.915                     6922659.150 7   6922659.151 6                   5394270.946 6        59.000          23.000          16.000                  
G18  22033515.485    22033514.984    22033516.912                   -16388834.769 8 -16388834.769 8                 -12770516.322 8       294.000         113.000         197.000                  
G23  21200086.732    21200086.223    21200087.282                   -18326967.365 8 -18326967.364 8                 -14280957.782 8       396.000         203.000         221.000                  
G24  24318681.668    24318680.471    24318684.802                    -1164874.086 8  -1164874.082 6                   -907697.282 8       120.000          35.000         183.000                  
G27  20848181.661    20848181.188    20848184.376                   -20918032.130 8 -20918032.131 9                 -16299760.491 9       453.000         561.000        1428.000                  
G32  20226532.599    20226532.294    20226535.477                   -19356608.211 9 -19356608.212 9                 -15083072.581 9       723.000        1308.000        2090.000                  
> 2024 10 31 07 36 20.0000000  0  8
G08  23098668.164    23098666.765    23098671.146                    -5030461.979 8  -5030461.977 7                  -3919839.253 8       149.000          54.000         314.000                  
G10  19985663.930    19985663.482    19985666.857                   -24428151.812 9 -24428151.810 9                 -19034913.203 9       643.000        1011.000        2213.000                  
G16  24625304.853    24625295.383    24625305.170                     7179926.730 7   7179926.744 6                   5594743.095 6        57.000          23.000          22.000                  
G18  22041352.997    22041352.771    22041354.243                   -16347647.328 8 -16347647.324 8                 -12738422.196 8       291.000         112.000         194.000                  
G23  21154106.133    21154105.866    21154106.786                   -18568596.752 8 -18568596.750 8                 -14469240.373 8       398.000         210.000         236.000                  
G24  24281568.852    24281568.954    24281572.918                    -1359897.733 8  -1359897.742 6                  -1059663.663 8       125.000          48.000         190.000                  
G27  20839994.329    20839993.726    20839996.830                   -20961057.543 8 -20961057.546 9                 -16333286.743 9       471.000         598.000        1441.000                  
G32  20261769.634    20261769.291    20261772.427                   -19171436.618 9 -19171436.619 9                 -14938783.053 9       717.000        1286.000        1987.000                  
> 2024 10 31 07 36 30.0000000  0  8
G08  23057315.775    23057315.236    23057319.814                    -5247764.742 8  -5247764.763 7                  -4089166.026 8       143.000          51.000         327.000                  
G10  19955183.391    19955182.873    19955186.102                   -24588328.651 9 -24588328.650 9                 -19159726.289 9       676.000        1108.000        2249.000                  
G16  24674635.352    24674625.309    24674634.955                     7439156.059 7   7439156.050 6                   5796739.959 6        54.000          25.000          20.000                  
G18  22049988.934    22049988.163    22049989.789                   -16302266.830 8 -16302266.823 8                 -12703060.755 8       292.000         106.000         194.000                  
G23  21108713.336    21108713.089    21108714.248                   -18807136.102 8 -18807136.102 8                 -14655115.139 8       408.000         222.000         240.000                  
G24  24244628.296    24244627.805    24244631.716                    -1554023.185 8  -1554023.168 6                  -1210930.170 8       123.000          43.000         195.000                  
G27  20832841.650    20832841.041    20832844.061                   -20998645.316 8 -20998645.317 9                 -16362575.884 9       482.000         631.000        1413.000                  
G32  20297617.130    20297616.800    20297619.851                   -18983056.963 9 -18983056.964 9                 -14791993.723 9       714.000        1292.000        1918.000                  
> 2024 10 31 07 36 40.0000000  0  8
G08  23016574.540    23016573.057    23016577.187                    -5461868.113 8  -5461868.110 6                  -4255999.740 8       146.000          47.000         322.000                  
G10  19925425.079    19925424.645    19925427.770                   -24744709.586 9 -24744709.586 9                 -19281581.528 9       701.000        1201.000        2267.000                  
G16  24724334.106    24724324.834    24724332.124                     7700321.805 7   7700321.787 6                   6000244.207 6        55.000          21.000          24.000                  
G18  22059422.224    22059421.653    22059423.351                   -16252694.987 8 -16252694.986 8                 -12664433.333 8       293.000         117.000         184.000                  
G23  21063919.708    21063919.288    21063920.320                   -19042528.743 8 -19042528.742 8                 -14838537.927 8       415.000         219.000         254.000                  
G24  24207865.254    24207865.040    24207869.319                    -1747212.661 8  -1747212.668 6                  -1361467.332 8       123.000          46.000         195.000                  
G27  20826729.407    20826728.924    20826731.903                   -21030764.686 8 -21030764.687 9                 -16387603.949 9       481.000         625.000        1384.000                  
G32  20334071.988    20334071.817    20334074.808                   -18791484.740 9 -18791484.740 9                 -14642716.668 9       712.000        1279.000        1836.000                  
