     3.03           OBSERVATION DATA    M (MIXED)           RINEX VERSION / TYPE
BJPP                CNES                20241031 160231 UTC PGM / RUN BY / DATE 
MARKER                                                      MARKER NAME         
SPACECRAFT                                                  MARKER TYPE         
OBSERVER            CNES                                    OBSERVER / AGENCY   
RECNUM              BLACKJACK           RECVERS             REC # / TYPE / VERS 
ANTNUM              BLACKJACK                               ANT # / TYPE        
        0.0000        0.0000        0.0000                  ANTENNA: DELTA H/E/N
G   12 C1C C1W C2W C2X L1C L1W L2X L2W S1C S1W S2W S2X      SYS / # / OBS TYPES 
DBHZ                                                        SIGNAL STRENGTH UNIT
This rinex produced from the following file(s):             COMMENT             
/tmp/mesos_work/slaves/d197f515-9ebc-49f2-8adc-fe7a9d3e6458-COMMENT             
S44/frameworks/8c1b9f46-52ed-4aff-9edf-38d17bf6761e-3268/exeCOMMENT             
cutors/toil-84222/runs/ea83cc72-73ec-4d95-a610-712c95a797d5/COMMENT             
beb63b58bc9f5106b54c6bf0e9153e25/4502/cd72/tmpzkdju4szhvomehCOMMENT             
ze/stg2c25579f-77db-4ac8-bea4-dc1397054f5b/SWOT_IVK_20241031COMMENT             
T152202_20241031T122349_20241031T140320_O_APID1280.PTM_0    COMMENT             
  2024    10    31    12    23   30.0000000                 TIME OF FIRST OBS   
G L1C                                                       SYS / PHASE SHIFT   
G L1W -0.25000                                              SYS / PHASE SHIFT   
G L2W                                                       SYS / PHASE SHIFT   
G L2X  0.25000                                              SYS / PHASE SHIFT   
                                                            END OF HEADER       
> 2024 10 31 12 23 30.0000000  0 11
G05  23854736.095    23854735.905    23854737.853                    -5037419.141 8  -5037419.156 6                  -3925267.720 6       135.000          42.000          36.000                  
G07  20539906.571    20539906.043    20539906.540                   -23828909.858 9 -23828909.858 9                 -18567983.402 9       602.000         825.000         598.000                  
G08  22118142.741    22118141.875    22118146.015                   -12062947.264 8 -12062947.266 8                  -9399699.869 8       238.000         130.000         267.000                  
G09  23810432.438    23810432.381    23810436.097                    -4194969.748 7  -4194969.735 6                  -3268811.314 6        93.000          28.000          28.000                  
G13  21581306.965    21581306.003    21581306.646                   -14646133.464 8 -14646133.435 6                 -11412489.431 7       226.000          36.000          58.000                  
G14  19983303.601    19983303.333    19983304.156                   -25143132.732 9 -25143132.732 9                 -19592050.641 8       611.000         502.000         269.000                  
G15  24563962.358    24563961.604    24563962.423                     3302253.480 7   3302253.482 6                   2573182.457 6        59.000          24.000          12.000                  
G17  23613552.125    23613519.341    23613554.706                    -2190323.899 7  -2190323.879 6                  -1706749.493 6        92.000          23.000          40.000                  
G22  21483921.018    21483919.890    21483920.692                   -17232426.240 8 -17232426.237 8                 -13427867.313 7       360.000         105.000          59.000                  
G27  25091765.689    25091766.573    25091771.454                     4210574.379 7   4210574.386 6                   3280961.448 6        56.000          25.000          21.000                  
G30  19552201.220    19552200.451    19552203.616                   -24639875.363 9 -24639875.363 9                 -19199906.670 9       931.000        2067.000        1252.000                  
> 2024 10 31 12 23 40.0000000  0 11
G05  23885635.488    23885635.917    23885637.001                    -4875041.563 8  -4875041.580 6                  -3798739.825 6       129.000          46.000          33.000                  
G07  20532141.426    20532140.878    20532141.351                   -23869716.237 9 -23869716.238 9                 -18599780.607 9       594.000         800.000         583.000                  
G08  22149242.639    22149242.041    22149246.128                   -11899515.311 8 -11899515.315 8                  -9272350.333 8       224.000         127.000         273.000                  
G09  23748229.047    23748228.843    23748231.352                    -4521855.160 7  -4521855.150 6                  -3523527.154 6        94.000          36.000          26.000                  
G13  21626380.005    21626379.144    21626379.799                   -14409272.841 8 -14409272.861 6                 -11227922.739 7       218.000          31.000          54.000                  
G14  19973179.833    19973179.592    19973180.641                   -25196333.093 9 -25196333.094 9                 -19633505.497 8       611.000         505.000         268.000                  
G15  24623491.443    24623491.776    24623494.042                     3615086.265 7   3615086.261 6                   2816948.090 6        58.000          20.000          19.000                  
G17  23536771.459    23536738.770    23536772.382                    -2593813.428 7  -2593813.405 6                  -2021156.816 6       100.000          19.000          45.000                  
G22  21460625.136    21460624.109    21460625.503                   -17354846.072 8 -17354846.077 8                 -13523259.389 7       361.000         102.000          61.000                  
G27  25149116.435    25149115.292    25149120.903                     4511944.181 7   4511944.175 6                   3515794.845 6        54.000          22.000          21.000                  
G30  19564383.427    19564382.948    19564386.068                   -24575855.990 9 -24575855.990 9                 -19150021.466 9       906.000        1965.000        1232.000                  
> 2024 10 31 12 23 50.0000000  0 11
G05  23916694.689    23916694.234    23916695.129                    -4711830.107 8  -4711830.103 6                  -3671562.179 6       129.000          48.000          30.000                  
G07  20525105.846    20525105.154    20525105.659                   -23906689.289 9 -23906689.290 9                 -18628590.802 9       601.000         822.000         551.000                  
G08  22181102.589    22181102.222    22181106.210                   -11732089.524 8 -11732089.529 8                  -9141888.714 8       220.000         123.000         278.000                  
G09  23686173.800    23686173.201    23686176.723                    -4847957.897 8  -4847957.895 6                  -3777633.117 6       102.000          35.000          27.000                  
G13  21671825.448    21671825.073    21671825.489                   -14170454.209 8 -14170454.220 6                 -11041830.361 6       203.000          34.000          47.000                  
G14  19964066.494    19964066.148    19964067.029                   -25244225.128 9 -25244225.127 9                 -19670823.986 8       630.000         519.000         256.000                  
G15  24683050.409    24683048.471    24683048.815                     3928056.812 7   3928056.815 6                   3060820.854 6        53.000          19.000          18.000                  
G17  23460195.233    23460161.898    23460196.172                    -2996223.790 8  -2996223.801 6                  -2334723.236 6       115.000          19.000          44.000                  
G22  21438103.132    21438102.032    21438102.670                   -17473200.597 8 -17473200.600 7                 -13615483.693 7       363.000         100.000          58.000                  
G27  25206709.219    25206708.590    25206711.998                     4814595.834 7   4814595.834 6                   3751627.139 6        51.000          18.000          21.000                  
G30  19577433.697    19577433.135    19577436.365                   -24507276.827 9 -24507276.826 9                 -19096583.185 9       892.000        1907.000        1192.000                  
> 2024 10 31 12 24  0.0000000  0 11
G05  23947910.354    23947909.540    23947911.301                    -4547790.601 8  -4547790.590 6                  -3543739.280 6       130.000          44.000          34.000                  
G07  20518802.357    20518801.989    20518802.466                   -23939813.103 9 -23939813.103 9                 -18654401.591 9       606.000         834.000         547.000                  
G08  22213717.766    22213716.958    22213720.999                   -11560698.325 8 -11560698.326 8                  -9008337.162 8       227.000         123.000         274.000                  
G09  23624275.442    23624276.090    23624278.821                    -5173231.084 8  -5173231.085 6                  -4031092.677 6       105.000          38.000          31.000                  
G13  21717641.353    21717640.863    21717640.808                   -13929691.689 8 -13929691.681 6                 -10854223.255 6       194.000          30.000          47.000                  
G14  19955969.198    19955968.958    19955970.084                   -25286776.023 9 -25286776.024 9                 -19703980.551 8       632.000         531.000         261.000                  
G15  24742630.379    24742630.121    24742632.015                     4241154.902 7   4241154.884 6                   3304793.449 6        52.000          19.000          16.000                  
G17  23383840.178    23383806.294    23383840.212                    -3397475.438 8  -3397475.464 6                  -2647386.774 6       127.000          19.000          46.000                  
G22  21416364.349    21416363.150    21416363.714                   -17587439.550 8 -17587439.550 8                 -13704501.059 7       370.000         104.000          63.000                  
G27  25264539.404    25264539.052    25264541.340                     5118492.433 7   5118492.456 6                   3988429.468 6        52.000          25.000          21.000                  
G30  19591351.316    19591350.798    19591353.990                   -24434139.614 9 -24434139.613 9                 -19039593.175 9       887.000        1890.000        1190.000                  
> 2024 10 31 12 24 10.0000000  0 10
G05  23979275.431    23979274.852    23979276.158                    -4382965.908 8  -4382965.910 6                  -3415304.570 6       128.000          46.000          34.000                  
G07  20513227.330    20513226.927    20513227.367                   -23969109.763 9 -23969109.763 9                 -18677230.179 9       612.000         851.000         557.000                  
G08  22247074.351    22247073.599    22247077.580                   -11385408.050 8 -11385408.052 8                  -8871747.378 8       222.000         121.000         272.000                  
G09  23562539.568    23562538.201    23562541.609                    -5497664.872 8  -5497664.872 6                  -4283898.171 6       107.000          40.000          31.000                  
G13  21763817.474    21763816.010    21763817.657                   -13687036.631 8 -13687036.612 6                 -10665141.446 6       191.000          31.000          49.000                  
G14  19948887.411    19948887.013    19948888.170                   -25323991.619 9 -25323991.620 9                 -19732979.726 8       627.000         521.000         269.000                  
G15  24802223.204    24802225.807    24802226.955                     4554333.297 6   4554333.305 6                   3548830.284 6        50.000          19.000          21.000                  
G17  23307713.573    23307679.873    23307712.970                    -3797525.654 8  -3797525.660 6                  -2959114.140 7       133.000          25.000          59.000                  
G22  21395410.602    21395409.550    21395410.981                   -17697550.558 8 -17697550.562 8                 -13790301.845 7       372.000         107.000          68.000                  
G30  19606128.925    19606128.100    19606131.307                   -24356484.296 9 -24356484.296 9                 -18979082.557 9       881.000        1854.000        1188.000                  
> 2024 10 31 12 24 20.0000000  0 10
G05  24010786.105    24010786.115    24010786.901                    -4217373.283 8  -4217373.283 6                  -3286271.446 6       128.000          49.000          35.000                  
G07  20508381.425    20508380.855    20508381.269                   -23994576.420 9 -23994576.420 9                 -18697074.353 9       619.000         860.000         551.000                  
G08  22281164.608    22281164.652    22281168.401                   -11206260.032 8 -11206260.032 8                  -8732151.566 8       217.000         124.000         266.000                  
G09  23500967.519    23500966.641    23500970.244                    -5821223.505 8  -5821223.499 6                  -4536021.719 6       115.000          43.000          38.000                  
G13  21810348.031    21810346.962    21810348.057                   -13442514.699 8 -13442514.680 6                 -10474604.920 6       189.000          33.000          41.000                  
G14  19942824.194    19942823.896    19942825.200                   -25355853.437 9 -25355853.438 9                 -19757807.129 8       623.000         526.000         268.000                  
G15  24861830.131    24861832.913    24861833.813                     4867570.787 6   4867570.785 6                   3792911.277 6        49.000          21.000          20.000                  
G17  23231827.652    23231795.417    23231828.754                    -4196305.482 8  -4196305.512 6                  -3269851.588 7       131.000          19.000          64.000                  
G22  21375250.181    21375248.688    21375249.418                   -17803496.555 8 -17803496.553 8                 -13872857.173 7       373.000         105.000          58.000                  
G30  19621763.073    19621762.255    19621765.440                   -24274326.060 9 -24274326.060 9                 -18915063.172 9       870.000        1807.000        1139.000                  
> 2024 10 31 12 24 30.0000000  0  9
G05  24042445.649    24042444.105    24042446.130                    -4051007.283 8  -4051007.277 6                  -3156635.698 6       125.000          41.000          31.000                  
G07  20504268.824    20504268.228    20504268.702                   -24016188.399 9 -24016188.400 9                 -18713914.882 9       622.000         882.000         546.000                  
G08  22315986.342    22315985.503    22315989.439                   -11023273.678 8 -11023273.687 8                  -8589564.847 8       217.000         111.000         255.000                  
G09  23439574.064    23439573.367    23439576.547                    -6143848.455 8  -6143848.448 6                  -4787417.730 6       116.000          47.000          38.000                  
G13  21857233.511    21857232.399    21857233.868                   -13196128.933 8 -13196128.920 6                 -10282616.083 6       186.000          28.000          36.000                  
G14  19937787.462    19937787.174    19937788.122                   -25382321.871 9 -25382321.872 8                 -19778431.909 8       609.000         494.000         255.000                  
G17  23156201.406    23156169.370    23156201.538                    -4593722.743 8  -4593722.729 6                  -3579527.275 7       132.000          16.000          83.000                  
G22  21355892.721    21355891.699    21355892.067                   -17905218.743 8 -17905218.738 8                 -13952121.217 7       373.000         110.000          62.000                  
G30  19638255.098    19638254.575    19638257.767                   -24187658.552 9 -24187658.551 9                 -18847530.072 9       853.000        1733.000        1105.000                  
> 2024 10 31 12 24 40.0000000  0  9
G05  24074242.062    24074241.470    24074241.997                    -3883916.112 8  -3883916.102 6                  -3026434.884 6       122.000          39.000          36.000                  
G07  20500883.925    20500883.631    20500884.062                   -24033975.536 9 -24033975.537 9                 -18727775.026 9       622.000         882.000         547.000                  
G08  22351523.441    22351523.074    22351526.967                   -10836522.901 8 -10836522.912 8                  -8444044.810 8       210.000         102.000         245.000                  
G09  23378357.953    23378358.597    23378362.045                    -6465534.810 8  -6465534.809 6                  -5038082.365 6       123.000          45.000          45.000                  
G13  21904462.418    21904462.520    21904462.881                   -12947936.132 8 -12947936.127 6                 -10089219.145 6       181.000          26.000          38.000                  
G14  19933773.982    19933773.724    19933774.789                   -25403412.586 9 -25403412.587 8                 -19794866.255 8       595.000         478.000         257.000                  
G17  23080841.754    23080809.362    23080842.991                    -4989738.761 8  -4989738.774 6                  -3888111.090 7       133.000          18.000          95.000                  
G22  21337340.341    21337339.059    21337340.024                   -18002712.863 8 -18002712.866 8                 -14028090.675 7       376.000         117.000          63.000                  
G30  19655596.340    19655595.699    19655598.900                   -24096530.132 9 -24096530.132 9                 -18776520.942 9       834.000        1661.000        1078.000                  
> 2024 10 31 12 24 50.0000000  0  9
G05  24106175.051    24106176.059    24106177.381                    -3716096.974 8  -3716096.961 6                  -2895666.816 6       119.000          41.000          34.000                  
G07  20498231.199    20498230.495    20498230.924                   -24047917.577 9 -24047917.577 9                 -18738638.970 9       625.000         879.000         545.000                  
G08  22387773.059    22387772.347    22387776.385                   -10646031.205 8 -10646031.209 7                  -8295609.773 8       205.000          99.000         237.000                  
G09  23317333.762    23317332.515    23317336.285                    -6786226.534 8  -6786226.543 6                  -5287971.956 7       116.000          43.000          54.000                  
G13  21952035.520    21952035.021    21952035.865                   -12697942.285 8 -12697942.273 6                  -9894418.789 6       179.000          29.000          42.000                  
G14  19930790.113    19930790.100    19930791.171                   -25419091.726 9 -25419091.726 8                 -19807083.787 8       581.000         454.000         247.000                  
G17  23005766.013    23005733.033    23005767.324                    -5384263.154 8  -5384263.183 6                  -4195532.603 8       145.000          21.000         102.000                  
G22  21319602.862    21319601.571    21319602.685                   -18095924.568 8 -18095924.572 8                 -14100723.166 7       379.000         119.000          61.000                  
G30  19673786.754    19673786.125    19673789.366                   -24000939.129 9 -24000939.128 9                 -18702034.472 9       818.000        1597.000        1018.000                  
> 2024 10 31 12 25  0.0000000  0  9
G05  24138242.579    24138241.729    24138243.721                    -3547590.670 8  -3547590.671 6                  -2764363.323 6       118.000          43.000          35.000                  
G07  20496305.106    20496304.552    20496304.906                   -24058038.750 9 -24058038.751 9                 -18746525.627 9       622.000         873.000         548.000                  
G08  22424721.266    22424721.084    22424724.670                   -10451866.651 8 -10451866.660 7                  -8144312.775 8       204.000         100.000         219.000                  
G09  23256499.184    23256498.792    23256502.638                    -7105911.240 8  -7105911.249 6                  -5537076.876 6       121.000          46.000          49.000                  
G13  21999940.503    21999939.712    21999940.988                   -12446197.266 8 -12446197.252 6                  -9698253.924 6       181.000          25.000          46.000                  
G14  19928834.568    19928834.111    19928835.280                   -25429370.787 9 -25429370.789 8                 -19815093.467 8       571.000         441.000         254.000                  
G17  22930983.096    22930949.693    22930984.416                    -5777249.101 8  -5777249.117 6                  -4501755.342 8       166.000          21.000         103.000                  
G22  21302682.052    21302680.733    21302681.669                   -18184844.464 8 -18184844.463 8                 -14170011.415 7       382.000         113.000          62.000                  
G30  19692818.136    19692817.434    19692820.671                   -23900928.685 9 -23900928.685 9                 -18624104.286 9       802.000        1543.000         962.000                  
> 2024 10 31 12 25 10.0000000  0  9
G05  24170436.768    24170436.353    24170437.759                    -3378406.888 8  -3378406.876 6                  -2632531.938 6       115.000          44.000          24.000                  
G07  20495107.415    20495106.798    20495107.244                   -24064332.994 9 -24064332.994 9                 -18751430.258 9       618.000         864.000         549.000                  
G08  22462361.681    22462360.858    22462364.808                   -10254066.654 8 -10254066.653 7                  -7990182.971 8       198.000          98.000         220.000                  
G09  23195865.411    23195864.312    23195868.547                    -7424545.234 8  -7424545.248 6                  -5785363.055 7       123.000          46.000          51.000                  
G13  22048177.081    22048175.290    22048175.779                   -12192719.665 8 -12192719.682 6                  -9500738.946 6       177.000          29.000          37.000                  
G14  19927909.448    19927909.008    19927910.470                   -25434231.584 9 -25434231.584 8                 -19818881.123 8       586.000         463.000         268.000                  
G17  22856508.191    22856475.611    22856509.155                    -6168618.107 8  -6168618.102 6                  -4806718.135 8       182.000          19.000         105.000                  
G22  21286585.448    21286584.098    21286584.915                   -18269432.837 8 -18269432.841 8                 -14235924.443 7       386.000         117.000          64.000                  
G30  19712688.016    19712687.336    19712690.653                   -23796511.665 9 -23796511.665 9                 -18542740.402 9       799.000        1521.000         945.000                  
> 2024 10 31 12 25 20.0000000  0 10
G02  24663975.230    24663976.270    24663999.439                     -364766.960 7   -364766.952 6                   -284236.129 6        96.000          19.000          15.000                  
G05  24202757.823    24202757.393    24202759.147                    -3208557.500 8  -3208557.509 6                  -2500181.850 6       117.000          36.000          27.000                  
G07  20494638.318    20494637.810    20494638.288                   -24066797.381 9 -24066797.381 9                 -18753350.588 9       613.000         858.000         544.000                  
G08  22500686.194    22500685.300    22500689.125                   -10052671.585 8 -10052671.585 7                  -7833251.808 8       192.000          90.000         211.000                  
G09  23135439.608    23135437.937    23135441.706                    -7742086.984 8  -7742086.992 6                  -6032798.163 7       122.000          48.000          51.000                  
G13  22096737.074    22096736.648    22096737.439                   -11937530.508 8 -11937530.517 6                  -9301890.325 6       175.000          27.000          42.000                  
G14  19928018.182    19928018.046    19928019.116                   -25433659.764 9 -25433659.764 8                 -19818435.583 8       598.000         490.000         266.000                  
G17  22782355.412    22782322.817    22782356.528                    -6558293.547 8  -6558293.533 6                  -5110361.283 7       193.000          19.000         100.000                  
G22  21271319.834    21271318.851    21271318.963                   -18349653.251 8 -18349653.252 8                 -14298433.884 7       390.000         116.000          60.000                  
G30  19733393.395    19733392.763    19733395.954                   -23687704.227 9 -23687704.226 9                 -18457955.415 9       797.000        1532.000         884.000                  
> 2024 10 31 12 25 30.0000000  0 10
G02  24623705.545    24623705.771    24623723.249                     -576379.551 7   -576379.545 6                   -449128.822 6        95.000          20.000          17.000                  
G05  24235199.496    24235197.910    24235199.424                    -3038084.997 8  -3038084.984 6                  -2367346.237 6       116.000          31.000          27.000                  
G07  20494892.811    20494892.261    20494892.748                   -24065460.349 9 -24065460.350 9                 -18752308.775 9       610.000         848.000         546.000                  
G08  22539680.264    22539679.868    22539684.063                    -9847753.012 8  -9847753.013 7                  -7673575.058 8       190.000          88.000         210.000                  
G09  23075222.191    23075222.012    23075225.670                    -8058525.511 8  -8058525.511 6                  -6279373.589 7       125.000          48.000          55.000                  
G13  22145613.905    22145613.501    22145613.306                   -11680681.465 8 -11680681.468 6                  -9101748.290 6       173.000          31.000          35.000                  
G14  19929157.461    19929157.210    19929158.362                   -25427673.184 9 -25427673.186 9                 -19813770.736 8       614.000         504.000         277.000                  
G17  22708533.520    22708501.196    22708534.921                    -6946229.150 8  -6946229.151 6                  -5412648.717 8       202.000          18.000         107.000                  
G22  21256886.155    21256885.678    21256885.958                   -18425500.959 8 -18425500.962 8                 -14357536.007 7       390.000         119.000          68.000                  
G30  19754925.318    19754924.506    19754927.753                   -23574554.089 9 -23574554.088 9                 -18369786.506 9       807.000        1561.000         877.000                  
> 2024 10 31 12 25 40.0000000  0 10
G02  24583892.713    24583891.924    24583924.540                     -785605.728 7   -785605.727 6                   -612164.102 6        94.000          22.000          15.000                  
G05  24267758.113    24267757.436    24267758.088                    -2866986.629 8  -2866986.627 6                  -2234022.953 6       116.000          37.000          23.000                  
G07  20495873.435    20495873.132    20495873.732                   -24060305.951 9 -24060305.951 9                 -18748292.392 9       609.000         847.000         526.000                  
G08  22579340.298    22579340.004    22579344.198                    -9639337.891 8  -9639337.897 7                  -7511173.728 8       187.000          87.000         205.000                  
G09  23015226.731    23015226.626    23015230.074                    -8373804.450 8  -8373804.449 7                  -6525045.452 7       126.000          56.000          65.000                  
G13  22194805.122    22194804.509    22194805.275                   -11422179.041 8 -11422179.029 6                  -8900317.885 6       177.000          23.000          40.000                  
G14  19931332.099    19931331.758    19931332.893                   -25416246.007 9 -25416246.009 9                 -19804866.459 8       626.000         529.000         275.000                  
G17  22635060.868    22635026.284    22635060.791                    -7332332.900 8  -7332332.893 6                  -5713508.736 8       203.000          23.000         114.000                  
G22  21243294.467    21243293.251    21243293.733                   -18496927.164 8 -18496927.164 8                 -14413192.815 7       392.000         123.000          60.000                  
G30  19777282.785    19777282.124    19777285.264                   -23457064.654 9 -23457064.654 9                 -18278236.325 9       822.000        1611.000         855.000                  
> 2024 10 31 12 25 50.0000000  0 10
G02  24544538.296    24544536.472    24544550.866                     -992415.371 7   -992415.396 6                   -773312.503 6        92.000          21.000          18.000                  
G05  24300430.937    24300430.200    24300430.849                    -2695288.010 8  -2695288.017 6                  -2100231.907 6       112.000          38.000          26.000                  
G07  20497578.270    20497577.813    20497578.419                   -24051347.576 9 -24051347.576 9                 -18741311.874 9       605.000         831.000         546.000                  
G08  22619655.962    22619654.699    22619658.919                    -9427482.244 8  -9427482.250 7                  -7346091.470 8       189.000          83.000         206.000                  
G09  22955457.813    22955456.856    22955460.461                    -8687895.949 8  -8687895.955 7                  -6769792.051 7       133.000          56.000          67.000                  
G13  22244304.399    22244303.815    22244305.122                   -11162058.273 8 -11162058.276 6                  -8697626.440 6       179.000          25.000          44.000                  
G14  19934541.179    19934540.813    19934541.889                   -25399382.501 9 -25399382.503 9                 -19791726.087 8       633.000         536.000         282.000                  
G17  22561948.393    22561913.470    22561948.862                    -7716541.021 8  -7716541.026 6                  -6012891.643 8       199.000          20.000         145.000                  
G22  21230547.439    21230546.485    21230547.443                   -18563912.441 8 -18563912.440 8                 -14465389.143 7       390.000         125.000          64.000                  
G30  19800459.814    19800459.056    19800462.292                   -23335268.832 9 -23335268.831 9                 -18183330.515 9       824.000        1622.000         881.000                  
> 2024 10 31 12 26  0.0000000  0 10
G02  24505648.029    24505644.219    24505680.220                    -1196786.815 7  -1196786.814 6                   -932565.265 6        87.000          19.000          13.000                  
G05  24333212.685    24333211.036    24333212.404                    -2523023.215 8  -2523023.222 6                  -1965999.730 6       109.000          35.000          24.000                  
G07  20500002.544    20500002.162    20500002.780                   -24038607.438 9 -24038607.438 9                 -18731384.530 9       605.000         824.000         531.000                  
G08  22660612.864    22660612.258    22660616.460                    -9212250.777 8  -9212250.787 7                  -7178378.709 8       190.000          87.000         199.000                  
G09  22895917.842    22895916.919    22895920.264                    -9000780.154 8  -9000780.160 7                  -7013597.894 7       142.000          57.000          72.000                  
G13  22294104.259    22294103.621    22294104.307                   -10900362.497 8 -10900362.494 6                  -8493707.722 6       184.000          27.000          46.000                  
G14  19938782.055    19938781.682    19938782.749                   -25377096.672 9 -25377096.674 9                 -19774360.525 8       632.000         534.000         286.000                  
G17  22489206.591    22489172.632    22489208.217                    -8098797.543 8  -8098797.552 6                  -6310753.823 8       210.000          18.000         173.000                  
G22  21218647.681    21218646.821    21218647.322                   -18626446.830 8 -18626446.829 8                 -14514117.252 7       402.000         135.000          66.000                  
G30  19824448.403    19824447.576    19824450.783                   -23209208.518 9 -23209208.516 9                 -18085101.726 9       831.000        1648.000         862.000                  
> 2024 10 31 12 26 10.0000000  0 10
G02  24467232.259    24467229.197    24467243.417                    -1398657.704 7  -1398657.743 6                  -1089864.873 6        85.000          19.000          15.000                  
G05  24366102.814    24366101.371    24366102.508                    -2350184.681 8  -2350184.685 6                  -1831320.464 6       110.000          36.000          25.000                  
G07  20503150.031    20503149.662    20503150.160                   -24022067.892 9 -24022067.892 9                 -18718496.609 9       603.000         833.000         536.000                  
G08  22702207.758    22702207.345    22702211.278                    -8993667.673 8  -8993667.684 7                  -7008054.281 8       184.000          82.000         206.000                  
G09  22836618.341    22836618.525    22836621.980                    -9312396.097 8  -9312396.107 7                  -7256415.488 7       139.000          60.000          82.000                  
G13  22344202.630    22344201.394    22344202.404                   -10637093.884 8 -10637093.864 6                  -8288563.428 6       188.000          33.000          38.000                  
G14  19944059.418    19944059.238    19944060.373                   -25349363.023 9 -25349363.024 9                 -19752749.912 8       629.000         529.000         288.000                  
G17  22416856.375    22416822.826    22416856.967                    -8479005.100 8  -8479005.078 6                  -6607019.404 8       225.000          20.000         215.000                  
G22  21207604.449    21207603.331    21207603.832                   -18684480.333 8 -18684480.333 8                 -14559338.185 7       412.000         133.000          71.000                  
G30  19849248.078    19849247.290    19849250.386                   -23078885.482 9 -23078885.481 9                 -17983551.337 9       840.000        1687.000         873.000                  
> 2024 10 31 12 26 20.0000000  0 10
G02  24429293.305    24429289.865    24429324.459                    -1598028.026 7  -1598028.035 6                  -1245220.741 6        86.000          22.000          18.000                  
G05  24399090.051    24399090.220    24399091.717                    -2176826.930 8  -2176826.924 6                  -1696236.644 6       107.000          32.000          24.000                  
G07  20507012.038    20507011.585    20507012.041                   -24001773.728 9 -24001773.728 9                 -18702683.019 9       608.000         840.000         523.000                  
G08  22744424.794    22744423.453    22744427.502                    -8771819.434 8  -8771819.444 7                  -6835185.595 8       184.000          85.000         201.000                  
G09  22777561.403    22777560.992    22777564.245                    -9622744.593 8  -9622744.595 7                  -7498245.464 7       143.000          64.000          88.000                  
G13  22394587.416    22394586.946    22394587.857                   -10372316.595 8 -10372316.601 6                  -8082243.551 6       191.000          27.000          39.000                  
G14  19950366.542    19950366.208    19950367.416                   -25316219.499 9 -25316219.499 9                 -19726923.815 8       621.000         520.000         271.000                  
G17  22344901.992    22344869.098    22344902.599                    -8857127.714 8  -8857127.700 6                  -6901660.363 8       238.000          19.000         229.000                  
G22  21197415.093    21197413.726    21197414.915                   -18738025.972 8 -18738025.975 8                 -14601062.093 7       418.000         132.000          84.000                  
G30  19874846.656    19874845.886    19874849.064                   -22944364.211 9 -22944364.210 9                 -17878729.601 9       847.000        1706.000         873.000                  
> 2024 10 31 12 26 30.0000000  0 10
G02  24391842.606    24391838.372    24391840.135                    -1794835.826 7  -1794835.832 6                  -1398571.463 6        88.000          21.000          21.000                  
G05  24432179.546    24432179.525    24432180.094                    -2002942.115 8  -2002942.127 6                  -1560742.117 6       107.000          36.000          26.000                  
G07  20511591.670    20511591.170    20511591.507                   -23977708.101 9 -23977708.100 9                 -18683930.625 9       609.000         836.000         506.000                  
G08  22787257.843    22787256.859    22787260.756                    -8546730.704 8  -8546730.709 7                  -6659791.854 8       186.000          87.000         181.000                  
G09  22718757.090    22718756.383    22718759.865                    -9931763.960 8  -9931763.965 7                  -7739039.765 7       146.000          75.000          90.000                  
G13  22445259.924    22445259.136    22445260.653                   -10106032.418 8 -10106032.377 6                  -7874749.465 6       198.000          25.000          44.000                  
G14  19957707.366    19957707.160    19957708.243                   -25277643.208 9 -25277643.208 9                 -19696864.397 8       621.000         522.000         271.000                  
G17  22273363.106    22273332.873    22273363.884                    -9233066.877 8  -9233066.869 6                  -7194599.936 8       241.000          19.000         239.000                  
G22  21188089.008    21188087.993    21188088.706                   -18787035.467 8 -18787035.470 8                 -14639251.343 7       429.000         146.000          89.000                  
G30  19901243.532    19901242.855    19901246.058                   -22805647.662 9 -22805647.662 9                 -17770638.822 9       846.000        1714.000         893.000                  
> 2024 10 31 12 26 40.0000000  0 10
G02  24354882.156    24354881.149    24354882.688                    -1989049.284 7  -1989049.322 6                  -1549906.549 6        90.000          19.000          16.000                  
G05  24465364.843    24465365.361    24465366.588                    -1828551.960 8  -1828551.958 6                  -1424853.779 6       111.000          30.000          21.000                  
G07  20516886.324    20516885.736    20516886.090                   -23949884.742 9 -23949884.742 9                 -18662250.130 9       615.000         863.000         516.000                  
G08  22830697.065    22830695.566    22830699.661                    -8318456.195 8  -8318456.197 7                  -6481915.694 8       188.000          79.000         172.000                  
G09  22660211.321    22660211.028    22660214.644                   -10239422.172 8 -10239422.185 7                  -7978773.429 7       147.000          65.000          99.000                  
G13  22496214.168    22496212.243    22496214.006                    -9838272.954 8  -9838272.948 6                  -7666105.828 6       204.000          32.000          46.000                  
G14  19966080.499    19966080.078    19966081.539                   -25233642.537 9 -25233642.537 9                 -19662578.200 8       610.000         511.000         263.000                  
G17  22202253.033    22202238.798    22202253.417                    -9606753.421 8  -9606753.422 7                  -7485784.226 8       255.000          59.000         253.000                  
G22  21179629.167    21179628.254    21179629.086                   -18831491.417 8 -18831491.418 8                 -14673892.382 7       438.000         154.000          83.000                  
G30  19928432.443    19928431.681    19928434.800                   -22662769.313 9 -22662769.313 9                 -17659305.081 9       842.000        1689.000         908.000                  
> 2024 10 31 12 26 50.0000000  0 11
G02  24318424.527    24318420.752    24318423.749                    -2180651.211 7  -2180651.206 6                  -1699206.783 6        93.000          26.000          18.000                  
G05  24498641.943    24498639.586    24498641.066                    -1653692.250 8  -1653692.254 6                  -1288599.645 6       105.000          38.000          23.000                  
G07  20522890.414    20522890.001    20522890.471                   -23918332.255 9 -23918332.254 9                 -18637663.826 9       607.000         833.000         542.000                  
G08  22874729.053    22874727.910    22874732.155                    -8087065.336 8  -8087065.336 7                  -6301611.209 8       184.000          75.000         162.000                  
G09  22601928.014    22601927.679    22601931.940                   -10545701.377 8 -10545701.381 7                  -8217432.547 8       150.000          70.000         107.000                  
G13  22547437.807    22547437.585    22547438.665                    -9569083.944 8  -9569083.963 6                  -7456348.229 6       206.000          35.000          37.000                  
G14  19975481.145    19975480.915    19975482.091                   -25184241.678 9 -25184241.676 9                 -19624084.061 8       616.000         504.000         284.000                  
G17  22131581.824    22131581.053    22131582.717                    -9978132.140 8  -9978132.145 8                  -7775170.218 8       263.000         148.000         272.000                  
G21  23978819.714    23978788.974    23978802.637                      -49399.537 7    -49399.518 6                    -38496.156 6        74.000          18.000          18.000                  
G22  21172036.592    21172035.355    21172036.552                   -18871391.819 8 -18871391.824 8                 -14704983.637 7       439.000         152.000          86.000                  
G30  19956404.193    19956403.299    19956406.432                   -22515777.694 9 -22515777.693 9                 -17544766.196 9       816.000        1588.000         942.000                  
> 2024 10 31 12 27  0.0000000  0 11
G02  24282471.816    24282469.044    24282471.807                    -2369579.935 7  -2369579.943 6                  -1846423.951 6        99.000          19.000          21.000                  
G05  24532006.194    24532006.334    24532007.367                    -1478353.825 8  -1478353.814 6                  -1151972.423 6       110.000          34.000          29.000                  
G07  20529607.418    20529606.927    20529607.400                   -23883035.137 9 -23883035.136 9                 -18610159.630 9       611.000         845.000         525.000                  
G08  22919349.577    22919348.542    22919352.622                    -7852582.936 8  -7852582.947 7                  -6118897.755 8       184.000          80.000         149.000                  
G09  22543919.961    22543919.345    22543922.965                   -10850538.606 8 -10850538.612 7                  -8454968.047 8       156.000          71.000         103.000                  
G13  22598935.214    22598934.582    22598935.617                    -9298466.062 8  -9298466.073 6                  -7245477.265 6       211.000          32.000          44.000                  
G14  19985913.027    19985912.832    19985914.099                   -25129421.315 9 -25129421.314 9                 -19581366.939 8       613.000         514.000         276.000                  
G17  22061369.489    22061368.554    22061370.129                   -10347102.516 8 -10347102.519 8                  -8062679.587 8       278.000         164.000         284.000                  
G21  23965104.687    23965074.815    23965102.048                     -121461.088 7   -121461.099 6                    -94649.285 6        77.000          23.000          19.000                  
G22  21165319.389    21165318.210    21165319.152                   -18906690.811 8 -18906690.811 8                 -14732489.389 7       445.000         150.000          85.000                  
G30  19985157.580    19985156.791    19985160.014                   -22364677.105 9 -22364677.104 9                 -17427025.524 9       804.000        1558.000         968.000                  
> 2024 10 31 12 27 10.0000000  0 11
G02  24247027.898    24247025.706    24247028.501                    -2555836.059 8  -2555836.059 6                  -1991558.673 6       106.000          25.000          23.000                  
G05  24565452.314    24565452.367    24565454.321                    -1302589.287 8  -1302589.297 6                  -1015013.174 6       107.000          32.000          28.000                  
G07  20537027.783    20537027.345    20537027.905                   -23844040.557 9 -23844040.558 9                 -18579774.297 9       605.000         838.000         572.000                  
G08  22964541.776    22964540.858    22964545.203                    -7615096.000 8  -7615096.008 7                  -5933843.092 8       176.000          77.000         148.000                  
G09  22486186.563    22486185.452    22486188.780                   -11153932.671 8 -11153932.673 7                  -8691379.007 8       161.000          82.000         110.000                  
G13  22650691.660    22650691.288    22650692.160                    -9026482.055 8  -9026482.053 6                  -7033541.772 6       204.000          33.000          45.000                  
G14  19997367.987    19997367.805    19997369.031                   -25069225.565 9 -25069225.562 9                 -19534461.200 8       621.000         511.000         292.000                  
G17  21991622.092    21991621.707    21991622.993                   -10713625.656 8 -10713625.656 8                  -8348282.018 8       290.000         185.000         313.000                  
G21  23951962.411    23951930.848    23951962.219                     -190524.345 7   -190524.343 6                   -148471.379 6        75.000          21.000          16.000                  
G22  21159474.600    21159473.673    21159474.408                   -18937405.594 8 -18937405.597 8                 -14756423.029 7       450.000         155.000          97.000                  
G30  20014680.215    20014679.501    20014682.726                   -22209534.474 9 -22209534.474 9                 -17306135.209 9       792.000        1500.000        1029.000                  
> 2024 10 31 12 27 20.0000000  0 11
G02  24212106.283    24212103.490    24212104.773                    -2739354.292 8  -2739354.268 6                  -2134559.940 6       117.000          20.000          21.000                  
G05  24598984.057    24598983.382    24598985.529                    -1126384.842 8  -1126384.846 6                   -877711.205 6       101.000          30.000          28.000                  
G07  20545155.492    20545154.961    20545155.638                   -23801330.013 9 -23801330.014 9                 -18546493.413 9       606.000         836.000         625.000                  
G08  23010301.937    23010301.280    23010305.262                    -7374625.467 8  -7374625.474 7                  -5746463.554 8       169.000          73.000         140.000                  
G09  22428739.676    22428738.839    22428742.341                   -11455815.931 8 -11455815.934 7                  -8926612.720 8       171.000          91.000         124.000                  
G13  22702709.597    22702708.786    22702710.398                    -8753128.119 8  -8753128.118 6                  -6820538.806 6       195.000          33.000          49.000                  
G14  20009849.913    20009849.578    20009850.742                   -25003633.619 9 -25003633.616 9                 -19483350.638 8       632.000         540.000         305.000                  
G17  21922360.662    21922360.234    21922361.620                   -11077595.937 8 -11077595.943 8                  -8631895.216 8       294.000         189.000         347.000                  
G21  23939398.330    23939365.619    23939398.845                     -256545.358 7   -256545.350 6                   -199934.701 6        71.000          22.000          15.000                  
G22  21154511.224    21154510.294    21154511.115                   -18963488.127 8 -18963488.128 8                 -14776747.128 8       453.000         158.000         106.000                  
G30  20044972.025    20044971.081    20044974.325                   -22050351.076 9 -22050351.075 9                 -17182096.249 9       780.000        1459.000        1102.000                  
> 2024 10 31 12 27 30.0000000  0 11
G02  24177705.339    24177702.538    24177704.665                    -2920133.534 8  -2920133.503 6                  -2275426.868 6       119.000          26.000          24.000                  
G05  24632589.694    24632588.465    24632591.187                     -949790.297 8   -949790.270 6                   -740105.250 6       103.000          36.000          29.000                  
G07  20553981.502    20553980.953    20553981.524                   -23754949.424 9 -23754949.423 9                 -18510352.759 9       608.000         846.000         676.000                  
G08  23056613.773    23056612.805    23056616.701                    -7131256.392 8  -7131256.394 7                  -5556825.431 8       165.000          67.000         144.000                  
G09  22371580.983    22371580.845    22371584.279                   -11756184.414 8 -11756184.412 7                  -9160666.090 8       181.000          94.000         135.000                  
G13  22754976.927    22754975.259    22754976.558                    -8478464.204 8  -8478464.174 6                  -6606515.074 7       196.000          30.000          52.000                  
G14  20023349.878    20023349.746    20023350.947                   -24932689.955 9 -24932689.951 9                 -19428069.910 8       643.000         555.000         333.000                  
G17  21853593.369    21853592.967    21853594.354                   -11438971.436 8 -11438971.437 8                  -8913486.508 8       300.000         193.000         385.000                  
G21  23927412.068    23927375.544    23927413.583                     -319544.531 7   -319544.537 6                   -249072.094 6        70.000          22.000          18.000                  
G22  21150426.043    21150425.084    21150426.013                   -18984955.314 8 -18984955.314 8                 -14793474.860 8       452.000         160.000         111.000                  
G30  20076019.910    20076019.147    20076022.476                   -21887192.596 9 -21887192.595 9                 -17054959.826 9       781.000        1467.000        1220.000                  
> 2024 10 31 12 27 40.0000000  0 10
G02  24143836.122    24143834.118    24143834.764                    -3098116.118 8  -3098116.113 6                  -2414114.720 6       123.000          23.000          25.000                  
G05  24666269.674    24666269.485    24666270.389                     -772798.398 8   -772798.391 6                   -602189.644 6       102.000          23.000          26.000                  
G07  20563507.471    20563507.239    20563507.928                   -23704888.438 9 -23704888.438 9                 -18471344.265 9       611.000         847.000         720.000                  
G08  23103470.787    23103470.719    23103474.855                    -6885017.038 8  -6885017.047 7                  -5364950.729 8       162.000          63.000         139.000                  
G09  22314723.028    22314722.416    22314725.741                   -12054977.077 8 -12054977.076 8                  -9393491.556 8       191.000         110.000         146.000                  
G13  22807492.450    22807491.322    22807492.530                    -8202493.151 8  -8202493.125 6                  -6391472.824 6       188.000          29.000          44.000                  
G14  20037870.562    20037870.402    20037871.749                   -24856383.508 9 -24856383.504 9                 -19368610.391 8       645.000         553.000         357.000                  
G17  21785338.838    21785338.037    21785339.301                   -11797652.767 8 -11797652.773 8                  -9192978.454 8       304.000         193.000         400.000                  
G22  21147226.751    21147225.717    21147226.841                   -19001768.254 8 -19001768.252 8                 -14806575.915 8       458.000         167.000         107.000                  
G30  20107822.551    20107821.840    20107825.207                   -21720068.463 9 -21720068.463 9                 -16924733.287 9       780.000        1465.000        1322.000                  
> 2024 10 31 12 27 50.0000000  0 10
G02  24110503.386    24110501.171    24110503.494                    -3273279.606 8  -3273279.617 6                  -2550605.789 6       122.000          28.000          23.000                  
G05  24700020.117    24700020.326    24700020.814                     -595436.442 7   -595436.422 6                   -463985.730 6        98.000          32.000          22.000                  
G07  20573729.651    20573729.145    20573729.825                   -23651172.102 9 -23651172.103 9                 -18429487.450 9       615.000         849.000         765.000                  
G08  23150863.157    23150862.833    23150866.825                    -6635970.708 8  -6635970.718 7                  -5170888.778 8       160.000          68.000         140.000                  
G09  22258169.192    22258168.617    22258172.397                   -12352167.478 8 -12352167.482 8                  -9625068.501 8       196.000         110.000         176.000                  
G13  22860249.730    22860248.438    22860249.393                    -7925252.520 8  -7925252.521 6                  -6175441.260 6       190.000          25.000          48.000                  
G14  20053407.004    20053406.858    20053408.052                   -24774739.395 9 -24774739.389 9                 -19304991.646 8       655.000         580.000         387.000                  
G17  21717608.715    21717608.247    21717609.676                   -12153575.070 8 -12153575.070 8                  -9470320.512 8       314.000         206.000         432.000                  
G22  21144913.791    21144912.807    21144913.562                   -19013923.950 8 -19013923.948 8                 -14816047.953 8       470.000         173.000         115.000                  
G30  20140371.396    20140370.711    20140374.043                   -21549023.430 9 -21549023.429 9                 -16791451.502 9       776.000        1444.000        1442.000                  
> 2024 10 31 12 28  0.0000000  0 10
G02  24077711.266    24077709.688    24077710.576                    -3445601.532 8  -3445601.539 6                  -2684882.692 6       129.000          26.000          32.000                  
G05  24733836.322    24733836.199    24733838.388                     -417731.107 7   -417731.128 6                   -325514.304 6        97.000          32.000          22.000                  
G07  20584642.142    20584641.882    20584642.543                   -23593825.588 9 -23593825.587 9                 -18384801.927 9       614.000         847.000         782.000                  
G08  23198777.336    23198776.695    23198781.095                    -6384180.324 8  -6384180.317 7                  -4974688.614 8       159.000          63.000         137.000                  
G09  22201925.751    22201925.304    22201929.071                   -12647728.558 8 -12647728.562 8                  -9855375.852 8       200.000         123.000         198.000                  
G13  22913241.419    22913240.339    22913241.626                    -7646779.381 8  -7646779.371 6                  -5958449.333 6       191.000          30.000          50.000                  
G14  20069954.163    20069953.824    20069955.210                   -24687783.610 9 -24687783.603 9                 -19237233.951 8       634.000         540.000         381.000                  
G17  21650416.612    21650415.777    21650417.398                   -12506672.807 8 -12506672.812 8                  -9745461.616 8       303.000         198.000         460.000                  
G22  21143487.108    21143486.104    21143487.164                   -19021420.119 8 -19021420.118 8                 -14821889.189 8       473.000         175.000         117.000                  
G30  20173657.807    20173657.062    20173660.475                   -21374102.338 9 -21374102.338 9                 -16655149.417 9       760.000        1387.000        1463.000                  
> 2024 10 31 12 28 10.0000000  0 10
G02  24045470.531    24045470.247    24045471.262                    -3615027.568 8  -3615027.587 6                  -2816903.040 6       132.000          21.000          31.000                  
G05  24767719.633    24767718.673    24767721.054                     -239676.615 7   -239676.626 6                   -186770.760 6        96.000          27.000          30.000                  
G07  20596247.181    20596246.615    20596247.298                   -23532842.578 9 -23532842.579 9                 -18337282.778 9       629.000         909.000         842.000                  
G08  23247207.933    23247207.840    23247211.496                    -6129676.722 8  -6129676.730 7                  -4776374.254 8       165.000          65.000         138.000                  
G09  22146004.139    22146003.503    22146007.261                   -12941600.881 8 -12941600.886 8                 -10084367.285 8       215.000         138.000         239.000                  
G13  22966466.374    22966466.044    22966466.853                    -7367078.227 8  -7367078.229 6                  -5740500.537 6       185.000          29.000          43.000                  
G14  20087512.931    20087512.745    20087514.062                   -24595511.284 9 -24595511.278 9                 -19165333.505 8       626.000         535.000         405.000                  
G17  21583780.199    21583779.708    21583781.216                   -12856847.964 8 -12856847.969 8                 -10018325.379 8       287.000         177.000         492.000                  
G22  21142954.084    21142952.943    21142954.040                   -19024223.220 8 -19024223.218 8                 -14824073.495 8       487.000         182.000         124.000                  
G30  20207679.303    20207678.564    20207681.950                   -21195318.345 9 -21195318.345 9                 -16515837.283 9       759.000        1398.000        1537.000                  
> 2024 10 31 12 28 20.0000000  0 10
G02  24013781.560    24013779.515    24013780.881                    -3781559.433 8  -3781559.437 6                  -2946668.200 6       134.000          24.000          36.000                  
G05  24801659.712    24801659.008    24801660.266                      -61322.488 7    -61322.464 6                    -47793.754 6        94.000          29.000          24.000                  
G07  20608534.433    20608533.920    20608534.597                   -23468272.735 9 -23468272.736 9                 -18286968.695 9       642.000         938.000         883.000                  
G08  23296138.915    23296137.809    23296141.854                    -5872546.451 8  -5872546.451 7                  -4576013.148 8       160.000          67.000         144.000                  
G09  22090404.452    22090403.719    22090407.137                   -13233780.391 8 -13233780.389 8                 -10312039.645 8       227.000         154.000         281.000                  
G13  23019914.839    23019913.585    23019915.025                    -7086209.143 8  -7086209.155 6                  -5521641.666 6       185.000          25.000          44.000                  
G14  20106073.769    20106073.395    20106074.724                   -24497974.424 9 -24497974.417 9                 -19089330.826 8       621.000         530.000         401.000                  
G17  21517708.220    21517707.912    21517709.242                   -13204057.846 8 -13204057.850 8                 -10288878.525 8       276.000         166.000         492.000                  
G22  21143309.481    21143308.241    21143309.099                   -19022356.398 8 -19022356.397 8                 -14822618.902 8       498.000         190.000         132.000                  
G30  20242422.703    20242421.961    20242425.417                   -21012740.636 9 -21012740.636 9                 -16373569.006 9       758.000        1375.000        1583.000                  
> 2024 10 31 12 28 30.0000000  0 11
G02  23982653.089    23982650.538    23982651.774                    -3945141.359 8  -3945141.344 6                  -3074134.727 6       139.000          23.000          32.000                  
G05  24835656.754    24835656.910    24835658.701                      117339.743 7    117339.741 6                     91423.329 6        96.000          30.000          29.000                  
G07  20621505.671    20621505.196    20621505.822                   -23400108.541 9 -23400108.542 9                 -18233853.822 9       648.000         964.000         886.000                  
G08  23345563.682    23345562.419    23345566.979                    -5612818.270 8  -5612818.276 7                  -4373627.714 8       161.000          56.000         139.000                  
G09  22035137.413    22035137.433    22035141.373                   -13524205.064 8 -13524205.067 8                 -10538344.614 8       238.000         168.000         307.000                  
G13  23073584.197    23073583.164    23073584.587                    -6804174.172 8  -6804174.170 6                  -5301874.313 6       183.000          24.000          39.000                  
G14  20125637.025    20125636.746    20125638.118                   -24395168.533 9 -24395168.525 9                 -19009222.402 8       623.000         530.000         381.000                  
G17  21452219.710    21452219.476    21452220.651                   -13548201.657 8 -13548201.661 8                 -10557042.527 8       286.000         169.000         460.000                  
G19  24630184.146    24630176.418    24630190.872                     -514877.335 8   -514877.333 6                   -401206.435 6       118.000          23.000          20.000                  
G22  21144559.636    21144558.457    21144559.708                   -19015786.208 8 -19015786.210 8                 -14817499.348 8       494.000         189.000         137.000                  
G30  20277885.741    20277885.059    20277888.524                   -20826381.090 9 -20826381.090 9                 -16228353.847 9       745.000        1328.000        1557.000                  
> 2024 10 31 12 28 40.0000000  0 11
G02  23952089.099    23952086.951    23952088.104                    -4105755.821 8  -4105755.839 6                  -3199288.962 6       139.000          27.000          32.000                  
G05  24869710.662    24869708.823    24869711.530                      296281.150 7    296281.155 6                    230857.861 6        93.000          28.000          24.000                  
G07  20635155.019    20635154.708    20635155.236                   -23328380.634 9 -23328380.634 9                 -18177962.030 9       661.000         990.000         867.000                  
G08  23395469.574    23395468.664    23395473.339                    -5350558.574 8  -5350558.581 7                  -4169269.670 8       161.000          64.000         142.000                  
G09  21980210.895    21980210.075    21980213.940                   -13812850.304 8 -13812850.305 8                 -10763263.011 8       247.000         183.000         340.000                  
G13  23127468.631    23127467.036    23127468.776                    -6521012.755 8  -6521012.729 6                  -5081229.203 6       179.000          24.000          39.000                  
G14  20146196.679    20146196.252    20146197.563                   -24287127.956 9 -24287127.947 9                 -18925035.010 8       636.000         550.000         375.000                  
G17  21387326.704    21387326.523    21387327.849                   -13889215.926 8 -13889215.926 8                 -10822767.941 8       299.000         199.000         466.000                  
G19  24559240.250    24559236.487    24559247.094                     -887682.624 8   -887682.630 6                   -691701.539 6       123.000          25.000          25.000                  
G22  21146703.997    21146702.738    21146703.635                   -19004517.860 9 -19004517.862 8                 -14808718.891 8       503.000         200.000         142.000                  
G30  20314058.847    20314058.310    20314061.794                   -20636289.583 9 -20636289.582 9                 -16080230.669 9       740.000        1308.000        1519.000                  
> 2024 10 31 12 28 50.0000000  0 11
G02  23922093.828    23922091.920    23922093.140                    -4263380.974 8  -4263380.981 6                  -3322113.873 6       139.000          26.000          32.000                  
G05  24903810.573    24903809.065    24903810.914                      475477.478 7    475477.464 6                    370491.103 6        93.000          26.000          25.000                  
G07  20649477.708    20649477.243    20649477.820                   -23253115.561 9 -23253115.562 9                 -18119314.009 9       663.000         996.000         905.000                  
G08  23445846.162    23445845.319    23445849.919                    -5085829.252 8  -5085829.242 7                  -3962987.255 8       161.000          62.000         151.000                  
G09  21925627.647    21925627.139    21925630.752                   -14099686.800 8 -14099686.800 8                 -10986771.999 8       257.000         198.000         388.000                  
G13  23181559.672    23181558.833    23181560.320                    -6236759.631 8  -6236759.653 6                  -4859733.457 6       172.000          32.000          42.000                  
G14  20167746.318    20167746.111    20167747.346                   -24173883.743 9 -24173883.734 9                 -18836792.844 8       649.000         568.000         392.000                  
G17  21323042.721    21323042.067    21323043.545                   -14227032.496 8 -14227032.498 8                 -11086001.644 9       304.000         197.000         518.000                  
G19  24488456.931    24488454.186    24488480.323                    -1259652.889 8  -1259652.898 6                   -981550.956 6       127.000          23.000          15.000                  
G22  21149742.059    21149741.101    21149741.761                   -18988553.142 9 -18988553.142 8                 -14796278.932 8       512.000         200.000         149.000                  
G30  20350933.726    20350933.074    20350936.506                   -20442511.864 9 -20442511.863 9                 -15929235.121 9       726.000        1275.000        1506.000                  
> 2024 10 31 12 29  0.0000000  0 11
G02  23892678.463    23892675.289    23892678.131                    -4417963.847 8  -4417963.825 6                  -3442568.190 6       144.000          26.000          33.000                  
G05  24937959.125    24937958.751    24937961.538                      654936.579 7    654936.569 6                    510329.010 6        91.000          30.000          25.000                  
G07  20664474.188    20664473.809    20664474.272                   -23174308.657 9 -23174308.658 9                 -18057906.121 9       669.000        1025.000         913.000                  
G08  23496687.271    23496686.062    23496690.799                    -4818660.375 8  -4818660.378 7                  -3754803.897 8       162.000          61.000         158.000                  
G09  21871400.355    21871399.939    21871403.351                   -14384653.315 8 -14384653.319 8                 -11208823.862 8       273.000         214.000         419.000                  
G13  23235858.998    23235858.621    23235858.914                    -5951417.489 8  -5951417.511 6                  -4637389.111 6       168.000          27.000          36.000                  
G14  20190286.086    20190285.868    20190287.258                   -24055436.421 9 -24055436.412 9                 -18744496.312 8       649.000         575.000         392.000                  
G17  21259385.745    21259385.356    21259386.871                   -14561551.289 8 -14561551.293 8                 -11346665.649 9       326.000         233.000         554.000                  
G19  24417847.238    24417845.642    24417853.400                    -1630704.430 8  -1630704.428 6                  -1270679.455 6       136.000          30.000          19.000                  
G22  21153679.359    21153678.203    21153679.266                   -18967863.110 9 -18967863.113 8                 -14780156.917 8       509.000         200.000         146.000                  
G30  20388507.234    20388506.519    20388510.006                   -20245062.326 9 -20245062.326 9                 -15775378.419 9       720.000        1245.000        1440.000                  
> 2024 10 31 12 29 10.0000000  0 12
G02  23863839.841    23863837.494    23863839.404                    -4569507.826 8  -4569507.827 6                  -3560654.500 6       147.000          23.000          43.000                  
G05  24972151.009    24972150.095    24972152.127                      834610.572 7    834610.559 6                    650334.364 6        91.000          27.000          24.000                  
G07  20680134.900    20680134.429    20680134.989                   -23092011.756 9 -23092011.756 9                 -17993778.755 9       670.000        1014.000        1007.000                  
G08  23547975.300    23547974.951    23547979.427                    -4549138.109 8  -4549138.123 7                  -3544786.743 8       161.000          64.000         179.000                  
G09  21817529.807    21817529.502    21817533.074                   -14667744.487 8 -14667744.491 8                 -11429414.415 8       279.000         228.000         498.000                  
G13  23290353.318    23290353.252    23290354.303                    -5665045.034 8  -5665045.028 6                  -4414241.950 6       165.000          25.000          45.000                  
G14  20213805.010    20213804.759    20213806.250                   -23931843.726 9 -23931843.716 9                 -18648190.400 8       686.000         638.000         414.000                  
G17  21196365.027    21196364.628    21196366.084                   -14892728.011 8 -14892728.013 8                 -11604725.447 9       350.000         263.000         598.000                  
G19  24347418.701    24347417.215    24347443.723                    -2000809.075 8  -2000809.059 6                  -1559075.170 6       143.000          27.000          14.000                  
G21  23839702.998    23839701.881    23839716.606                      -23388.100 7    -23388.122 6                    -18228.560 6        97.000          22.000          19.000                  
G22  21158510.331    21158509.246    21158510.290                   -18942475.969 9 -18942475.966 8                 -14760374.820 8       505.000         197.000         168.000                  
G30  20426765.823    20426765.282    20426768.733                   -20044011.745 9 -20044011.744 9                 -15618715.714 9       717.000        1240.000        1508.000                  
> 2024 10 31 12 29 20.0000000  0 12
G02  23835589.831    23835587.885    23835589.359                    -4717961.920 8  -4717961.908 6                  -3676333.161 6       147.000          27.000          30.000                  
G05  25006384.687    25006384.047    25006385.264                     1014506.583 7   1014506.605 6                    790512.763 6        95.000          30.000          29.000                  
G07  20696460.057    20696459.645    20696460.256                   -23006222.474 9 -23006222.474 9                 -17926930.059 9       663.000        1018.000        1041.000                  
G08  23599705.891    23599705.947    23599709.965                    -4277293.715 8  -4277293.725 7                  -3332960.146 8       158.000          57.000         180.000                  
G09  21764027.587    21764027.237    21764030.863                   -14948899.969 8 -14948899.973 8                 -11648496.643 9       285.000         239.000         554.000                  
G13  23345044.180    23345044.333    23345044.725                    -5377645.907 8  -5377645.912 6                  -4190294.792 6       156.000          25.000          44.000                  
G14  20238302.527    20238302.233    20238303.525                   -23803109.781 9 -23803109.770 9                 -18547878.319 8       711.000         668.000         450.000                  
G17  21133999.178    21133998.760    21134000.080                   -15220463.453 8 -15220463.457 8                 -11860103.732 9       366.000         280.000         623.000                  
G19  24277187.545    24277184.839    24277186.885                    -2369883.266 8  -2369883.253 6                  -1846662.554 6       148.000          31.000          39.000                  
G21  23834176.005    23834173.705    23834188.958                      -52433.217 8    -52433.215 6                    -40860.289 6       103.000          20.000          19.000                  
G22  21164240.112    21164238.981    21164240.014                   -18912366.262 8 -18912366.264 8                 -14736912.806 8       495.000         191.000         176.000                  
G30  20465706.856    20465706.272    20465709.556                   -19839376.449 9 -19839376.448 9                 -15459259.731 9       713.000        1216.000        1503.000                  
> 2024 10 31 12 29 30.0000000  0 12
G02  23807930.104    23807928.242    23807930.855                    -4863315.160 8  -4863315.139 6                  -3789595.545 6       152.000          24.000          28.000                  
G05  25040655.065    25040653.756    25040655.442                     1194592.713 7   1194592.700 6                    930839.217 6        91.000          25.000          21.000                  
G07  20713442.789    20713442.270    20713443.029                   -22916978.378 9 -22916978.379 9                 -17857389.302 9       657.000         974.000        1040.000                  
G08  23651865.606    23651864.234    23651868.906                    -4003197.917 8  -4003197.923 7                  -3119379.223 8       150.000          56.000         175.000                  
G09  21710897.572    21710897.303    21710901.317                   -15228098.801 8 -15228098.805 8                 -11866054.212 9       293.000         254.000         589.000                  
G13  23399922.006    23399921.375    23399922.126                    -5089262.817 8  -5089262.789 6                  -3965580.935 6       155.000          24.000          35.000                  
G14  20263769.739    20263769.431    20263770.679                   -23669279.342 9 -23669279.332 9                 -18443594.952 8       714.000         677.000         461.000                  
G17  21072299.591    21072299.092    21072300.420                   -15544697.769 8 -15544697.771 8                 -12112753.861 9       394.000         335.000         652.000                  
G19  24207158.428    24207156.852    24207158.531                    -2737882.422 8  -2737882.415 6                  -2133415.077 6       155.000          25.000          41.000                  
G21  23829240.878    23829238.034    23829269.222                      -78368.526 8    -78368.548 6                    -61071.715 6       108.000          25.000          20.000                  
G22  21170865.856    21170864.454    21170865.813                   -18877549.137 8 -18877549.139 8                 -14709782.670 8       484.000         177.000         173.000                  
G30  20505319.204    20505318.543    20505321.944                   -19631212.554 9 -19631212.554 9                 -15297054.195 9       700.000        1178.000        1454.000                  
> 2024 10 31 12 29 40.0000000  0 12
G02  23780867.330    23780864.927    23780867.686                    -5005532.442 8  -5005532.467 6                  -3900414.371 6       159.000          24.000          35.000                  
G05  25074958.011    25074957.897    25074958.941                     1374861.415 7   1374861.415 6                   1071307.938 6        91.000          30.000          23.000                  
G07  20731080.423    20731079.873    20731080.585                   -22824292.738 9 -22824292.739 9                 -17785166.826 9       652.000         966.000        1040.000                  
G08  23704443.618    23704442.754    23704447.339                    -3726896.681 8  -3726896.672 7                  -2904079.795 8       144.000          54.000         165.000                  
G09  21658149.448    21658148.493    21658152.564                   -15505295.211 8 -15505295.214 8                 -12082051.461 9       300.000         278.000         641.000                  
G13  23454983.182    23454982.239    23454984.020                    -4799913.935 8  -4799913.935 6                  -3740114.491 6       147.000          26.000          38.000                  
G14  20290202.702    20290202.394    20290203.573                   -23530373.671 9 -23530373.661 9                 -18335356.861 8       718.000         685.000         461.000                  
G17  21011282.089    21011281.746    21011283.101                   -15865346.535 8 -15865346.537 8                 -12362610.063 9       425.000         386.000         698.000                  
G19  24137348.167    24137347.001    24137348.257                    -3104736.884 8  -3104736.883 6                  -2419275.622 6       162.000          32.000          45.000                  
G21  23824899.500    23824896.835    23824900.397                     -101182.729 8   -101182.724 6                    -78848.125 6       111.000          22.000          22.000                  
G22  21178388.438    21178387.454    21178388.803                   -18838016.161 8 -18838016.160 8                 -14678977.846 8       483.000         178.000         175.000                  
G30  20545597.019    20545596.328    20545599.767                   -19419551.911 9 -19419551.910 9                 -15132123.926 9       683.000        1127.000        1477.000                  
> 2024 10 31 12 29 50.0000000  0 12
G02  23754404.688    23754403.486    23754404.415                    -5144593.750 8  -5144593.738 6                  -4008773.984 6       162.000          29.000          30.000                  
G05  25109293.294    25109292.901    25109294.503                     1555291.092 7   1555291.095 6                   1211902.078 6        85.000          29.000          22.000                  
G07  20749367.503    20749366.876    20749367.712                   -22728193.908 9 -22728193.908 9                 -17710284.723 9       646.000         953.000        1089.000                  
G08  23757430.423    23757429.415    23757434.171                    -3448450.532 8  -3448450.539 6                  -2687109.010 8       138.000          44.000         162.000                  
G09  21605787.227    21605786.990    21605790.928                   -15780457.894 8 -15780457.897 8                 -12296463.987 9       316.000         292.000         712.000                  
G13  23510222.290    23510221.078    23510223.255                    -4509631.687 8  -4509631.682 6                  -3513920.805 6       140.000          21.000          34.000                  
G14  20317594.170    20317594.047    20317595.454                   -23386429.729 9 -23386429.718 9                 -18223192.847 8       697.000         639.000         490.000                  
G17  20950960.553    20950959.847    20950961.413                   -16182339.761 8 -16182339.762 8                 -12609617.796 9       439.000         410.000         766.000                  
G19  24067766.235    24067765.057    24067766.163                    -3470391.054 8  -3470391.057 6                  -2704200.895 7       173.000          37.000          58.000                  
G21  23821150.615    23821147.975    23821152.608                     -120879.724 8   -120879.719 6                    -94196.646 6       109.000          25.000          22.000                  
G22  21186807.453    21186806.518    21186807.603                   -18793774.690 8 -18793774.689 8                 -14644504.074 8       474.000         179.000         182.000                  
G30  20586531.153    20586530.600    20586534.102                   -19204441.147 9 -19204441.147 9                 -14964505.257 9       667.000        1068.000        1519.000                  
> 2024 10 31 12 30  0.0000000  0 12
G02  23728547.734    23728545.896    23728547.122                    -5280479.357 8  -5280479.365 6                  -4114659.059 6       170.000          32.000          34.000                  
G05  25143656.368    25143653.865    25143656.343                     1735860.574 7   1735860.566 6                   1352605.100 6        87.000          27.000          23.000                  
G07  20768298.566    20768298.019    20768298.838                   -22628710.570 9 -22628710.571 9                 -17632765.350 9       637.000         915.000        1043.000                  
G08  23810813.110    23810812.558    23810817.913                    -3167919.631 8  -3167919.613 6                  -2468513.772 8       128.000          43.000         150.000                  
G09  21553818.511    21553818.298    21553822.194                   -16053555.214 8 -16053555.218 8                 -12509267.138 9       328.000         325.000         708.000                  
G13  23565631.622    23565632.246    23565633.657                    -4218448.107 8  -4218448.100 6                  -3287024.775 6       138.000          19.000          29.000                  
G14  20345937.533    20345937.329    20345938.714                   -23237485.348 9 -23237485.338 9                 -18107132.395 8       687.000         612.000         483.000                  
G17  20891347.589    20891346.990    20891348.579                   -16495607.216 8 -16495607.218 8                 -12853722.335 9       454.000         448.000         738.000                  
G19  23998423.489    23998421.701    23998423.678                    -3834788.656 8  -3834788.646 6                  -2988147.043 7       185.000          41.000          52.000                  
G21  23817994.952    23817992.764    23817997.197                     -137463.737 8   -137463.719 6                   -107119.510 6       117.000          22.000          26.000                  
G22  21196120.743    21196119.739    21196120.867                   -18744832.825 8 -18744832.825 8                 -14606367.664 8       472.000         162.000         170.000                  
G30  20628113.331    20628112.490    20628116.056                   -18985927.037 9 -18985927.037 9                 -14794234.632 9       650.000        1006.000        1423.000                  
> 2024 10 31 12 30 10.0000000  0 12
G02  23703301.585    23703299.741    23703300.488                    -5413148.206 8  -5413148.214 6                  -4218037.546 6       171.000          30.000          36.000                  
G05  25178044.552    25178042.381    25178044.845                     1916570.946 7   1916570.954 6                   1493417.930 6        86.000          22.000          21.000                  
G07  20787872.299    20787871.806    20787872.675                   -22525849.914 9 -22525849.915 9                 -17552614.306 9       626.000         900.000        1073.000                  
G08  23864586.546    23864585.897    23864590.948                    -2885342.145 8  -2885342.141 6                  -2248323.812 8       123.000          43.000         136.000                  
G09  21502253.238    21502252.931    21502256.722                   -16324533.541 8 -16324533.544 8                 -12720419.132 9       344.000         354.000         762.000                  
G13  23621212.623    23621212.045    23621214.091                    -3926373.140 8  -3926373.132 6                  -3059434.151 6       133.000          24.000          34.000                  
G14  20375229.067    20375228.952    20375230.487                   -23083557.537 9 -23083557.528 9                 -17987188.755 8       680.000         607.000         475.000                  
G17  20832461.280    20832460.824    20832462.129                   -16805056.874 8 -16805056.876 9                 -13094851.977 9       495.000         517.000         765.000                  
G19  23929335.551    23929334.115    23929335.923                    -4197850.941 8  -4197850.936 6                  -3271052.676 7       199.000          40.000          66.000                  
G21  23815436.252    23815433.212    23815437.325                     -150917.834 8   -150917.848 6                   -117603.508 6       120.000          26.000          19.000                  
G22  21206330.794    21206329.854    21206331.208                   -18691177.993 8 -18691177.993 8                 -14564558.818 8       460.000         161.000         171.000                  
G30  20670338.103    20670337.272    20670340.796                   -18764034.634 9 -18764034.634 9                 -14621331.576 9       628.000         950.000        1399.000                  
> 2024 10 31 12 30 20.0000000  0 12
G02  23678668.026    23678665.660    23678667.188                    -5542601.272 8  -5542601.270 6                  -4318910.237 6       175.000          24.000          36.000                  
G05  25212451.866    25212450.099    25212452.180                     2097381.979 7   2097381.993 6                   1634309.115 6        81.000          28.000          20.000                  
G07  20808079.373    20808078.964    20808079.918                   -22419660.951 9 -22419660.950 9                 -17469869.778 9       624.000         892.000        1046.000                  
G08  23918733.467    23918732.771    23918737.932                    -2600797.613 8  -2600797.615 6                  -2026601.109 8       118.000          33.000         130.000                  
G09  21451093.542    21451093.035    21451096.878                   -16593380.593 8 -16593380.595 8                 -12929910.399 9       351.000         373.000         770.000                  
G13  23676953.289    23676952.108    23676953.914                    -3633457.888 8  -3633457.880 6                  -2831188.816 6       128.000          22.000          25.000                  
G14  20405457.653    20405457.453    20405458.936                   -22924705.817 9 -22924705.808 9                 -17863408.308 8       659.000         570.000         443.000                  
G17  20774311.108    20774310.635    20774311.941                   -17110638.237 9 -17110638.241 9                 -13332967.372 9       529.000         604.000         759.000                  
G19  23860508.203    23860506.862    23860508.277                    -4559540.213 8  -4559540.206 6                  -3552888.438 7       210.000          43.000          57.000                  
G21  23813466.812    23813464.356    23813467.565                     -161267.032 8   -161267.036 6                   -125668.121 6       119.000          30.000          21.000                  
G22  21217432.740    21217431.426    21217432.811                   -18632840.122 8 -18632840.120 8                 -14519100.857 8       457.000         164.000         171.000                  
G30  20713192.933    20713192.234    20713195.766                   -18538830.766 9 -18538830.766 9                 -14445848.166 9       613.000         909.000        1337.000                  
> 2024 10 31 12 30 30.0000000  0 12
G02  23654656.215    23654653.081    23654654.364                    -5668787.566 8  -5668787.565 6                  -4417237.431 6       176.000          35.000          38.000                  
G05  25246879.320    25246879.022    25246881.126                     2278306.149 7   2278306.148 6                   1775288.441 6        80.000          25.000          21.000                  
G07  20828920.708    20828920.147    20828921.034                   -22310140.666 9 -22310140.666 9                 -17384529.422 9       627.000         899.000        1078.000                  
G08  23973249.956    23973249.448    23973254.550                    -2314312.954 8  -2314312.937 6                  -1803366.640 8       113.000          36.000         122.000                  
G09  21400351.516    21400351.090    21400354.864                   -16860031.536 8 -16860031.539 8                 -13137690.416 9       374.000         408.000         826.000                  
G13  23732853.732    23732851.060    23732854.882                    -3339700.843 8  -3339700.821 6                  -2602287.517 6       118.000          20.000          32.000                  
G14  20436621.550    20436621.200    20436622.846                   -22760938.254 9 -22760938.246 9                 -17735797.345 8       615.000         506.000         439.000                  
G17  20716916.546    20716915.979    20716917.377                   -17412248.403 9 -17412248.405 9                 -13567988.328 9       542.000         630.000         782.000                  
G19  23791959.732    23791958.444    23791960.107                    -4919765.935 8  -4919765.948 6                  -3833583.785 7       222.000          48.000          71.000                  
G21  23812093.853    23812091.016    23812096.297                     -168484.491 8   -168484.485 6                   -131292.384 6       115.000          27.000          22.000                  
G22  21229429.061    21229428.047    21229429.339                   -18569797.705 8 -18569797.708 8                 -14469977.020 8       465.000         163.000         179.000                  
G30  20756675.265    20756674.649    20756678.204                   -18310329.995 9 -18310329.995 9                 -14267795.748 9       609.000         888.000        1353.000                  
> 2024 10 31 12 30 40.0000000  0 12
G02  23631262.991    23631260.213    23631261.812                    -5791716.346 8  -5791716.342 6                  -4513026.298 6       177.000          33.000          39.000                  
G05  25281320.410    25281320.924    25281324.420                     2459296.358 7   2459296.389 6                   1916319.195 6        79.000          23.000          19.000                  
G07  20850384.809    20850384.283    20850385.275                   -22197346.118 9 -22197346.118 9                 -17296637.702 9       627.000         899.000        1016.000                  
G08  24028119.239    24028118.497    24028123.583                    -2025974.580 8  -2025974.570 6                  -1578687.759 8       113.000          38.000         106.000                  
G09  21350028.279    21350027.963    21350031.863                   -17124481.166 8 -17124481.168 8                 -13343755.127 9       386.000         440.000         822.000                  
G13  23788904.542    23788900.919    23788904.826                    -3045159.921 8  -3045159.957 6                  -2372775.441 6       114.000          20.000          24.000                  
G14  20468708.001    20468707.750    20468709.446                   -22592323.617 9 -22592323.607 9                 -17604409.447 8       637.000         529.000         389.000                  
G17  20660285.706    20660285.384    20660286.680                   -17709844.347 9 -17709844.351 9                 -13799881.326 9       554.000         653.000         736.000                  
G19  23723695.223    23723694.140    23723695.535                    -5278496.683 8  -5278496.685 7                  -4113114.220 7       227.000          53.000          73.000                  
G21  23811309.942    23811307.215    23811311.568                     -172603.765 8   -172603.772 6                   -134502.518 6       108.000          22.000          21.000                  
G22  21242313.417    21242312.211    21242313.710                   -18502090.152 8 -18502090.150 8                 -14417218.018 8       452.000         157.000         171.000                  
G30  20800770.927    20800770.260    20800773.794                   -18078606.746 9 -18078606.747 9                 -14087232.318 9       604.000         873.000        1270.000                  
> 2024 10 31 12 30 50.0000000  0 12
G02  23608499.102    23608496.525    23608498.456                    -5911341.756 8  -5911341.738 6                  -4606241.130 6       169.000          32.000          48.000                  
G05  25315776.067    25315776.895    25315779.301                     2640361.609 7   2640361.595 6                   2057408.388 6        73.000          22.000          24.000                  
G07  20872471.786    20872471.299    20872472.150                   -22081279.161 9 -22081279.161 9                 -17206196.062 9       618.000         871.000        1032.000                  
G08  24083334.959    24083334.845    24083339.955                    -1735813.080 8  -1735813.099 6                  -1352588.279 8       109.000          36.000         103.000                  
G09  21300136.162    21300135.560    21300139.277                   -17386668.496 8 -17386668.497 8                 -13548057.010 9       404.000         473.000         911.000                  
G13  23845101.389    23845099.603    23845103.102                    -2749837.193 8  -2749837.154 6                  -2142654.230 6       107.000          21.000          30.000                  
G14  20501714.241    20501713.962    20501715.531                   -22418875.928 9 -22418875.919 9                 -17469255.535 8       642.000         548.000         379.000                  
G17  20604438.026    20604437.614    20604438.811                   -18003327.353 9 -18003327.356 9                 -14028569.436 9       574.000         701.000         806.000                  
G19  23655732.407    23655731.053    23655732.341                    -5635644.964 8  -5635644.969 7                  -4391411.579 7       230.000          58.000          81.000                  
G21  23811119.731    23811117.363    23811120.449                     -173603.293 8   -173603.297 6                   -135281.810 6       103.000          24.000          21.000                  
G22  21256088.708    21256087.489    21256089.063                   -18429702.244 8 -18429702.246 8                 -14360811.999 8       443.000         150.000         180.000                  
G30  20845476.080    20845475.427    20845479.019                   -17843679.947 9 -17843679.946 9                 -13904172.624 9       595.000         851.000        1305.000                  
> 2024 10 31 12 31  0.0000000  0 12
G02  23586365.519    23586363.567    23586365.783                    -6027654.386 8  -6027654.389 6                  -4696874.606 6       164.000          22.000          48.000                  
G05  25350244.913    25350241.563    25350244.825                     2821475.349 7   2821475.340 6                   2198535.268 6        76.000          24.000          28.000                  
G07  20895174.013    20895173.668    20895174.580                   -21961977.662 9 -21961977.662 9                 -17113234.008 9       611.000         849.000         976.000                  
G08  24138886.250    24138885.300    24138890.806                    -1443894.638 8  -1443894.619 6                  -1125119.802 7       105.000          31.000          89.000                  
G09  21250678.692    21250678.322    21250682.008                   -17646568.239 8 -17646568.241 9                 -13750576.363 9       412.000         512.000         942.000                  
G13  23901442.317    23901439.793    23901442.904                    -2453770.370 7  -2453770.350 6                  -1911953.190 6       100.000          20.000          25.000                  
G14  20535630.316    20535630.233    20535631.461                   -22240645.929 9 -22240645.921 9                 -17330375.166 8       659.000         563.000         336.000                  
G17  20549384.674    20549384.250    20549385.569                   -18292634.867 9 -18292634.869 9                 -14254003.910 9       598.000         776.000         857.000                  
G19  23588080.486    23588078.887    23588080.130                    -5991158.633 8  -5991158.639 7                  -4668435.230 7       235.000          54.000          85.000                  
G21  23811521.574    23811518.055    23811522.794                     -171497.929 7   -171497.936 6                   -133641.627 6       100.000          26.000          18.000                  
G22  21270750.174    21270749.214    21270750.706                   -18352655.566 8 -18352655.570 8                 -14300775.774 8       436.000         152.000         182.000                  
G30  20890780.477    20890779.865    20890783.436                   -17605604.470 9 -17605604.469 9                 -13718659.426 9       589.000         835.000        1272.000                  
> 2024 10 31 12 31 10.0000000  0 12
G02  23564865.937    23564863.339    23564866.519                    -6140638.015 8  -6140638.022 6                  -4784914.048 7       158.000          31.000          58.000                  
G05  25384714.709    25384713.241    25384716.481                     3002618.479 7   3002618.468 6                   2339685.040 6        73.000          21.000          23.000                  
G07  20918486.424    20918485.725    20918486.687                   -21839472.600 9 -21839472.599 9                 -17017775.680 9       598.000         812.000         954.000                  
G08  24194761.404    24194759.241    24194764.682                    -1150277.872 8  -1150277.887 6                   -896327.989 7       104.000          33.000          92.000                  
G09  21201662.921    21201662.634    21201666.366                   -17904147.715 8 -17904147.716 9                 -13951287.721 9       424.000         527.000        1042.000                  
G13  23957917.165    23957915.567    23957918.550                    -2156989.580 7  -2156989.590 6                  -1680695.830 6        98.000          23.000          19.000                  
G14  20570448.375    20570447.986    20570449.384                   -22057677.936 9 -22057677.928 9                 -17187802.865 8       653.000         568.000         328.000                  
G17  20495139.236    20495138.805    20495140.111                   -18577697.134 9 -18577697.136 9                 -14476130.404 9       630.000         854.000         979.000                  
G19  23520750.934    23520749.169    23520750.940                    -6344977.786 8  -6344977.776 7                  -4944138.479 7       239.000          65.000          97.000                  
G21  23812511.463    23812507.669    23812511.012                     -166295.742 7   -166295.709 6                   -129588.377 6        93.000          17.000          19.000                  
G22  21286295.573    21286294.171    21286295.881                   -18270965.488 8 -18270965.490 8                 -14237121.325 8       433.000         142.000         174.000                  
G30  20936675.015    20936674.232    20936677.925                   -17364427.968 9 -17364427.968 9                 -13530729.858 9       578.000         793.000        1262.000                  
> 2024 10 31 12 31 20.0000000  0 12
G02  23544008.097    23544005.290    23544007.816                    -6250250.340 8  -6250250.355 6                  -4870326.513 7       153.000          31.000          57.000                  
G05  25419192.410    25419191.134    25419194.275                     3183799.127 7   3183799.125 6                   2480864.037 6        74.000          19.000          23.000                  
G07  20942406.892    20942406.493    20942407.359                   -21713768.716 9 -21713768.717 9                 -16919824.769 9       589.000         784.000         893.000                  
G08  24250950.949    24250950.254    24250955.320                     -854994.512 7   -854994.503 6                   -666237.580 7        99.000          28.000          84.000                  
G09  21153100.259    21153099.811    21153103.627                   -18159347.529 8 -18159347.532 9                 -14150144.799 9       434.000         548.000        1120.000                  
G13  24014528.315    24014526.101    24014529.671                    -1859497.934 7  -1859497.919 6                  -1448884.693 6        90.000          25.000          21.000                  
G14  20606163.886    20606163.695    20606165.279                   -21869990.453 9 -21869990.447 9                 -17041553.042 8       638.000         545.000         328.000                  
G17  20441720.102    20441719.613    20441720.800                   -18858417.991 9 -18858417.995 9                 -14694873.989 9       658.000         918.000        1075.000                  
G19  23453759.837    23453758.679    23453760.410                    -6697015.403 8  -6697015.396 7                  -5218453.524 8       240.000          59.000         106.000                  
G21  23814094.090    23814090.781    23814096.264                     -157978.649 7   -157978.662 6                   -123107.883 6        90.000          23.000          20.000                  
G22  21302726.424    21302725.390    21302726.588                   -18184621.667 8 -18184621.666 8                 -14169840.585 8       429.000         138.000         175.000                  
G30  20983155.541    20983154.852    20983158.558                   -17120171.548 9 -17120171.549 9                 -13340400.362 9       570.000         776.000        1199.000                  
> 2024 10 31 12 31 30.0000000  0 12
G02  23523786.731    23523784.582    23523787.416                    -6356508.663 8  -6356508.680 6                  -4953125.498 7       150.000          27.000          65.000                  
G05  25453668.872    25453666.857    25453670.768                     3364966.470 7   3364966.482 6                   2622032.537 6        70.000          26.000          22.000                  
G07  20966924.439    20966923.862    20966924.755                   -21584929.766 9 -21584929.765 9                 -16819430.959 9       586.000         783.000         875.000                  
G08  24307441.390    24307440.792    24307446.853                     -558135.010 7   -558135.026 6                   -434919.039 7        97.000          29.000          82.000                  
G09  21104990.259    21104989.918    21104993.781                   -18412167.164 8 -18412167.165 9                 -14347147.192 9       441.000         580.000        1223.000                  
G13  24071263.350    24071260.415    24071264.855                    -1561357.266 7  -1561357.261 6                  -1216567.752 6        80.000          21.000          24.000                  
G14  20642763.009    20642762.656    20642764.363                   -21677661.769 9 -21677661.763 9                 -16891686.707 8       627.000         520.000         312.000                  
G17  20389133.860    20389133.338    20389134.661                   -19134760.648 9 -19134760.652 9                 -14910205.990 9       664.000         950.000        1249.000                  
G19  23387114.153    23387112.444    23387114.574                    -7047242.840 8  -7047242.853 7                  -5491358.044 8       241.000          62.000         113.000                  
G21  23816260.170    23816258.505    23816262.918                     -146588.211 7   -146588.194 6                   -114232.615 6        84.000          27.000          15.000                  
G22  21320033.253    21320032.132    21320033.677                   -18093673.801 8 -18093673.801 8                 -14098972.285 8       426.000         139.000         185.000                  
G30  21030207.038    21030206.258    21030210.086                   -16872915.337 9 -16872915.338 9                 -13147733.373 9       559.000         753.000        1177.000                  
> 2024 10 31 12 31 40.0000000  0 12
G02  23504214.913    23504212.427    23504215.554                    -6459362.552 8  -6459362.553 6                  -5033271.677 7       148.000          21.000          68.000                  
G05  25488145.064    25488143.918    25488147.724                     3546138.199 7   3546138.209 6                   2763204.449 6        72.000          24.000          21.000                  
G07  20992039.067    20992038.633    20992039.701                   -21452951.673 9 -21452951.673 9                 -16716591.071 9       584.000         771.000         857.000                  
G08  24364228.302    24364227.064    24364233.733                     -259721.297 7   -259721.299 6                   -202389.477 7        92.000          28.000          71.000                  
G09  21057346.520    21057346.006    21057349.938                   -18662537.796 8 -18662537.799 9                 -14542241.278 9       450.000         608.000        1283.000                  
G13  24128123.091    24128119.295    24128123.639                    -1262561.080 7  -1262561.075 6                   -983740.103 6        80.000          23.000          20.000                  
G14  20680243.295    20680243.059    20680244.754                   -21480702.730 9 -21480702.724 9                 -16738212.308 8       630.000         532.000         299.000                  
G17  20337400.514    20337400.221    20337401.684                   -19406620.303 9 -19406620.306 9                 -15122044.749 9       665.000         939.000        1413.000                  
G19  23320830.812    23320829.174    23320831.172                    -7395563.188 8  -7395563.189 7                  -5762776.526 7       250.000          60.000         100.000                  
G21  23819019.352    23819016.395    23819022.189                     -132098.373 7   -132098.365 6                   -102942.496 6        88.000          18.000          18.000                  
G22  21338219.815    21338218.614    21338220.484                   -17998104.335 8 -17998104.331 8                 -14024502.747 8       417.000         137.000         174.000                  
G30  21077827.084    21077826.333    21077830.117                   -16622671.305 9 -16622671.305 9                 -12952738.219 9       549.000         727.000        1146.000                  
> 2024 10 31 12 31 50.0000000  0 12
G02  23485287.865    23485285.878    23485289.571                    -6558822.733 8  -6558822.754 6                  -5110773.419 7       146.000          27.000          74.000                  
G05  25522614.221    25522612.302    25522616.823                     3727271.887 7   3727271.844 6                   2904346.623 6        66.000          22.000          23.000                  
G07  21017740.462    21017739.903    21017741.066                   -21317891.220 9 -21317891.219 9                 -16611349.355 9       572.000         751.000         842.000                  
G08  24421294.653    24421294.377    24421300.503                       40164.381 7     40164.354 6                     31286.997 7        90.000          27.000          75.000                  
G09  21010170.185    21010169.732    21010173.640                   -18910451.125 8 -18910451.127 9                 -14735420.587 9       463.000         635.000        1303.000                  
G13  24185096.240    24185093.931    24185099.029                     -963162.986 7   -963162.977 6                   -750443.472 6        72.000          20.000          20.000                  
G14  20718591.065    20718590.707    20718592.309                   -21279185.506 9 -21279185.501 9                 -16581186.083 8       637.000         533.000         295.000                  
G17  20286528.992    20286528.463    20286529.981                   -19673953.084 9 -19673953.087 9                 -15330356.076 9       639.000         869.000        1532.000                  
G19  23254918.175    23254916.131    23254918.203                    -7741939.419 8  -7741939.426 7                  -6032680.110 8       259.000          74.000         104.000                  
G21  23822360.032    23822356.529    23822362.045                     -114544.063 7   -114544.063 6                    -89264.193 6        87.000          22.000          18.000                  
G22  21357277.023    21357276.124    21357278.020                   -17897957.354 8 -17897957.354 8                 -13946466.317 8       404.000         129.000         174.000                  
G30  21126001.639    21126001.057    21126004.949                   -16369512.012 9 -16369512.011 9                 -12755471.445 9       532.000         689.000        1112.000                  
> 2024 10 31 12 32  0.0000000  0 12
G02  23467013.111    23467011.446    23467013.978                    -6654858.848 8  -6654858.858 6                  -5185607.067 7       144.000          27.000          64.000                  
G05  25557074.558    25557074.891    25557080.060                     3908366.972 7   3908366.970 6                   3045458.651 6        70.000          23.000          20.000                  
G07  21044025.284    21044024.801    21044026.040                   -21179763.776 9 -21179763.778 9                 -16503717.785 9       568.000         747.000         826.000                  
G08  24478635.569    24478633.855    24478640.089                      341481.780 7    341481.766 6                    266079.043 7        91.000          25.000          65.000                  
G09  20963471.123    20963470.612    20963474.497                   -19155857.146 8 -19155857.149 9                 -14926646.150 9       476.000         665.000        1353.000                  
G13  24242182.752    24242180.012    24242185.338                     -663174.731 7   -663174.755 6                   -516687.021 6        70.000          24.000          21.000                  
G14  20757799.852    20757799.586    20757801.489                   -21073141.323 9 -21073141.318 8                 -16420632.364 8       593.000         464.000         311.000                  
G17  20236534.680    20236534.320    20236536.010                   -19936673.870 9 -19936673.872 9                 -15535073.642 9       621.000         828.000        1636.000                  
G19  23189389.743    23189387.960    23189389.751                    -8086292.436 8  -8086292.433 7                  -6301007.169 8       265.000          70.000         111.000                  
G21  23826285.697    23826281.227    23826288.747                      -93919.078 7    -93919.088 6                    -73193.321 6        88.000          22.000          20.000                  
G22  21377205.430    21377203.818    21377206.177                   -17793236.150 8 -17793236.149 8                 -13864865.568 8       403.000         128.000         167.000                  
G30  21174725.191    21174724.590    21174728.673                   -16113468.378 9 -16113468.378 9                 -12555957.142 9       518.000         651.000        1132.000                  
> 2024 10 31 12 32 10.0000000  0 12
G02  23449396.589    23449393.693    23449396.560                    -6747441.607 8  -6747441.631 6                  -5257749.796 7       152.000          25.000          65.000                  
G05  25591530.203    25591529.551    25591533.982                     4089422.741 7   4089422.752 6                   3186539.978 6        65.000          22.000          20.000                  
G07  21070891.206    21070890.324    21070891.604                   -21038585.326 9 -21038585.327 9                 -16393708.811 9       570.000         743.000         813.000                  
G08  24536238.352    24536238.542    24536244.359                      644190.582 7    644190.575 6                    501955.226 7        87.000          26.000          71.000                  
G09  20917258.536    20917258.106    20917261.920                   -19398706.169 8 -19398706.173 9                 -15115879.241 9       492.000         713.000        1419.000                  
G13  24299379.747    24299376.714    24299381.394                     -362608.142 7   -362608.132 6                   -282479.886 6        69.000          26.000          24.000                  
G14  20797863.906    20797863.774    20797865.990                   -20862602.460 9 -20862602.454 8                 -16256576.307 8       557.000         416.000         308.000                  
G17  20187434.440    20187433.846    20187435.651                   -20194698.325 9 -20194698.327 9                 -15736131.734 9       626.000         833.000        1659.000                  
G19  23124261.485    23124260.009    23124261.649                    -8428543.180 8  -8428543.185 7                  -6567696.082 8       276.000          73.000         116.000                  
G21  23830795.234    23830791.426    23830797.462                      -70218.234 7    -70218.238 6                    -54725.672 6        86.000          20.000          18.000                  
G22  21398002.249    21398001.277    21398003.521                   -17683945.347 8 -17683945.352 8                 -13779704.101 8       401.000         117.000         165.000                  
G30  21223992.014    21223991.179    21223995.413                   -15854571.631 9 -15854571.631 9                 -12354219.640 9       507.000         627.000        1142.000                  
> 2024 10 31 12 32 20.0000000  0 12
G02  23432432.376    23432429.854    23432433.592                    -6836586.423 8  -6836586.443 6                  -5327213.584 7       156.000          26.000          67.000                  
G05  25625969.544    25625967.915    25625972.868                     4270394.776 7   4270394.763 6                   3327556.011 6        67.000          24.000          22.000                  
G07  21098325.705    21098325.071    21098326.402                   -20894416.120 9 -20894416.120 9                 -16281369.387 9       566.000         735.000         813.000                  
G08  24594092.284    24594091.165    24594097.276                      948206.737 7    948206.738 6                    738850.085 7        87.000          30.000          60.000                  
G09  20871533.636    20871533.196    20871537.120                   -19638992.555 9 -19638992.558 9                 -15303115.470 9       508.000         756.000        1487.000                  
G13  24356675.963    24356672.678    24356676.570                      -61518.842 7    -61518.835 6                    -47865.961 6        62.000          19.000          16.000                  
G14  20838769.130    20838768.813    20838770.778                   -20647645.968 9 -20647645.962 8                 -16089077.945 8       548.000         398.000         294.000                  
G17  20139235.311    20139234.742    20139236.544                   -20447986.594 9 -20447986.597 9                 -15933499.297 9       651.000         911.000        1645.000                  
G19  23059540.226    23059538.644    23059540.208                    -8768656.176 8  -8768656.173 7                  -6832719.226 8       280.000          83.000         130.000                  
G21  23835884.078    23835880.089    23835887.438                      -43480.984 7    -43481.001 6                    -33892.126 6        88.000          24.000          19.000                  
G22  21419660.140    21419658.994    21419661.051                   -17570134.606 8 -17570134.608 8                 -13691020.609 8       393.000         121.000         148.000                  
G30  21273787.024    21273786.308    21273790.646                   -15592897.148 8 -15592897.146 9                 -12150317.675 9       493.000         589.000        1150.000                  
> 2024 10 31 12 32 30.0000000  0 12
G02  23416128.966    23416127.032    23416129.340                    -6922263.465 8  -6922263.465 6                  -5393975.236 7       160.000          30.000          76.000                  
G05  25660391.470    25660391.144    25660395.528                     4451284.730 7   4451284.730 6                   3468507.960 6        61.000          22.000          19.000                  
G07  21126326.343    21126325.975    21126327.403                   -20747270.880 9 -20747270.881 9                 -16166710.981 9       554.000         703.000         797.000                  
G08  24652188.031    24652186.116    24652192.546                     1253492.249 7   1253492.219 6                    976733.987 7        86.000          26.000          58.000                  
G09  20826306.076    20826305.741    20826309.676                   -19876664.882 9 -19876664.885 9                 -15488314.769 9       513.000         772.000        1576.000                  
G13  24414068.006    24414065.748    24414073.310                      240083.520 7    240083.533 6                    187148.494 6        58.000          22.000          19.000                  
G14  20880508.950    20880508.694    20880510.440                   -20428303.736 9 -20428303.733 8                 -15918162.137 8       544.000         390.000         295.000                  
G17  20091953.425    20091953.154    20091954.909                   -20696453.672 9 -20696453.674 9                 -16127110.080 9       683.000         991.000        1630.000                  
G19  22995241.182    22995239.576    22995241.168                    -9106549.956 8  -9106549.956 7                  -7096013.096 8       288.000          81.000         134.000                  
G21  23841551.829    23841547.819    23841554.925                      -13701.440 7    -13701.439 6                    -10687.909 6        91.000          21.000          23.000                  
G22  21442177.194    21442175.667    21442177.991                   -17451808.737 8 -17451808.740 8                 -13598818.843 8       372.000         112.000         151.000                  
G30  21324105.246    21324104.445    21324108.873                   -15328474.430 8 -15328474.429 9                 -11944274.237 9       481.000         562.000        1138.000                  
> 2024 10 31 12 32 40.0000000  0 12
G02  23400490.276    23400488.320    23400491.380                    -7004445.472 8  -7004445.447 6                  -5458013.462 7       165.000          28.000          71.000                  
G05  25694798.534    25694798.039    25694805.151                     4632093.183 7   4632093.171 6                   3609396.446 6        58.000          23.000          20.000                  
G07  21154890.728    21154890.064    21154891.578                   -20597166.429 9 -20597166.430 9                 -16049746.699 9       541.000         681.000         778.000                  
G08  24710515.166    24710513.957    24710520.235                     1560007.528 7   1560007.525 6                   1215576.053 7        83.000          29.000          54.000                  
G09  20781585.337    20781585.071    20781589.029                   -20111673.681 9 -20111673.683 9                 -15671438.584 9       520.000         802.000        1661.000                  
G13  24471557.429    24471554.580    24471560.770                      542187.600 7    542187.593 6                    422553.402 6        52.000          22.000          20.000                  
G14  20923076.430    20923076.249    20923078.292                   -20204610.233 9 -20204610.229 8                 -15743855.732 8       546.000         389.000         283.000                  
G17  20045605.113    20045604.705    20045606.342                   -20940017.180 9 -20940017.183 9                 -16316899.895 9       707.000        1066.000        1591.000                  
G19  22931379.938    22931378.170    22931379.671                    -9442144.647 8  -9442144.653 7                  -7357515.456 8       291.000          91.000         136.000                  
G21  23847798.200    23847794.798    23847802.003                       19123.759 7     19123.752 6                     14889.573 6        93.000          22.000          20.000                  
G22  21465551.186    21465550.416    21465552.508                   -17328975.506 8 -17328975.511 8                 -13503104.849 8       365.000         104.000         163.000                  
G30  21374940.397    21374939.657    21374943.996                   -15061334.908 8 -15061334.908 9                 -11736113.820 9       466.000         522.000        1096.000                  
> 2024 10 31 12 32 50.0000000  0 12
G02  23385513.635    23385511.352    23385514.005                    -7083149.628 8  -7083149.603 6                  -5519341.675 7       169.000          35.000          66.000                  
G05  25729182.890    25729181.460    25729187.512                     4812775.621 7   4812775.593 6                   3750186.657 6        59.000          22.000          21.000                  
G07  21184006.353    21184005.745    21184007.285                   -20444163.589 9 -20444163.591 9                 -15930523.933 9       538.000         659.000         716.000                  
G08  24769062.682    24769060.727    24769068.430                     1867669.575 7   1867669.591 6                   1455311.649 7        76.000          26.000          52.000                  
G09  20737373.074    20737372.434    20737376.386                   -20344013.212 9 -20344013.215 9                 -15852482.442 9       528.000         822.000        1694.000                  
G13  24529132.571    24529128.023    24529134.595                      844738.706 7    844738.711 6                    658306.671 6        53.000          17.000          22.000                  
G14  20966457.118    20966456.895    20966458.817                   -19976644.272 9 -19976644.269 8                 -15566220.144 8       533.000         376.000         257.000                  
G17  20000196.998    20000196.590    20000198.125                   -21178639.021 9 -21178639.023 9                 -16502839.053 9       741.000        1169.000        1482.000                  
G19  22867962.205    22867961.227    22867962.537                    -9775403.702 8  -9775403.708 7                  -7617197.837 8       297.000          89.000         142.000                  
G21  23854618.058    23854614.490    23854620.225                       54953.712 7     54953.714 6                     42808.366 6       100.000          22.000          20.000                  
G22  21489773.729    21489772.686    21489774.719                   -17201687.268 8 -17201687.269 7                 -13403919.428 8       353.000          99.000         152.000                  
G30  21426278.236    21426277.531    21426281.907                   -14791553.722 8 -14791553.720 9                 -11525894.970 9       454.000         503.000        1012.000                  
> 2024 10 31 12 33  0.0000000  0 12
G02  23371203.482    23371201.858    23371205.154                    -7158348.318 8  -7158348.326 6                  -5577938.337 7       174.000          33.000          70.000                  
G05  25763540.442    25763541.762    25763548.325                     4993334.671 7   4993334.657 6                   3890880.523 6        57.000          17.000          21.000                  
G07  21213670.458    21213670.007    21213671.479                   -20288277.972 9 -20288277.972 9                 -15809054.849 9       528.000         632.000         688.000                  
G08  24827820.344    24827819.101    24827827.038                     2176441.146 7   2176441.159 6                   1695911.725 7        75.000          22.000          55.000                  
G09  20693677.884    20693677.496    20693681.357                   -20573632.421 9 -20573632.424 9                 -16031406.561 9       540.000         862.000        1793.000                  
G13  24586789.031    24586785.468    24586792.339                     1147727.700 7   1147727.690 6                    894400.202 6        51.000          20.000          17.000                  
G14  21010644.280    21010644.144    21010645.997                   -19744439.786 9 -19744439.783 8                 -15385281.813 8       521.000         362.000         231.000                  
G17  19955744.998    19955744.529    19955746.090                   -21412236.310 9 -21412236.313 9                 -16684862.975 9       753.000        1216.000        1499.000                  
G19  22805005.349    22805004.001    22805005.763                   -10106244.963 8 -10106244.964 7                  -7874996.203 8       304.000          94.000         166.000                  
G21  23862009.375    23862005.617    23862011.183                       93792.429 8     93792.421 6                     73071.621 6       101.000          23.000          21.000                  
G22  21514842.243    21514841.158    21514843.165                   -17069951.920 8 -17069951.926 7                 -13301268.721 8       341.000          95.000         153.000                  
G30  21478113.365    21478112.419    21478116.869                   -14519160.483 8 -14519160.483 8                 -11313640.759 9       446.000         467.000        1000.000                  
> 2024 10 31 12 33 10.0000000  0 11
G02  23357565.745    23357563.984    23357566.723                    -7230019.767 8  -7230019.781 6                  -5633786.490 7       180.000          33.000          73.000                  
G05  25797880.260    25797877.472    25797885.597                     5173767.648 7   5173767.645 6                   4031476.258 6        60.000          21.000          25.000                  
G07  21243879.171    21243878.741    21243880.210                   -20129530.478 9 -20129530.477 9                 -15685355.729 9       511.000         601.000         658.000                  
G08  24886781.934    24886780.808    24886788.431                     2486280.187 7   2486280.189 6                   1937343.490 7        71.000          24.000          57.000                  
G09  20650509.121    20650508.813    20650512.675                   -20800485.407 9 -20800485.410 9                 -16208175.170 9       550.000         885.000        1857.000                  
G14  21055630.603    21055630.183    21055632.045                   -19508036.453 9 -19508036.449 8                 -15201071.652 8       503.000         342.000         233.000                  
G17  19912263.719    19912263.236    19912264.957                   -21640732.057 9 -21640732.060 9                 -16862911.661 9       764.000        1252.000        1556.000                  
G19  22742523.298    22742521.697    22742523.576                   -10434590.996 8 -10434591.006 7                  -8130850.221 8       310.000          93.000         177.000                  
G21  23869971.530    23869969.341    23869973.384                      135638.055 8    135638.079 6                    105677.965 6       102.000          24.000          22.000                  
G22  21540754.346    21540753.135    21540755.636                   -16933783.405 8 -16933783.405 7                 -13195163.600 8       335.000          93.000         165.000                  
G30  21530438.474    21530437.902    21530442.386                   -14244189.955 8 -14244189.956 8                 -11099378.272 9       434.000         453.000         972.000                  
> 2024 10 31 12 33 20.0000000  0 11
G02  23344598.246    23344596.295    23344599.227                    -7298165.919 8  -7298165.953 6                  -5686887.615 7       188.000          33.000          69.000                  
G05  25832188.835    25832185.289    25832194.957                     5354049.095 7   5354049.072 6                   4171953.679 6        57.000          21.000          22.000                  
G07  21274624.208    21274623.731    21274625.320                   -19967965.238 9 -19967965.237 9                 -15559460.962 9       504.000         577.000         613.000                  
G08  24945934.336    24945932.440    24945941.094                     2797122.003 7   2797122.011 6                   2179556.562 6        69.000          26.000          48.000                  
G09  20607871.420    20607870.912    20607874.819                   -21024549.399 9 -21024549.401 9                 -16382770.525 9       559.000         916.000        1886.000                  
G14  21101403.771    21101403.683    21101405.391                   -19267497.461 8 -19267497.455 8                 -15013638.903 8       487.000         310.000         210.000                  
G17  19869763.428    19869762.928    19869764.580                   -21864073.102 9 -21864073.104 9                 -17036943.696 9       767.000        1258.000        1588.000                  
G19  22680526.906    22680524.758    22680526.431                   -10760387.298 8 -10760387.298 7                  -8384717.423 8       312.000          93.000         171.000                  
G21  23878503.931    23878500.190    23878507.442                      180465.305 8    180465.289 6                    140607.728 6       107.000          26.000          23.000                  
G22  21567503.021    21567501.862    21567504.255                   -16793219.673 8 -16793219.676 7                 -13085633.632 8       329.000          89.000         165.000                  
G30  21583243.398    21583242.572    21583247.288                   -13966699.777 8 -13966699.777 8                 -10883152.421 9       412.000         419.000         942.000                  
> 2024 10 31 12 33 30.0000000  0 11
G02  23332301.185    23332299.322    23332302.375                    -7362788.990 8  -7362788.987 6                  -5737243.465 7       187.000          29.000          73.000                  
G04  23271482.697    23271482.420    23271498.310                     -494983.074 8   -494983.068 6                   -385704.216 6       148.000          39.000          27.000                  
G07  21305896.961    21305896.725    21305898.288                   -19803626.056 8 -19803626.055 9                 -15431404.697 9       493.000         561.000         599.000                  
G08  25005264.659    25005262.959    25005272.412                     3108902.640 7   3108902.645 6                   2422501.097 6        63.000          24.000          50.000                  
G09  20565768.655    20565768.050    20565772.009                   -21245801.222 9 -21245801.225 9                 -16555174.566 9       560.000         931.000        1906.000                  
G14  21147951.885    21147951.801    21147953.667                   -19022886.046 8 -19022886.043 8                 -14823032.838 8       492.000         324.000         214.000                  
G17  19828254.112    19828253.373    19828255.215                   -22082206.681 9 -22082206.683 9                 -17206917.963 9       744.000        1180.000        1648.000                  
G19  22619025.027    22619023.258    22619025.187                   -11083578.521 8 -11083578.526 8                  -8636554.680 8       304.000         103.000         165.000                  
G21  23887597.584    23887592.821    23887600.941                      228248.855 7    228248.872 6                    177841.044 6        99.000          23.000          17.000                  
G22  21595081.086    21595079.284    21595081.921                   -16648298.800 8 -16648298.799 7                 -12972708.479 8       328.000          85.000         163.000                  
G30  21636516.958    21636516.167    21636520.760                   -13686747.099 8 -13686747.100 8                 -10665007.739 9       397.000         385.000         877.000                  
> 2024 10 31 12 33 40.0000000  0 11
G02  23320679.823    23320677.828    23320681.165                    -7423859.561 8  -7423859.548 6                  -5784831.109 7       188.000          39.000          72.000                  
G04  23214877.683    23214877.833    23214882.177                     -792441.002 8   -792440.993 6                   -617487.425 6       152.000          35.000          48.000                  
G07  21337695.741    21337695.122    21337696.862                   -19636524.727 8 -19636524.728 9                 -15301196.081 9       478.000         534.000         570.000                  
G08  25064770.394    25064766.216    25064776.423                     3421590.905 7   3421590.893 6                   2666152.771 6        63.000          23.000          48.000                  
G09  20524211.315    20524210.923    20524214.868                   -21464185.498 9 -21464185.501 9                 -16725344.143 9       563.000         932.000        1929.000                  
G14  21195269.079    21195268.889    21195270.875                   -18774233.626 8 -18774233.624 8                 -14629277.925 8       494.000         324.000         209.000                  
G17  19787751.284    19787750.896    19787752.847                   -22295048.482 9 -22295048.483 9                 -17372768.754 9       724.000        1120.000        1795.000                  
G19  22558035.996    22558034.552    22558036.376                   -11404076.962 8 -11404076.966 7                  -8886293.648 8       298.000          93.000         163.000                  
G21  23897253.976    23897250.351    23897256.421                      278995.094 7    278995.092 6                    217383.043 6        98.000          22.000          16.000                  
G22  21623485.939    21623485.013    21623487.550                   -16499027.607 8 -16499027.612 7                 -12856393.459 8       323.000          84.000         166.000                  
G30  21690254.189    21690253.438    21690258.090                   -13404356.613 8 -13404356.613 8                 -10444963.463 9       380.000         343.000         818.000                  
> 2024 10 31 12 33 50.0000000  0 11
G02  23309731.785    23309730.180    23309733.263                    -7481390.729 8  -7481390.739 6                  -5829660.761 7       187.000          36.000          77.000                  
G04  23158490.035    23158490.262    23158494.402                    -1088758.917 8  -1088758.916 6                   -848384.300 7       154.000          38.000          56.000                  
G07  21370009.347    21370008.802    21370010.668                   -19466714.994 8 -19466714.994 8                 -15168877.011 9       459.000         489.000         557.000                  
G08  25124430.508    25124428.196    25124439.189                     3735113.977 7   3735113.994 6                   2910454.869 6        62.000          23.000          45.000                  
G09  20483202.433    20483202.011    20483205.971                   -21679688.854 9 -21679688.855 9                 -16893268.832 9       572.000         956.000        1964.000                  
G14  21243341.254    21243340.764    21243342.973                   -18521613.884 8 -18521613.881 8                 -14432431.586 8       470.000         289.000         197.000                  
G17  19748263.812    19748263.285    19748265.235                   -22502557.058 9 -22502557.061 9                 -17534463.773 9       718.000        1107.000        1879.000                  
G19  22497568.788    22497566.653    22497568.541                   -11721836.500 8 -11721836.495 7                  -9133898.398 8       304.000          93.000         176.000                  
G21  23907468.579    23907464.509    23907472.152                      332668.037 7    332668.043 6                    259205.556 6        95.000          20.000          21.000                  
G22  21652710.141    21652708.884    21652711.505                   -16345455.751 8 -16345455.757 7                 -12736727.257 8       324.000          82.000         167.000                  
G30  21744442.527    21744441.721    21744446.719                   -13119594.809 8 -13119594.809 8                 -10223071.402 9       354.000         300.000         750.000                  
> 2024 10 31 12 34  0.0000000  0 11
G02  23299463.554    23299461.836    23299464.474                    -7535353.868 8  -7535353.858 6                  -5871710.087 7       193.000          33.000          73.000                  
G04  23102329.460    23102329.527    23102333.688                    -1383884.678 8  -1383884.681 6                  -1078352.224 7       159.000          40.000          59.000                  
G07  21402836.419    21402835.971    21402837.758                   -19294208.116 8 -19294208.117 8                 -15034456.256 9       449.000         465.000         538.000                  
G08  25184246.938    25184244.253    25184256.102                     4049441.990 7   4049441.996 6                   3155384.107 6        61.000          21.000          44.000                  
G09  20442752.332    20442751.871    20442755.908                   -21892255.539 9 -21892255.542 9                 -17058905.195 9       579.000         990.000        2037.000                  
G14  21292161.938    21292161.870    21292163.952                   -18265058.493 8 -18265058.491 8                 -14232518.494 8       453.000         272.000         184.000                  
G17  19709806.748    19709806.396    19709808.325                   -22704649.515 9 -22704649.517 9                 -17691938.424 9       726.000        1126.000        1993.000                  
G19  22437638.686    22437637.161    22437638.963                   -12036768.483 8 -12036768.484 7                  -9379299.835 8       306.000          86.000         186.000                  
G21  23918239.526    23918236.365    23918244.560                      389273.655 7    389273.674 6                    303313.340 6        93.000          23.000          19.000                  
G22  21682750.851    21682749.910    21682752.470                   -16187590.991 8 -16187590.994 7                 -12613715.928 8       327.000          88.000         163.000                  
G30  21799077.918    21799076.763    21799081.965                   -12832485.553 8 -12832485.554 8                  -9999350.148 9       322.000         253.000         727.000                  
> 2024 10 31 12 34 10.0000000  0 11
G02  23289872.555    23289870.792    23289873.400                    -7585754.922 8  -7585754.922 6                  -5910983.734 7       193.000          40.000          76.000                  
G04  23046399.502    23046399.055    23046403.339                    -1677799.766 8  -1677799.769 6                  -1307376.740 7       155.000          40.000          56.000                  
G07  21436168.231    21436167.641    21436169.643                   -19119049.467 8 -19119049.467 8                 -14897969.176 9       446.000         459.000         540.000                  
G08  25244203.015    25244201.314    25244212.828                     4364511.493 7   4364511.508 6                   3400891.011 6        59.000          22.000          41.000                  
G09  20402865.045    20402864.736    20402868.727                   -22101863.829 9 -22101863.832 9                 -17222236.303 9       591.000        1034.000        2108.000                  
G14  21341719.545    21341719.279    21341721.626                   -18004633.323 8 -18004633.321 8                 -14029589.972 8       441.000         252.000         180.000                  
G17  19672389.826    19672389.352    19672391.217                   -22901277.738 9 -22901277.739 9                 -17845155.214 9       735.000        1168.000        2069.000                  
G19  22378257.541    22378255.790    22378257.635                   -12348817.932 8 -12348817.938 7                  -9622455.121 8       303.000          95.000         202.000                  
G21  23929564.285    23929561.194    23929568.924                      448783.493 7    448783.496 6                    349684.325 6        87.000          25.000          21.000                  
G22  21713600.493    21713599.028    21713602.045                   -16025475.828 8 -16025475.835 7                 -12487392.576 8       318.000          74.000         163.000                  
G30  21854148.887    21854147.942    21854153.092                   -12543086.433 8 -12543086.436 8                  -9773844.573 9       299.000         224.000         705.000                  
> 2024 10 31 12 34 20.0000000  0 11
G02  23280959.451    23280957.622    23280960.821                    -7632592.378 8  -7632592.386 6                  -5947480.519 7       193.000          33.000          75.000                  
G04  22990704.207    22990703.871    22990708.595                    -1970477.320 8  -1970477.323 6                  -1535436.905 7       161.000          39.000          65.000                  
G07  21469997.361    21469996.921    21469998.859                   -18941276.309 8 -18941276.310 8                 -14759444.796 9       441.000         441.000         553.000                  
G08  25304292.240    25304289.087    25304300.946                     4680267.649 7   4680267.648 6                   3646932.876 6        56.000          24.000          38.000                  
G09  20363546.678    20363546.196    20363550.140                   -22308483.996 9 -22308483.999 9                 -17383238.988 9       605.000        1082.000        2105.000                  
G14  21392002.232    21392002.008    21392004.472                   -17740396.510 8 -17740396.507 8                 -13823691.329 8       412.000         221.000         182.000                  
G17  19636023.176    19636022.589    19636024.399                   -23092386.648 9 -23092386.650 9                 -17994071.229 9       759.000        1236.000        2129.000                  
G19  22319437.015    22319435.683    22319437.191                   -12657921.566 8 -12657921.562 7                  -9863314.951 8       312.000          98.000         191.000                  
G21  23941437.141    23941433.959    23941442.514                      511176.727 7    511176.709 6                    398301.909 6        85.000          25.000          21.000                  
G22  21745252.246    21745250.788    21745253.518                   -15859145.495 8 -15859145.494 7                 -12357784.667 8       311.000          73.000         160.000                  
G30  21909646.037    21909645.280    21909650.500                   -12251446.764 8 -12251446.766 8                  -9546593.108 9       288.000         205.000         679.000                  
> 2024 10 31 12 34 30.0000000  0 11
G02  23272729.517    23272728.106    23272731.007                    -7675839.378 8  -7675839.363 6                  -5981179.533 7       196.000          31.000          73.000                  
G04  22935254.871    22935254.103    22935258.803                    -2261864.214 8  -2261864.195 6                  -1762491.364 7       160.000          43.000          67.000                  
G07  21504322.096    21504321.589    21504323.574                   -18760899.966 8 -18760899.966 8                 -14618891.948 9       427.000         409.000         562.000                  
G08  25364504.575    25364501.973    25364514.123                     4996682.041 7   4996682.031 6                   3893487.550 6        58.000          19.000          41.000                  
G09  20324807.133    20324806.791    20324810.821                   -22512060.400 9 -22512060.403 9                 -17541869.896 9       613.000        1116.000        2117.000                  
G14  21443004.099    21443003.725    21443006.466                   -17472380.433 8 -17472380.427 8                 -13614847.797 8       390.000         201.000         177.000                  
G17  19600721.588    19600721.246    19600723.057                   -23277896.164 9 -23277896.166 9                 -18138624.062 9       757.000        1233.000        2129.000                  
G19  22261193.975    22261192.477    22261194.019                   -12963989.888 8 -12963989.894 8                 -10101809.591 8       326.000         105.000         198.000                  
G21  23953860.726    23953856.769    23953865.737                      576458.192 7    576458.189 6                    449170.213 6        77.000          21.000          17.000                  
G22  21777704.255    21777703.013    21777705.817                   -15688609.869 8 -15688609.867 7                 -12224899.892 8       303.000          68.000         153.000                  
G30  21965565.792    21965564.722    21965569.855                   -11957589.613 8 -11957589.612 8                  -9317613.723 9       275.000         180.000         656.000                  
> 2024 10 31 12 34 40.0000000  0 11
G02  23265178.380    23265176.091    23265178.778                    -7715526.460 8  -7715526.438 6                  -6012104.527 7       201.000          35.000          75.000                  
G04  22880050.673    22880050.145    22880054.726                    -2551963.716 8  -2551963.725 6                  -1988542.637 7       162.000          41.000          66.000                  
G07  21539128.956    21539128.498    21539130.592                   -18577988.619 8 -18577988.619 8                 -14476363.755 9       413.000         394.000         582.000                  
G08  25424829.091    25424824.536    25424838.561                     5313670.070 7   5313670.035 6                   4140489.089 6        52.000          21.000          40.000                  
G09  20286646.842    20286646.448    20286650.411                   -22712594.191 9 -22712594.194 9                 -17698129.924 9       628.000        1150.000        2163.000                  
G14  21494708.036    21494707.843    21494710.678                   -17200674.369 8 -17200674.366 8                 -13403128.934 8       370.000         182.000         180.000                  
G17  19566490.257    19566489.685    19566491.430                   -23457783.918 9 -23457783.920 9                 -18278796.286 9       770.000        1269.000        2145.000                  
G19  22203534.776    22203533.338    22203535.084                   -13266989.862 8 -13266989.867 8                 -10337913.296 8       334.000         108.000         202.000                  
G21  23966821.724    23966819.267    23966828.484                      644575.597 7    644575.598 6                    502248.446 6        74.000          20.000          26.000                  
G22  21810943.496    21810942.153    21810945.215                   -15513936.207 8 -15513936.207 7                 -12088790.652 8       297.000          71.000         148.000                  
G30  22021891.762    22021890.754    22021896.150                   -11661594.468 8 -11661594.465 8                  -9086968.356 9       256.000         163.000         661.000                  
> 2024 10 31 12 34 50.0000000  0 11
G02  23258309.041    23258308.656    23258310.968                    -7751618.716 8  -7751618.714 6                  -6040228.336 7       200.000          40.000          73.000                  
G04  22825103.063    22825102.575    22825106.947                    -2840712.806 8  -2840712.802 7                  -2213541.613 7       169.000          52.000          69.000                  
G07  21574418.196    21574417.406    21574419.650                   -18392544.140 8 -18392544.140 8                 -14331861.677 9       399.000         361.000         596.000                  
G08  25485257.624    25485252.645    25485265.913                     5631213.586 7   5631213.545 6                   4387923.405 6        57.000          27.000          35.000                  
G09  20249077.800    20249077.400    20249081.319                   -22910020.613 9 -22910020.615 9                 -17851968.614 9       637.000        1194.000        2211.000                  
G14  21547109.614    21547109.465    21547112.544                   -16925301.798 8 -16925301.797 8                 -13188553.038 8       352.000         174.000         176.000                  
G17  19533345.053    19533344.540    19533346.287                   -23631962.566 9 -23631962.569 9                 -18414519.849 9       782.000        1322.000        2117.000                  
G19  22146478.252    22146476.751    22146478.491                   -13566822.480 8 -13566822.478 8                 -10571548.916 8       338.000         116.000         199.000                  
G21  23980327.749    23980323.402    23980331.426                      715542.264 7    715542.241 6                    557546.788 6        70.000          16.000          19.000                  
G22  21844969.718    21844968.679    21844971.606                   -15335126.321 8 -15335126.322 7                 -11949458.365 8       293.000          70.000         150.000                  
G30  22078622.142    22078621.133    22078626.713                   -11363474.571 8 -11363474.569 8                  -8854667.327 9       246.000         142.000         647.000                  
> 2024 10 31 12 35  0.0000000  0 11
G02  23252120.441    23252118.475    23252121.123                    -7784145.148 8  -7784145.157 6                  -6065573.536 7       197.000          32.000          77.000                  
G04  22770412.658    22770412.565    22770416.189                    -3128111.502 8  -3128111.502 6                  -2437488.330 7       174.000          50.000          70.000                  
G07  21610176.452    21610176.058    21610178.433                   -18204631.856 8 -18204631.856 8                 -14185436.618 9       383.000         340.000         616.000                  
G08  25545775.195    25545770.519    25545786.234                     5949231.625 7   5949231.618 6                   4635727.350 6        55.000          23.000          32.000                  
G09  20212100.315    20212099.878    20212103.854                   -23104338.345 9 -23104338.348 9                 -18003384.939 9       648.000        1243.000        2230.000                  
G14  21600192.716    21600192.463    21600195.672                   -16646349.685 8 -16646349.685 8                 -12971187.870 8       346.000         162.000         175.000                  
G17  19501290.662    19501290.220    19501291.826                   -23800409.460 9 -23800409.461 9                 -18545777.103 9       803.000        1370.000        2073.000                  
G19  22090031.498    22090030.032    22090031.625                   -13863451.909 8 -13863451.908 8                 -10802688.539 8       342.000         112.000         200.000                  
G21  23994365.019    23994360.600    23994368.756                      789307.794 7    789307.776 6                    615026.245 6        63.000          23.000          18.000                  
G22  21879771.192    21879769.574    21879772.804                   -15152246.044 8 -15152246.054 7                 -11806954.331 8       291.000          68.000         150.000                  
G30  22135742.684    22135741.574    22135747.063                   -11063306.178 8 -11063306.176 8                  -8620770.057 9       227.000         123.000         615.000                  
> 2024 10 31 12 35 10.0000000  0 10
G02  23246612.652    23246611.324    23246614.846                    -7813082.903 8  -7813082.909 6                  -6088122.342 7       196.000          37.000          78.000                  
G04  22715990.071    22715989.109    22715993.282                    -3414107.016 8  -3414107.002 7                  -2660341.660 7       182.000          57.000          78.000                  
G07  21646402.427    21646401.773    21646404.201                   -18014264.530 8 -18014264.529 8                 -14037098.501 9       374.000         310.000         660.000                  
G09  20175724.458    20175724.178    20175728.108                   -23295493.656 9 -23295493.658 9                 -18152337.029 9       658.000        1253.000        2318.000                  
G14  21653950.404    21653949.927    21653952.767                   -16363852.582 8 -16363852.581 8                 -12751060.366 8       336.000         153.000         174.000                  
G17  19470341.054    19470340.550    19470342.172                   -23963050.473 9 -23963050.476 9                 -18672510.283 9       822.000        1447.000        2113.000                  
G19  22034211.418    22034209.705    22034211.046                   -14156789.649 8 -14156789.656 8                 -11031263.201 8       352.000         121.000         215.000                  
G21  24008936.037    24008930.222    24008938.671                      865873.934 7    865873.945 6                    674688.020 6        58.000          24.000          20.000                  
G22  21915343.939    21915343.026    21915345.608                   -14965309.224 8 -14965309.230 7                 -11661289.334 8       292.000          72.000         150.000                  
G30  22193248.252    22193247.206    22193252.663                   -10761112.727 8 -10761112.726 8                  -8385294.802 9       219.000         108.000         592.000                  
> 2024 10 31 12 35 20.0000000  0 10
G02  23241788.478    23241786.435    23241789.277                    -7838438.692 8  -7838438.698 6                  -6107879.963 7       199.000          32.000          76.000                  
G04  22661837.747    22661837.677    22661841.140                    -3698675.201 8  -3698675.195 7                  -2882082.756 7       184.000          52.000          82.000                  
G07  21683087.176    21683086.899    21683089.352                   -17821483.650 8 -17821483.650 8                 -13886879.697 9       360.000         305.000         680.000                  
G09  20139955.384    20139954.838    20139958.779                   -23483461.888 9 -23483461.891 9                 -18298805.669 9       653.000        1263.000        2356.000                  
G14  21708370.529    21708370.084    21708372.805                   -16077874.076 8 -16077874.074 8                 -12528220.071 8       303.000         124.000         175.000                  
G17  19440504.533    19440504.131    19440505.752                   -24119841.603 9 -24119841.605 9                 -18794685.102 9       843.000        1510.000        2142.000                  
G19  21979028.546    21979026.727    21979028.186                   -14446775.981 8 -14446775.980 8                 -11257226.363 8       360.000         123.000         224.000                  
G21  24024032.976    24024027.412    24024038.766                      945213.182 7    945213.207 6                    736512.467 6        53.000          19.000          18.000                  
G22  21951680.739    21951679.454    21951682.144                   -14774359.213 8 -14774359.204 7                 -11512497.159 8       286.000          65.000         146.000                  
G30  22251128.706    22251128.209    22251133.703                   -10456946.232 8 -10456946.227 7                  -8148282.090 9       206.000          99.000         548.000                  
> 2024 10 31 12 35 30.0000000  0 11
G02  23237644.899    23237643.280    23237645.887                    -7860209.737 8  -7860209.753 6                  -6124844.262 7       204.000          35.000          71.000                  
G04  22607963.915    22607963.743    22607967.422                    -3981781.544 8  -3981781.541 7                  -3102684.763 7       190.000          58.000          84.000                  
G06  24604806.946    24604806.971    24604828.006                     -449140.070 8   -449140.062 6                   -349982.687 6       102.000          38.000          25.000                  
G07  21720225.561    21720225.145    21720227.760                   -17626320.615 8 -17626320.616 8                 -13734804.651 9       354.000         286.000         664.000                  
G09  20104798.984    20104798.707    20104802.581                   -23668208.403 9 -23668208.405 9                 -18442763.874 9       657.000        1284.000        2321.000                  
G14  21763442.493    21763442.138    21763445.076                   -15788467.732 8 -15788467.735 8                 -12302708.728 8       282.000         114.000         165.000                  
G17  19411791.422    19411790.937    19411792.569                   -24270730.046 9 -24270730.048 9                 -18912260.420 9       849.000        1556.000        2146.000                  
G19  21924496.457    21924495.198    21924496.393                   -14733341.077 8 -14733341.078 8                 -11480523.622 8       363.000         131.000         234.000                  
G21  24039653.084    24039649.949    24039658.813                     1027307.786 7   1027307.817 6                    800477.279 6        53.000          20.000          22.000                  
G22  21988774.527    21988773.076    21988776.079                   -14579429.859 8 -14579429.867 7                 -11360604.189 8       279.000          51.000         148.000                  
G30  22309377.901    22309376.833    22309382.289                   -10150848.357 8 -10150848.360 7                  -7909764.392 8       193.000          96.000         499.000                  
> 2024 10 31 12 35 40.0000000  0 11
G02  23234182.192    23234180.482    23234182.607                    -7878409.244 8  -7878409.248 6                  -6139025.516 7       199.000          46.000          65.000                  
G04  22554371.822    22554372.250    22554376.015                    -4263406.635 8  -4263406.638 7                  -3322132.531 7       188.000          52.000          97.000                  
G06  24537672.075    24537671.992    24537678.578                     -801931.082 8   -801931.112 6                   -624882.086 7       106.000          43.000          97.000                  
G07  21757808.624    21757807.805    21757810.347                   -17428822.197 8 -17428822.197 8                 -13580909.813 9       343.000         266.000         667.000                  
G09  20070259.682    20070259.211    20070263.078                   -23849714.114 9 -23849714.116 9                 -18584196.768 9       666.000        1322.000        2414.000                  
G14  21819154.022    21819153.529    21819156.557                   -15495702.561 8 -15495702.561 8                 -12074580.106 8       262.000         103.000         163.000                  
G17  19384208.201    19384207.864    19384209.458                   -24415679.804 9 -24415679.805 9                 -19025208.186 9       859.000        1589.000        2213.000                  
G19  21870626.459    21870624.898    21870626.367                   -15016430.461 8 -15016430.461 8                 -11701112.529 8       368.000         135.000         247.000                  
G21  24055795.395    24055790.060    24055798.799                     1112124.177 7   1112124.213 6                    866569.188 6        58.000          23.000          16.000                  
G22  22026616.051    22026614.791    22026617.873                   -14380570.851 8 -14380570.856 7                 -11205649.131 8       280.000          60.000         150.000                  
G30  22367982.863    22367982.308    22367987.549                    -9842875.767 8  -9842875.771 7                  -7669785.864 8       184.000          83.000         460.000                  
> 2024 10 31 12 35 50.0000000  0 11
G02  23231401.972    23231400.556    23231402.337                    -7893017.103 8  -7893017.082 6                  -6150408.050 7       203.000          39.000          65.000                  
G04  22501072.463    22501072.591    22501076.238                    -4543496.819 8  -4543496.811 7                  -3540384.274 7       195.000          57.000          92.000                  
G06  24470631.421    24470630.794    24470637.685                    -1154230.401 8  -1154230.387 6                   -899400.269 7       110.000          41.000          96.000                  
G07  21795833.020    21795832.646    21795835.082                   -17229000.992 8 -17229000.993 8                 -13425204.993 9       333.000         254.000         648.000                  
G09  20036346.892    20036346.482    20036350.309                   -24027926.157 9 -24027926.159 9                 -18723063.161 9       670.000        1329.000        2487.000                  
G14  21875497.871    21875497.347    21875500.643                   -15199613.634 8 -15199613.629 7                 -11843861.520 8       246.000          76.000         167.000                  
G17  19357768.367    19357767.899    19357769.449                   -24554622.223 9 -24554622.226 9                 -19133474.901 9       831.000        1473.000        2201.000                  
G19  21817434.411    21817432.679    21817434.066                   -15295955.694 8 -15295955.694 8                 -11918924.169 8       366.000         127.000         264.000                  
G21  24072452.446    24072446.853    24072457.758                     1199662.544 7   1199662.555 6                    934766.464 6        56.000          21.000          18.000                  
G22  22065202.474    22065200.912    22065203.850                   -14177798.468 8 -14177798.456 7                 -11047644.691 8       278.000          61.000         150.000                  
G30  22426941.263    22426940.357    22426945.636                    -9533050.808 8  -9533050.805 7                  -7428363.914 8       182.000          89.000         427.000                  
> 2024 10 31 12 36  0.0000000  0 11
G02  23229300.428    23229298.322    23229301.452                    -7904058.670 8  -7904058.677 6                  -6159011.632 7       205.000          39.000          69.000                  
G04  22448066.889    22448066.542    22448070.204                    -4822043.095 8  -4822043.091 7                  -3757432.965 8       200.000          63.000         102.000                  
G06  24403689.340    24403689.215    24403695.443                    -1506010.716 8  -1506010.721 6                  -1173514.073 8       114.000          48.000         112.000                  
G07  21834288.511    21834288.224    21834290.855                   -17026914.411 8 -17026914.414 8                 -13267734.936 9       319.000         233.000         616.000                  
G09  20003062.380    20003062.035    20003065.797                   -24202836.744 9 -24202836.747 9                 -18859356.988 9       684.000        1372.000        2467.000                  
G14  21932458.827    21932458.393    21932461.698                   -14900280.937 8 -14900280.931 7                 -11610615.309 8       238.000          78.000         163.000                  
G17  19332475.824    19332475.285    19332476.862                   -24687534.882 9 -24687534.884 9                 -19237043.097 9       801.000        1380.000        2098.000                  
G19  21764928.896    21764927.248    21764928.655                   -15571873.247 8 -15571873.251 8                 -12133924.628 8       366.000         133.000         280.000                  
G21  24089619.311    24089613.656    24089621.018                     1289877.909 7   1289877.902 6                   1005052.045 6        55.000          19.000          16.000                  
G22  22104521.725    22104520.589    22104523.046                   -13971174.278 8 -13971174.290 7                 -10886638.826 8       274.000          62.000         155.000                  
G30  22486238.257    22486237.924    22486243.101                    -9221440.429 8  -9221440.434 7                  -7185550.721 8       177.000          79.000         398.000                  
> 2024 10 31 12 36 10.0000000  0 11
G02  23227879.670    23227877.736    23227879.806                    -7911525.517 8  -7911525.510 6                  -6164829.704 7       206.000          35.000          70.000                  
G04  22395363.156    22395362.960    22395366.692                    -5099001.626 8  -5099001.622 7                  -3973244.466 8       205.000          67.000         103.000                  
G06  24336858.137    24336857.584    24336863.739                    -1857209.590 8  -1857209.592 6                  -1447174.840 8       118.000          48.000         113.000                  
G07  21873171.151    21873170.911    21873173.387                   -16822585.263 8 -16822585.262 8                 -13108517.404 9       317.000         229.000         622.000                  
G09  19970414.183    19970413.763    19970417.605                   -24374403.713 9 -24374403.716 9                 -18993045.394 9       696.000        1420.000        2595.000                  
G14  21990028.823    21990028.244    21990031.624                   -14597749.862 8 -14597749.862 7                 -11374876.843 8       244.000          80.000         189.000                  
G17  19308341.308    19308340.720    19308342.262                   -24814362.292 9 -24814362.295 9                 -19335869.536 9       777.000        1309.000        2111.000                  
G19  21713124.634    21713123.127    21713124.298                   -15844105.160 8 -15844105.162 8                 -12346053.166 8       361.000         127.000         292.000                  
G21  24107294.478    24107289.121    24107297.275                     1382759.950 7   1382759.982 6                   1077419.451 6        61.000          25.000          18.000                  
G22  22144568.923    22144567.449    22144570.234                   -13760725.900 8 -13760725.900 7                 -10722653.061 8       273.000          59.000         164.000                  
G30  22545869.587    22545869.094    22545874.414                    -8908076.627 8  -8908076.628 7                  -6941371.197 8       168.000          70.000         377.000                  
> 2024 10 31 12 36 20.0000000  0 11
G02  23227138.218    23227137.339    23227139.138                    -7915419.171 8  -7915419.189 6                  -6167863.449 7       200.000          37.000          74.000                  
G04  22342968.382    22342968.213    22342971.242                    -5374337.810 8  -5374337.816 7                  -4187791.809 8       206.000          63.000         110.000                  
G06  24270147.348    24270146.829    24270152.684                    -2207773.418 8  -2207773.436 6                  -1720340.807 8       122.000          45.000         127.000                  
G07  21912474.579    21912474.137    21912476.629                   -16616045.643 8 -16616045.646 8                 -12947577.416 9       317.000         226.000         617.000                  
G09  19938408.446    19938408.024    19938411.785                   -24542594.627 9 -24542594.629 9                 -19124103.105 9       703.000        1465.000        2619.000                  
G14  22048196.617    22048196.871    22048199.522                   -14292075.273 8 -14292075.263 7                 -11136688.878 8       241.000          80.000         191.000                  
G17  19285372.941    19285372.619    19285374.193                   -24935060.006 9 -24935060.008 9                 -19429919.583 9       771.000        1280.000        2169.000                  
G19  21662034.996    21662033.389    21662034.618                   -16112582.959 8 -16112582.961 8                 -12555256.423 8       353.000         126.000         281.000                  
G21  24125473.508    24125467.396    24125475.056                     1478287.031 7   1478287.014 6                   1151853.475 6        62.000          28.000          16.000                  
G22  22185336.417    22185335.378    22185337.754                   -13546490.785 8 -13546490.775 7                 -10555716.578 8       268.000          61.000         165.000                  
G30  22605826.656    22605825.980    22605831.489                    -8593000.525 8  -8593000.520 7                  -6695857.404 8       157.000          69.000         367.000                  
> 2024 10 31 12 36 30.0000000  0 11
G02  23227071.553    23227070.153    23227072.768                    -7915767.649 8  -7915767.644 6                  -6168134.709 7       196.000          38.000          71.000                  
G04  22290883.070    22290883.637    22290886.708                    -5648042.663 8  -5648042.671 7                  -4401067.992 8       213.000          66.000         108.000                  
G06  24203562.945    24203562.567    24203567.902                    -2557673.869 8  -2557673.872 7                  -1992989.877 8       125.000          53.000         140.000                  
G07  21952187.033    21952186.855    21952189.307                   -16407353.382 8 -16407353.382 8                 -12784960.030 9       319.000         227.000         600.000                  
G09  19907046.207    19907045.872    19907049.584                   -24707403.106 9 -24707403.109 9                 -19252525.149 9       715.000        1503.000        2562.000                  
G14  22106947.325    22106946.723    22106950.112                   -13983337.803 8 -13983337.799 7                 -10896114.240 8       230.000          72.000         190.000                  
G17  19263574.532    19263574.253    19263575.803                   -25049610.870 9 -25049610.872 9                 -19519179.874 9       773.000        1294.000        2205.000                  
G19  21611667.514    21611665.687    21611667.254                   -16377264.230 8 -16377264.228 8                 -12761501.349 8       352.000         123.000         273.000                  
G21  24144145.464    24144140.176    24144146.806                     1576412.899 7   1576412.891 6                   1228333.010 6        66.000          24.000          16.000                  
G22  22226812.769    22226811.275    22226813.961                   -13328532.703 8 -13328532.718 6                 -10385879.072 8       258.000          46.000         169.000                  
G30  22666096.586    22666096.358    22666101.713                    -8276278.719 8  -8276278.722 7                  -6449061.232 8       148.000          51.000         341.000                  
> 2024 10 31 12 36 40.0000000  0 11
G02  23227685.217    23227683.745    23227686.107                    -7912542.489 8  -7912542.498 6                  -6165621.312 7       199.000          43.000          71.000                  
G04  22239121.720    22239121.773    22239125.445                    -5920049.843 8  -5920049.823 7                  -4613021.313 8       203.000          67.000         112.000                  
G06  24137120.384    24137120.845    24137126.766                    -2906824.924 8  -2906824.934 6                  -2265055.043 8       128.000          46.000         146.000                  
G07  21992309.536    21992309.241    21992311.566                   -16196509.174 8 -16196509.173 8                 -12620665.798 9       317.000         224.000         591.000                  
G09  19876339.735    19876339.506    19876343.087                   -24868765.922 9 -24868765.924 9                 -19378262.260 9       725.000        1557.000        2553.000                  
G14  22166276.568    22166276.138    22166279.394                   -13671560.933 8 -13671560.938 7                 -10653171.230 8       237.000          80.000         187.000                  
G17  19242959.836    19242959.445    19242960.917                   -25157942.106 9 -25157942.108 9                 -19603593.704 9       790.000        1334.000        2274.000                  
G19  21562041.464    21562039.844    21562041.147                   -16638049.521 8 -16638049.522 8                 -12964710.463 8       353.000         120.000         283.000                  
G21  24163313.069    24163309.221    24163314.931                     1677147.662 7   1677147.669 6                   1306860.809 6        71.000          20.000          15.000                  
G22  22268995.203    22268994.160    22268996.901                   -13106858.662 8 -13106858.661 7                 -10213146.000 8       247.000          55.000         175.000                  
G30  22726678.853    22726677.584    22726683.378                    -7957920.349 8  -7957920.361 6                  -6200989.807 8       131.000          48.000         322.000                  
> 2024 10 31 12 36 50.0000000  0 11
G02  23228971.284    23228969.985    23228971.721                    -7905783.803 8  -7905783.801 6                  -6160354.521 7       200.000          40.000          73.000                  
G04  22187683.388    22187683.337    22187686.647                    -6190360.741 8  -6190360.731 7                  -4823652.879 8       200.000          62.000         121.000                  
G06  24070824.862    24070825.126    24070831.024                    -3255207.954 8  -3255207.969 7                  -2536521.786 8       135.000          57.000         164.000                  
G07  22032828.305    22032828.011    22032830.260                   -15983581.300 8 -15983581.300 8                 -12454747.923 9       320.000         223.000         593.000                  
G09  19846288.105    19846287.806    19846291.323                   -25026688.060 9 -25026688.062 9                 -19501318.327 9       735.000        1589.000        2562.000                  
G14  22226167.018    22226166.309    22226169.385                   -13356835.985 8 -13356835.991 7                 -10407931.009 8       239.000          83.000         180.000                  
G17  19223529.342    19223528.831    19223530.134                   -25260050.590 9 -25260050.593 9                 -19683158.634 9       814.000        1424.000        2337.000                  
G19  21513162.391    21513161.184    21513162.572                   -16894907.590 8 -16894907.596 8                 -13164859.409 8       356.000         124.000         277.000                  
G21  24182969.327    24182964.166    24182971.324                     1780433.192 7   1780433.176 6                   1387392.686 6        69.000          22.000          18.000                  
G22  22311871.290    22311870.068    22311873.108                   -12881544.077 8 -12881544.078 6                 -10037576.144 8       238.000          46.000         172.000                  
G30  22787557.225    22787556.338    22787561.635                    -7638002.085 8  -7638002.097 6                  -5951702.883 8       126.000          41.000         288.000                  
> 2024 10 31 12 37  0.0000000  0 11
G02  23230934.392    23230932.672    23230934.894                    -7895467.460 8  -7895467.457 6                  -6152315.529 7       201.000          36.000          72.000                  
G04  22136579.225    22136579.080    22136582.496                    -6458911.674 8  -6458911.667 7                  -5032913.052 8       195.000          61.000         126.000                  
G06  24004691.998    24004692.166    24004697.535                    -3602738.861 8  -3602738.855 7                  -2807324.567 8       144.000          65.000         178.000                  
G07  22073742.992    22073742.741    22073744.857                   -15768573.110 8 -15768573.108 8                 -12287209.015 9       316.000         225.000         590.000                  
G09  19816902.673    19816902.250    19816905.704                   -25181109.943 9 -25181109.946 9                 -19621646.926 9       742.000        1624.000        2568.000                  
G14  22286612.879    22286612.479    22286615.552                   -13039189.317 8 -13039189.315 7                 -10160414.118 8       231.000          75.000         191.000                  
G17  19205295.321    19205294.925    19205296.196                   -25355870.010 9 -25355870.013 9                 -19757823.002 9       828.000        1467.000        2434.000                  
G19  21465049.891    21465048.168    21465049.294                   -17147742.536 8 -17147742.539 8                 -13361873.456 8       365.000         131.000         265.000                  
G21  24203111.276    24203105.534    24203113.604                     1886275.735 7   1886275.736 6                   1469936.856 6        66.000          19.000          16.000                  
G22  22355438.445    22355436.516    22355439.735                   -12652599.812 8 -12652599.824 6                  -9859177.963 8       234.000          45.000         168.000                  
G30  22848729.679    22848728.814    22848734.691                    -7316535.438 8  -7316535.434 6                  -5701209.415 8       118.000          40.000         264.000                  
> 2024 10 31 12 37 10.0000000  0 10
G02  23233569.202    23233567.458    23233569.160                    -7881619.953 8  -7881619.946 6                  -6141524.982 7       198.000          39.000          72.000                  
G04  22085812.990    22085813.610    22085816.271                    -6725688.728 8  -6725688.725 7                  -5240790.987 8       193.000          52.000         129.000                  
G06  23938727.424    23938727.914    23938733.308                    -3949383.007 8  -3949383.008 7                  -3077436.396 8       152.000          72.000         186.000                  
G07  22115043.634    22115043.237    22115045.304                   -15551537.835 8 -15551537.836 8                 -12118090.559 9       318.000         232.000         582.000                  
G09  19788184.754    19788184.521    19788187.978                   -25332022.248 9 -25332022.250 9                 -19739240.792 9       758.000        1681.000        2557.000                  
G14  22347600.733    22347599.697    22347603.463                   -12718697.140 8 -12718697.129 7                  -9910679.950 8       229.000          79.000         205.000                  
G17  19188260.860    19188260.518    19188261.821                   -25445385.664 9 -25445385.667 9                 -19827575.348 9       808.000        1412.000        2560.000                  
G19  21417711.095    21417709.504    21417710.554                   -17396508.737 8 -17396508.740 8                 -13555717.055 8       379.000         142.000         251.000                  
G22  22399683.418    22399682.201    22399685.087                   -12420087.057 8 -12420087.066 6                  -9677999.143 8       236.000          45.000         166.000                  
G30  22910186.159    22910184.861    22910190.466                    -6993581.449 8  -6993581.450 6                  -5449556.963 8       122.000          39.000         224.000                  
> 2024 10 31 12 37 20.0000000  0 10
G02  23236870.593    23236869.354    23236871.071                    -7864267.833 8  -7864267.852 6                  -6128003.578 7       200.000          36.000          71.000                  
G04  22035387.221    22035387.431    22035390.294                    -6990677.166 8  -6990677.161 7                  -5447275.218 8       190.000          56.000         130.000                  
G06  23872939.581    23872938.735    23872943.837                    -4295104.576 8  -4295104.573 7                  -3346829.360 8       158.000          70.000         190.000                  
G07  22156719.715    22156719.191    22156721.469                   -15332527.874 8 -15332527.871 8                 -11947433.377 9       320.000         236.000         614.000                  
G09  19760136.711    19760136.394    19760139.862                   -25479415.398 9 -25479415.401 9                 -19854092.462 9       764.000        1726.000        2597.000                  
G14  22409115.493    22409115.104    22409117.989                   -12395434.912 8 -12395434.905 7                  -9658787.301 8       250.000          93.000         203.000                  
G17  19172428.768    19172428.299    19172429.675                   -25528583.899 9 -25528583.901 9                 -19892405.033 9       793.000        1349.000        2707.000                  
G19  21371155.405    21371153.797    21371154.555                   -17641160.222 8 -17641160.224 8                 -13746354.388 8       404.000         163.000         242.000                  
G22  22444597.077    22444595.309    22444598.425                   -12184066.785 8 -12184066.773 6                  -9494087.189 8       238.000          43.000         166.000                  
G30  22971913.282    22971912.707    22971918.281                    -6669200.167 8  -6669200.179 6                  -5196792.329 8       113.000          33.000         212.000                  
> 2024 10 31 12 37 30.0000000  0 10
G02  23240844.961    23240842.873    23240844.290                    -7843386.089 8  -7843386.105 6                  -6111731.837 7       196.000          40.000          69.000                  
G04  21985313.757    21985314.142    21985317.438                    -7253809.948 8  -7253809.954 7                  -5652313.499 8       193.000          56.000         134.000                  
G06  23807341.443    23807341.886    23807347.309                    -4639815.065 8  -4639815.067 7                  -3615434.492 8       166.000          92.000         203.000                  
G07  22198771.835    22198771.092    22198773.530                   -15111543.287 8 -15111543.289 8                 -11775237.526 9       321.000         240.000         613.000                  
G09  19732770.040    19732769.650    19732773.136                   -25623227.981 9 -25623227.983 9                 -19966154.085 9       776.000        1774.000        2596.000                  
G14  22471153.401    22471152.831    22471155.781                   -12069425.823 8 -12069425.813 7                  -9404754.238 8       273.000          96.000         198.000                  
G17  19157810.920    19157810.411    19157811.844                   -25605400.712 9 -25605400.714 9                 -19952262.192 9       775.000        1297.000        2759.000                  
G19  21325401.365    21325399.539    21325400.541                   -17881599.139 8 -17881599.139 8                 -13933709.210 8       425.000         180.000         226.000                  
G22  22490175.556    22490174.015    22490177.070                   -11944548.120 8 -11944548.112 6                  -9307449.218 8       236.000          42.000         165.000                  
G30  23033911.488    23033910.070    23033916.230                    -6343399.150 8  -6343399.133 6                  -4942921.401 8       108.000          40.000         191.000                  
> 2024 10 31 12 37 40.0000000  0 10
G02  23245483.257    23245481.776    23245483.790                    -7819009.369 8  -7819009.365 6                  -6092736.751 7       195.000          36.000          71.000                  
G04  21935596.558    21935596.669    21935599.451                    -7515078.978 8  -7515078.975 7                  -5855899.515 8       188.000          55.000         135.000                  
G06  23741943.562    23741943.724    23741948.455                    -4983484.577 8  -4983484.579 7                  -3883228.509 8       174.000          95.000         209.000                  
G07  22241187.991    22241187.624    22241189.974                   -14888643.185 8 -14888643.185 8                 -11601549.066 9       317.000         238.000         623.000                  
G09  19706085.049    19706084.667    19706088.040                   -25763458.093 9 -25763458.096 9                 -20075424.177 9       788.000        1849.000        2533.000                  
G14  22533697.519    22533697.229    22533700.183                   -11740752.025 8 -11740752.013 7                  -9148644.772 8       275.000         100.000         195.000                  
G17  19144408.140    19144407.500    19144408.942                   -25675833.064 9 -25675833.067 9                 -20007144.450 9       759.000        1234.000        2740.000                  
G19  21280456.133    21280454.602    21280454.859                   -18117787.258 8 -18117787.261 8                 -14117751.721 8       452.000         196.000         229.000                  
G22  22536407.621    22536405.508    22536408.559                   -11701599.712 8 -11701599.697 6                  -9118138.723 8       235.000          44.000         150.000                  
G30  23096168.774    23096165.779    23096171.628                    -6016244.708 8  -6016244.713 6                  -4687995.855 8       111.000          34.000         175.000                  
> 2024 10 31 12 37 50.0000000  0 10
G02  23250786.046    23250784.575    23250785.728                    -7791140.715 8  -7791140.718 6                  -6071020.677 7       195.000          37.000          72.000                  
G04  21886241.134    21886240.515    21886244.003                    -7774443.709 8  -7774443.709 7                  -6058001.680 8       191.000          61.000         133.000                  
G06  23676755.113    23676755.071    23676759.810                    -5326050.390 8  -5326050.393 8                  -4150162.526 8       179.000         102.000         224.000                  
G07  22283964.105    22283963.453    22283965.881                   -14663854.157 8 -14663854.161 8                 -11426388.719 9       317.000         235.000         637.000                  
G09  19680088.399    19680087.876    19680091.212                   -25900071.890 9 -25900071.892 9                 -20181876.368 9       809.000        1929.000        2528.000                  
G14  22596739.837    22596739.356    22596742.347                   -11409463.152 8 -11409463.142 7                  -8890497.598 8       271.000          93.000         189.000                  
G17  19132226.382    19132225.915    19132227.328                   -25739847.371 9 -25739847.373 9                 -20057025.641 9       744.000        1196.000        2739.000                  
G19  21236333.215    21236331.690    21236331.909                   -18349654.438 8 -18349654.440 8                 -14298427.283 8       476.000         215.000         227.000                  
G22  22583284.372    22583283.222    22583285.500                   -11455258.145 8 -11455258.111 6                  -8926184.218 8       236.000          38.000         150.000                  
G30  23158673.000    23158672.017    23158678.221                    -5687770.391 7  -5687770.407 6                  -4432041.846 8       100.000          27.000         167.000                  
> 2024 10 31 12 38  0.0000000  0 10
G02  23256749.747    23256748.146    23256750.717                    -7759797.517 8  -7759797.534 6                  -6046597.186 7       188.000          37.000          75.000                  
G04  21837252.989    21837252.544    21837255.672                    -8031877.159 8  -8031877.142 7                  -6258598.963 8       199.000          56.000         136.000                  
G06  23611785.651    23611786.344    23611791.040                    -5667462.996 8  -5667463.001 8                  -4416197.966 8       183.000         105.000         239.000                  
G07  22327091.461    22327091.257    22327093.432                   -14437216.458 8 -14437216.460 8                 -11249787.855 9       308.000         209.000         642.000                  
G09  19654783.394    19654782.977    19654786.218                   -26033049.635 9 -26033049.637 9                 -20285495.280 9       827.000        2011.000        2501.000                  
G14  22660268.181    22660267.301    22660270.397                   -11075622.425 8 -11075622.412 7                  -8630361.974 8       259.000          89.000         185.000                  
G17  19121269.519    19121269.040    19121270.476                   -25797425.541 9 -25797425.544 9                 -20101891.668 9       751.000        1221.000        2702.000                  
G19  21193043.168    21193041.427    21193041.810                   -18577144.703 8 -18577144.703 8                 -14475692.281 8       473.000         219.000         239.000                  
G22  22630797.607    22630796.059    22630799.080                   -11205573.896 8 -11205573.891 6                  -8731625.030 8       226.000          45.000         141.000                  
G30  23221422.244    23221421.773    23221427.097                    -5358023.185 8  -5358023.187 6                  -4175095.967 8       102.000          30.000         166.000                  
> 2024 10 31 12 38 10.0000000  0 10
G02  23263375.928    23263373.356    23263375.449                    -7724982.516 8  -7724982.501 6                  -6019468.406 7       189.000          29.000          69.000                  
G04  21788639.892    21788639.935    21788643.387                    -8287336.930 8  -8287336.925 7                  -6457658.324 8       200.000          70.000         138.000                  
G06  23547049.000    23547048.939    23547053.880                    -6007657.134 8  -6007657.131 8                  -4681283.971 8       184.000         111.000         263.000                  
G07  22370566.020    22370565.990    22370568.261                   -14208754.741 8 -14208754.740 8                 -11071765.685 9       298.000         204.000         635.000                  
G09  19630177.012    19630176.594    19630179.779                   -26162356.775 9 -26162356.777 9                 -20386253.989 9       836.000        2038.000        2501.000                  
G14  22724272.051    22724271.562    22724274.706                   -10739277.566 8 -10739277.554 7                  -8368275.076 8       257.000          90.000         177.000                  
G17  19111543.456    19111543.083    19111544.310                   -25848536.149 9 -25848536.151 9                 -20141718.042 9       782.000        1309.000        2665.000                  
G19  21150599.463    21150597.822    21150598.295                   -18800187.331 8 -18800187.335 8                 -14649491.585 8       465.000         203.000         276.000                  
G22  22678940.386    22678938.635    22678942.061                   -10952582.527 8 -10952582.505 6                  -8534488.880 8       216.000          42.000         134.000                  
G30  23284407.741    23284407.472    23284412.400                    -5027034.359 8  -5027034.373 6                  -3917182.613 8       102.000          26.000         150.000                  
> 2024 10 31 12 38 20.0000000  0 10
G02  23270653.051    23270651.657    23270652.971                    -7686736.827 8  -7686736.824 6                  -5989666.383 7       187.000          39.000          65.000                  
G04  21740404.186    21740403.909    21740407.319                    -8540818.289 8  -8540818.285 7                  -6655176.079 8       204.000          67.000         134.000                  
G06  23482549.311    23482549.230    23482554.172                    -6346604.830 8  -6346604.827 8                  -4945398.746 8       188.000         106.000         286.000                  
G07  22414376.350    22414375.889    22414378.337                   -13978531.185 8 -13978531.184 8                 -10892370.656 9       291.000         200.000         619.000                  
G09  19606268.189    19606267.991    19606271.153                   -26287996.912 9 -26287996.914 9                 -20484155.297 9       837.000        2085.000        2494.000                  
G14  22788736.533    22788736.040    22788739.232                   -10400513.888 8 -10400513.876 7                  -8104303.396 8       248.000          84.000         169.000                  
G17  19103046.673    19103046.148    19103047.344                   -25893187.569 9 -25893187.571 9                 -20176511.280 9       800.000        1392.000        2683.000                  
G19  21109008.054    21109006.575    21109006.951                   -19018749.881 8 -19018749.883 8                 -14819799.924 8       463.000         208.000         308.000                  
G22  22727698.270    22727696.719    22727699.776                   -10696357.633 8 -10696357.625 6                  -8334833.108 8       210.000          37.000         126.000                  
G30  23347615.498    23347614.752    23347620.081                    -4694872.653 7  -4694872.663 6                  -3658355.332 8        99.000          35.000         147.000                  
> 2024 10 31 12 38 30.0000000  0 10
G02  23278587.026    23278585.228    23278586.710                    -7645041.365 8  -7645041.359 6                  -5957176.234 7       183.000          33.000          59.000                  
G04  21692557.764    21692557.048    21692559.855                    -8792255.596 8  -8792255.591 7                  -6851101.081 8       211.000          67.000         136.000                  
G06  23418303.878    23418303.261    23418308.255                    -6684216.822 8  -6684216.825 8                  -5208472.739 8       188.000         103.000         297.000                  
G07  22458521.328    22458520.927    22458523.391                   -13746547.192 8 -13746547.190 8                 -10711603.860 9       289.000         200.000         605.000                  
G09  19583068.444    19583067.979    19583071.151                   -26409913.352 9 -26409913.355 9                 -20579155.030 9       840.000        2087.000        2512.000                  
G14  22853656.574    22853656.321    22853659.438                   -10059355.661 8 -10059355.640 7                  -7838465.841 8       239.000          71.000         148.000                  
G17  19095788.420    19095787.978    19095789.191                   -25931329.185 9 -25931329.188 9                 -20206231.954 9       813.000        1423.000        2734.000                  
G19  21068287.243    21068285.548    21068286.075                   -19232739.586 8 -19232739.585 8                 -14986545.025 8       466.000         209.000         336.000                  
G22  22777069.242    22777067.302    22777070.321                   -10436912.235 8 -10436912.239 6                  -8132667.861 8       206.000          38.000         122.000                  
G30  23411047.076    23411045.011    23411050.580                    -4361545.507 8  -4361545.502 6                  -3398619.925 8       104.000          34.000         130.000                  
> 2024 10 31 12 38 40.0000000  0 10
G02  23287170.443    23287168.934    23287170.618                    -7599933.957 8  -7599933.947 6                  -5922027.439 7       178.000          36.000          60.000                  
G04  21645101.015    21645100.673    21645103.442                    -9041639.366 8  -9041639.362 7                  -7045425.917 8       221.000          76.000         138.000                  
G06  23354318.635    23354318.150    23354323.167                    -7020459.672 8  -7020459.679 8                  -5470479.880 8       192.000         114.000         303.000                  
G07  22502990.043    22502990.065    22502992.499                   -13512860.077 8 -13512860.077 8                 -10529509.961 9       285.000         187.000         579.000                  
G09  19560577.083    19560576.611    19560579.710                   -26528106.086 9 -26528106.088 9                 -20671253.176 9       844.000        2103.000        2485.000                  
G14  22919017.184    22919017.227    22919019.950                    -9715883.184 8  -9715883.179 7                  -7570824.990 8       226.000          68.000         148.000                  
G17  19089767.629    19089767.187    19089768.412                   -25962968.536 9 -25962968.539 9                 -20230885.929 9       810.000        1424.000        2857.000                  
G19  21028443.177    21028441.638    21028441.958                   -19442120.964 8 -19442120.964 8                 -15149699.230 8       466.000         213.000         359.000                  
G22  22827039.655    22827038.459    22827040.924                   -10174315.872 8 -10174315.855 6                  -7928047.325 8       203.000          36.000         112.000                  
G30  23474685.045    23474685.456    23474689.890                    -4027116.346 7  -4027116.345 6                  -3138025.803 8       100.000          34.000         129.000                  
> 2024 10 31 12 38 50.0000000  0 10
G02  23296402.438    23296400.676    23296402.612                    -7551419.188 8  -7551419.180 6                  -5884223.577 7       173.000          30.000          54.000                  
G04  21598043.452    21598043.459    21598046.313                    -9288926.217 8  -9288926.215 7                  -7238116.812 8       231.000          84.000         130.000                  
G06  23290606.401    23290606.838    23290611.482                    -7355265.699 8  -7355265.702 8                  -5731367.430 8       194.000         122.000         307.000                  
G07  22547779.498    22547779.035    22547781.312                   -13277493.200 8 -13277493.199 8                 -10346107.169 9       292.000         196.000         544.000                  
G09  19538800.603    19538800.118    19538803.211                   -26642541.806 9 -26642541.808 9                 -20760423.782 9       846.000        2126.000        2480.000                  
G14  22984809.456    22984809.121    22984812.288                    -9370142.740 8  -9370142.731 7                  -7301416.904 8       214.000          65.000         131.000                  
G17  19084988.814    19084988.338    19084989.602                   -25988081.176 9 -25988081.178 9                 -20250454.157 9       792.000        1370.000        3050.000                  
G19  20989489.382    20989487.419    20989488.109                   -19646825.037 8 -19646825.037 8                 -15309208.786 8       459.000         211.000         377.000                  
G22  22877603.007    22877601.280    22877603.871                    -9908604.588 8  -9908604.592 6                  -7720999.584 8       188.000          36.000         107.000                  
G30  23538530.289    23538528.960    23538533.974                    -3691614.379 8  -3691614.390 6                  -2876595.745 8       106.000          34.000         118.000                  
> 2024 10 31 12 39  0.0000000  0 10
G02  23306276.640    23306275.027    23306276.173                    -7499529.170 8  -7499529.182 6                  -5843789.653 7       169.000          33.000          52.000                  
G04  21551388.689    21551388.564    21551391.302                    -9534099.494 8  -9534099.487 7                  -7429160.768 8       238.000          88.000         132.000                  
G06  23227176.776    23227176.442    23227180.811                    -7688593.544 8  -7688593.548 8                  -5991103.174 8       210.000         132.000         322.000                  
G07  22592878.531    22592878.151    22592880.123                   -13040496.603 8 -13040496.603 8                 -10161434.474 9       294.000         203.000         518.000                  
G09  19517740.153    19517739.778    19517742.840                   -26753214.486 9 -26753214.489 9                 -20846662.157 9       845.000        2105.000        2507.000                  
G14  23051019.997    23051019.480    23051022.449                    -9022207.150 8  -9022207.134 7                  -7030298.312 8       213.000          62.000         122.000                  
G17  19081450.966    19081450.599    19081451.865                   -26006671.859 9 -26006671.861 9                 -20264940.352 9       775.000        1302.000        3131.000                  
G19  20951433.090    20951431.578    20951432.051                   -19846810.349 8 -19846810.349 8                 -15465041.394 8       476.000         226.000         402.000                  
G22  22928746.655    22928745.022    22928748.542                    -9639841.021 8  -9639841.002 6                  -7511573.445 7       181.000          33.000         100.000                  
G30  23602567.849    23602566.395    23602571.556                    -3355095.213 8  -3355095.226 6                  -2614373.066 8       103.000          34.000         116.000                  
> 2024 10 31 12 39 10.0000000  0 11
G02  23316792.405    23316790.322    23316791.492                    -7444270.227 8  -7444270.260 6                  -5800730.603 6       172.000          30.000          47.000                  
G03  24443822.403    24443823.156    24443836.398                     -444834.593 7   -444834.580 6                   -346627.259 6        89.000          28.000          42.000                  
G04  21505144.138    21505143.851    21505146.268                    -9777116.263 8  -9777116.259 7                  -7618524.341 8       246.000          91.000         135.000                  
G06  23164040.461    23164040.291    23164044.837                    -8020375.239 8  -8020375.241 8                  -6249634.133 8       219.000         148.000         336.000                  
G07  22638282.958    22638282.508    22638284.646                   -12801893.833 8 -12801893.833 8                  -9975510.221 8       296.000         201.000         491.000                  
G09  19497401.861    19497401.475    19497404.572                   -26860092.435 9 -26860092.437 9                 -20929943.601 9       838.000        2072.000        2557.000                  
G14  23117638.835    23117638.029    23117641.030                    -8672122.740 8  -8672122.738 7                  -6757505.333 8       205.000          57.000         112.000                  
G17  19079158.100    19079157.648    19079158.924                   -26018720.897 9 -26018720.900 9                 -20274329.163 9       758.000        1237.000        3186.000                  
G19  20914287.586    20914286.138    20914286.800                   -20042010.049 8 -20042010.050 8                 -15617144.953 8       491.000         232.000         416.000                  
G22  22980464.547    22980463.058    22980465.825                    -9368062.024 8  -9368062.028 6                  -7299797.626 7       176.000          31.000          95.000                  
G30  23666793.568    23666792.098    23666796.840                    -3017587.882 8  -3017587.897 6                  -2351380.396 8       108.000          32.000         113.000                  
> 2024 10 31 12 39 20.0000000  0 11
G02  23327943.694    23327942.612    23327943.757                    -7385666.462 8  -7385666.466 6                  -5755065.240 6       171.000          30.000          48.000                  
G03  24385887.365    24385888.182    24385893.346                     -749284.459 7   -749284.426 6                   -583860.711 7        92.000          28.000          74.000                  
G04  21459315.325    21459314.460    21459317.042                   -10017950.599 8 -10017950.593 7                  -7806187.319 8       255.000          97.000         139.000                  
G06  23101208.314    23101208.128    23101212.613                    -8350559.449 8  -8350559.446 8                  -6506920.312 8       221.000         154.000         356.000                  
G07  22683985.379    22683985.329    22683987.162                   -12561725.303 8 -12561725.305 8                  -9788365.904 8       298.000         206.000         458.000                  
G09  19477788.437    19477788.000    19477791.092                   -26963161.497 9 -26963161.499 9                 -21010257.087 9       826.000        2023.000        2616.000                  
G14  23184654.537    23184653.637    23184656.972                    -8319952.611 8  -8319952.591 7                  -6483087.115 8       198.000          57.000         108.000                  
G17  19078110.084    19078109.750    19078111.008                   -26024227.515 9 -26024227.518 9                 -20278619.986 9       763.000        1257.000        3178.000                  
G19  20878062.460    20878060.962    20878061.295                   -20232375.181 9 -20232375.183 8                 -15765481.315 8       536.000         280.000         408.000                  
G22  23032746.039    23032744.025    23032747.166                    -9093321.655 8  -9093321.641 6                  -7085714.267 7       171.000          28.000          88.000                  
G30  23731197.558    23731197.330    23731202.068                    -2679138.134 8  -2679138.118 6                  -2087653.392 8       108.000          31.000         111.000                  
> 2024 10 31 12 39 30.0000000  0 11
G02  23339730.158    23339728.934    23339729.716                    -7323728.882 8  -7323728.874 6                  -5706802.075 6       171.000          30.000          47.000                  
G03  24328179.985    24328180.176    24328185.269                    -1052543.861 7  -1052543.858 6                   -820166.399 7        91.000          32.000          70.000                  
G04  21413908.478    21413907.632    21413910.456                   -10256562.937 8 -10256562.927 8                  -7992118.880 8       259.000         103.000         142.000                  
G06  23038692.576    23038692.449    23038696.972                    -8679080.876 8  -8679080.881 8                  -6762910.824 8       221.000         156.000         384.000                  
G07  22729980.990    22729980.702    22729982.639                   -12320017.666 8 -12320017.666 8                  -9600022.288 8       297.000         199.000         437.000                  
G09  19458904.828    19458904.493    19458907.600                   -27062394.492 9 -27062394.494 9                 -21087581.431 9       820.000        1981.000        2684.000                  
G14  23252057.459    23252057.246    23252059.731                    -7965746.044 8  -7965746.026 7                  -6207082.088 7       186.000          55.000          95.000                  
G17  19078309.617    19078309.109    19078310.369                   -26023179.494 9 -26023179.496 9                 -20277803.304 9       769.000        1274.000        3094.000                  
G19  20842769.017    20842767.477    20842767.492                   -20417843.868 9 -20417843.870 8                 -15910002.272 8       564.000         303.000         413.000                  
G22  23085583.616    23085581.428    23085584.198                    -8815660.537 8  -8815660.543 6                  -6869355.012 7       169.000          29.000          83.000                  
G30  23795776.895    23795775.340    23795780.423                    -2339777.662 8  -2339777.680 6                  -1823216.746 7       102.000          36.000         100.000                  
> 2024 10 31 12 39 40.0000000  0 11
G02  23352144.088    23352141.145    23352143.566                    -7258494.237 8  -7258494.242 6                  -5655969.794 6       167.000          30.000          49.000                  
G03  24270702.822    24270701.623    24270705.725                    -1354595.584 7  -1354595.588 6                  -1055531.062 7        95.000          28.000          78.000                  
G04  21368927.377    21368926.777    21368929.493                   -10492938.759 8 -10492938.762 8                  -8176307.708 8       265.000         109.000         148.000                  
G06  22976501.446    22976500.773    22976505.284                    -9005898.930 8  -9005898.937 8                  -7017574.039 8       223.000         156.000         400.000                  
G07  22776259.557    22776259.159    22776261.199                   -12076822.448 8 -12076822.447 8                  -9410519.526 8       296.000         206.000         413.000                  
G09  19440751.723    19440751.329    19440754.433                   -27157789.898 9 -27157789.899 9                 -21161915.451 9       817.000        1971.000        2764.000                  
G14  23319833.907    23319834.027    23319836.602                    -7609577.083 8  -7609577.052 6                  -5929547.927 7       189.000          42.000          89.000                  
G17  19079753.452    19079753.034    19079754.230                   -26015591.632 9 -26015591.634 9                 -20271890.648 9       776.000        1302.000        3002.000                  
G19  20808414.034    20808412.355    20808412.608                   -20598380.174 9 -20598380.175 8                 -16050679.810 8       574.000         310.000         423.000                  
G22  23138963.787    23138962.372    23138964.956                    -8535144.496 8  -8535144.491 6                  -6650771.113 7       161.000          24.000          80.000                  
G30  23860517.312    23860515.920    23860521.420                    -1999562.939 7  -1999562.938 6                  -1558114.446 7        95.000          25.000          93.000                  
> 2024 10 31 12 39 50.0000000  0 11
G02  23365186.056    23365183.264    23365185.684                    -7189957.979 8  -7189957.976 6                  -5602564.840 6       167.000          27.000          48.000                  
G03  24213464.908    24213464.253    24213468.660                    -1655380.339 8  -1655380.352 6                  -1289908.494 7       101.000          36.000          84.000                  
G04  21324382.676    21324382.655    21324384.893                   -10727021.640 8 -10727021.641 8                  -8358709.835 8       274.000         112.000         155.000                  
G06  22914649.110    22914649.227    22914653.591                    -9330930.718 8  -9330930.721 8                  -7270845.367 8       232.000         163.000         423.000                  
G07  22822819.623    22822819.005    22822820.970                   -11832149.008 8 -11832149.009 8                  -9219864.911 8       289.000         198.000         401.000                  
G09  19423336.889    19423336.587    19423339.629                   -27249304.868 9 -27249304.871 9                 -21233225.757 9       813.000        1961.000        2861.000                  
G14  23387978.839    23387978.201    23387981.354                    -7251477.600 8  -7251477.569 6                  -5650509.470 7       186.000          50.000          67.000                  
G17  19082446.840    19082446.219    19082447.347                   -26001438.929 9 -26001438.933 9                 -20260862.530 9       789.000        1356.000        2879.000                  
G19  20775012.399    20775010.699    20775010.724                   -20773907.176 9 -20773907.178 8                 -16187453.999 8       572.000         306.000         404.000                  
G22  23192882.369    23192881.193    23192883.845                    -8251797.579 8  -8251797.579 6                  -6429981.372 7       160.000          30.000          80.000                  
G30  23925416.616    23925416.688    23925421.678                    -1658508.137 7  -1658508.163 6                  -1292357.574 7        90.000          29.000          92.000                  
> 2024 10 31 12 40  0.0000000  0 11
G02  23378848.302    23378845.571    23378846.723                    -7118164.246 8  -7118164.247 6                  -5546621.591 6       169.000          26.000          47.000                  
G03  24156470.775    24156469.424    24156474.257                    -1954886.903 8  -1954886.902 6                  -1523289.938 7       105.000          36.000          88.000                  
G04  21280276.240    21280275.877    21280278.315                   -10958803.324 8 -10958803.322 8                  -8539318.824 8       278.000         117.000         169.000                  
G06  22853144.502    22853144.294    22853148.551                    -9654141.167 8  -9654141.170 8                  -7522697.477 8       234.000         165.000         446.000                  
G07  22869649.624    22869649.159    22869651.172                   -11586054.676 8 -11586054.677 8                  -9028103.112 8       290.000         195.000         385.000                  
G09  19406659.528    19406659.081    19406662.205                   -27336945.291 9 -27336945.294 9                 -21301516.937 9       805.000        1924.000        2922.000                  
G14  23456475.374    23456475.074    23456477.490                    -6891527.338 8  -6891527.319 7                  -5370028.845 7       180.000          52.000          63.000                  
G17  19086384.270    19086383.834    19086384.899                   -25980746.534 9 -25980746.536 9                 -20244738.548 9       797.000        1381.000        2729.000                  
G19  20742568.920    20742567.649    20742567.536                   -20944396.805 9 -20944396.809 8                 -16320302.974 8       565.000         309.000         401.000                  
G22  23247326.828    23247325.282    23247328.034                    -7965692.105 8  -7965692.115 6                  -6207042.111 7       160.000          23.000          77.000                  
G30  23990467.513    23990465.448    23990470.637                    -1316675.222 7  -1316675.230 6                  -1025994.367 7        82.000          23.000          90.000                  
> 2024 10 31 12 40 10.0000000  0 11
G02  23393127.891    23393125.106    23393126.607                    -7043124.066 8  -7043124.060 6                  -5488148.672 6       158.000          35.000          47.000                  
G03  24099727.258    24099726.930    24099731.612                    -2253070.071 8  -2253070.072 6                  -1755640.178 7       113.000          44.000          93.000                  
G04  21236615.302    21236614.780    21236617.529                   -11188241.798 8 -11188241.797 8                  -8718101.938 8       292.000         126.000         174.000                  
G06  22791999.177    22791998.917    22792003.118                    -9975461.124 8  -9975461.124 8                  -7773076.482 8       239.000         175.000         474.000                  
G07  22916745.825    22916745.465    22916747.423                   -11338562.838 8 -11338562.840 8                  -8835252.355 8       289.000         187.000         373.000                  
G09  19390724.517    19390724.130    19390727.281                   -27420683.882 9 -27420683.884 9                 -21366767.731 9       810.000        1927.000        2990.000                  
G14  23525315.105    23525314.851    23525317.358                    -6529771.929 8  -6529771.926 6                  -5088141.599 7       168.000          38.000          56.000                  
G17  19091567.523    19091567.169    19091568.230                   -25953507.868 9 -25953507.871 9                 -20223513.581 9       793.000        1345.000        2667.000                  
G19  20711095.884    20711094.424    20711094.627                   -21109788.815 9 -21109788.814 8                 -16449179.783 8       557.000         297.000         431.000                  
G22  23302288.638    23302287.443    23302289.764                    -7676866.688 8  -7676866.681 6                  -5981983.418 7       158.000          29.000          75.000                  
G30  24055656.999    24055656.899    24055662.482                     -974092.048 7   -974092.058 6                   -759046.549 7        78.000          21.000          77.000                  
> 2024 10 31 12 40 20.0000000  0 11
G02  23408019.917    23408017.464    23408019.557                    -6964862.173 8  -6964862.184 6                  -5427165.311 6       155.000          25.000          50.000                  
G03  24043243.257    24043242.783    24043246.859                    -2549897.880 8  -2549897.859 6                  -1986934.300 7       114.000          40.000          94.000                  
G04  21193405.839    21193405.380    21193407.872                   -11415308.382 8 -11415308.381 8                  -8895036.832 8       301.000         135.000         178.000                  
G06  22731224.429    22731224.039    22731228.335                   -10294834.426 8 -10294834.428 8                  -8021938.620 9       243.000         188.000         505.000                  
G07  22964101.138    22964100.488    22964102.300                   -11089710.011 8 -11089710.013 8                  -8641341.085 8       288.000         194.000         361.000                  
G09  19375534.596    19375534.148    19375537.309                   -27500507.327 9 -27500507.330 9                 -21428967.762 9       802.000        1902.000        3019.000                  
G14  23594487.531    23594487.087    23594489.767                    -6166270.037 8  -6166270.032 6                  -4804893.511 7       155.000          30.000          55.000                  
G17  19097994.794    19097994.520    19097995.627                   -25919731.767 9 -25919731.769 9                 -20197194.508 9       773.000        1285.000        2639.000                  
G19  20680601.529    20680600.040    20680600.235                   -21270037.164 9 -21270037.165 8                 -16574048.551 8       544.000         290.000         454.000                  
G22  23357757.907    23357756.152    23357759.834                    -7385373.363 8  -7385373.355 6                  -5754845.833 7       156.000          29.000          68.000                  
G30  24120983.790    24120982.202    24120988.530                     -630799.401 7   -630799.398 6                   -491545.912 7        74.000          23.000          80.000                  
> 2024 10 31 12 40 30.0000000  0 11
G02  23423521.348    23423519.496    23423521.305                    -6883401.753 8  -6883401.772 6                  -5363689.617 7       152.000          30.000          55.000                  
G03  23987022.913    23987021.988    23987026.348                    -2845336.016 8  -2845335.997 6                  -2217145.580 8       118.000          40.000         106.000                  
G04  21150653.331    21150653.451    21150655.652                   -11639972.204 8 -11639972.200 8                  -9070099.443 8       315.000         149.000         186.000                  
G06  22670830.556    22670830.917    22670835.130                   -10612202.342 8 -10612202.342 8                  -8269238.122 9       248.000         189.000         529.000                  
G07  23011708.714    23011708.373    23011710.116                   -10839530.219 8 -10839530.219 8                  -8446395.826 8       283.000         192.000         358.000                  
G09  19361092.514    19361092.121    19361095.254                   -27576400.704 9 -27576400.706 9                 -21488105.404 9       807.000        1924.000        2989.000                  
G14  23663981.088    23663980.047    23663984.108                    -5801077.770 8  -5801077.770 6                  -4520328.253 7       141.000          36.000          51.000                  
G17  19105664.740    19105664.252    19105665.405                   -25879426.755 9 -25879426.758 9                 -20165787.976 9       755.000        1227.000        2690.000                  
G19  20651095.133    20651093.450    20651093.802                   -21425094.404 9 -21425094.405 8                 -16694872.302 8       527.000         266.000         465.000                  
G22  23413725.473    23413724.142    23413726.875                    -7091262.039 8  -7091262.017 6                  -5525668.264 7       155.000          29.000          63.000                  
G30  24186436.899    24186436.661    24186442.579                     -286835.454 7   -286835.425 6                   -223522.194 7        68.000          21.000          69.000                  
> 2024 10 31 12 40 40.0000000  0 11
G02  23439624.036    23439623.211    23439624.169                    -6798777.510 8  -6798777.544 6                  -5297748.605 7       152.000          27.000          52.000                  
G03  23931071.043    23931071.171    23931074.916                    -3139361.073 8  -3139361.060 6                  -2446255.761 8       120.000          44.000         113.000                  
G04  21108362.598    21108362.027    21108364.758                   -11862213.506 8 -11862213.506 8                  -9243274.378 8       328.000         150.000         181.000                  
G06  22610828.665    22610828.365    22610832.468                   -10927516.946 8 -10927516.947 8                  -8514937.647 9       246.000         178.000         532.000                  
G07  23059560.642    23059559.943    23059561.749                   -10588068.338 8 -10588068.336 8                  -8250451.538 8       274.000         168.000         344.000                  
G09  19347398.849    19347398.539    19347401.587                   -27648360.751 9 -27648360.752 9                 -21544178.112 9       808.000        1933.000        2961.000                  
G14  23733784.225    23733783.009    23733785.954                    -5434261.962 8  -5434261.964 6                  -4234497.908 7       131.000          30.000          53.000                  
G17  19114572.775    19114572.293    19114573.472                   -25832614.490 9 -25832614.492 9                 -20129310.850 9       735.000        1187.000        2775.000                  
G19  20622582.865    20622581.541    20622581.924                   -21574925.265 9 -21574925.267 8                 -16811623.547 8       519.000         263.000         496.000                  
G22  23470179.781    23470178.519    23470181.587                    -6794593.649 8  -6794593.647 6                  -5294498.174 7       151.000          31.000          63.000                  
G30  24252012.119    24252009.156    24252015.967                       57750.890 7     57750.891 6                     44986.494 7        65.000          21.000          60.000                  
> 2024 10 31 12 40 50.0000000  0 11
G02  23456329.685    23456327.302    23456329.295                    -6710993.052 8  -6710993.027 6                  -5229345.087 7       148.000          25.000          52.000                  
G03  23875399.122    23875399.279    23875403.100                    -3431917.821 8  -3431917.804 6                  -2674221.816 8       128.000          43.000         123.000                  
G04  21066542.205    21066541.876    21066544.174                   -12081980.817 8 -12081980.819 8                  -9414521.529 8       349.000         178.000         189.000                  
G06  22551231.746    22551231.720    22551235.799                   -11240698.286 8 -11240698.288 8                  -8758974.892 9       241.000         177.000         516.000                  
G07  23107653.814    23107652.965    23107654.947                   -10335337.287 8 -10335337.285 8                  -8053518.288 8       270.000         167.000         350.000                  
G09  19334460.270    19334459.992    19334462.924                   -27716353.168 9 -27716353.170 9                 -21597159.158 9       812.000        1939.000        2904.000                  
G14  23803889.356    23803888.375    23803891.473                    -5065857.413 8  -5065857.434 6                  -3947429.579 6       126.000          30.000          45.000                  
G17  19124720.605    19124720.161    19124721.335                   -25779286.838 9 -25779286.841 9                 -20087756.795 9       734.000        1178.000        2842.000                  
G19  20595078.487    20595076.847    20595076.966                   -21719463.874 9 -21719463.874 8                 -16924250.957 9       549.000         287.000         506.000                  
G22  23527114.845    23527113.381    23527116.468                    -6495397.501 8  -6495397.506 6                  -5061358.422 7       147.000          24.000          65.000                  
G30  24317700.048    24317697.074    24317704.536                      402942.880 7    402942.893 6                    313967.107 7        59.000          21.000          57.000                  
> 2024 10 31 12 41  0.0000000  0 11
G02  23473629.729    23473627.349    23473629.342                    -6620080.576 8  -6620080.582 6                  -5158504.143 7       144.000          24.000          55.000                  
G03  23820011.699    23820011.762    23820015.700                    -3722979.118 8  -3722979.127 6                  -2901022.596 8       128.000          49.000         124.000                  
G04  21025196.911    21025196.793    21025198.929                   -12299250.959 8 -12299250.960 8                  -9583822.833 8       368.000         191.000         195.000                  
G06  22492050.762    22492050.910    22492055.046                   -11551694.341 8 -11551694.344 8                  -9001309.325 9       236.000         179.000         524.000                  
G07  23155979.717    23155979.963    23155982.018                   -10081377.920 8 -10081377.920 8                  -7855627.910 8       256.000         151.000         339.000                  
G09  19322277.855    19322277.453    19322280.396                   -27780372.489 9 -27780372.491 9                 -21647044.286 9       811.000        1931.000        2867.000                  
G14  23874284.720    23874284.017    23874286.680                    -4695926.721 8  -4695926.716 6                  -3659172.074 6       121.000          27.000          42.000                  
G17  19136104.060    19136103.676    19136104.834                   -25719465.856 9 -25719465.859 9                 -20041143.008 9       739.000        1186.000        2879.000                  
G19  20568587.455    20568585.959    20568586.213                   -21858673.674 9 -21858673.676 8                 -17032726.047 9       559.000         307.000         526.000                  
G22  23584519.898    23584518.299    23584521.733                    -6193731.049 8  -6193731.046 6                  -4826293.754 7       142.000          29.000          57.000                  
G30  24383493.856    24383491.793    24383498.489                      748696.408 7    748696.386 6                    583385.401 7        53.000          29.000          54.000                  
> 2024 10 31 12 41 10.0000000  0 10
G02  23491515.058    23491513.481    23491515.362                    -6526090.978 8  -6526090.983 6                  -5085265.425 7       141.000          31.000          51.000                  
G03  23764910.778    23764911.180    23764915.224                    -4012535.793 8  -4012535.783 6                  -3126650.948 8       130.000          43.000         144.000                  
G04  20984328.029    20984327.716    20984329.941                   -12514018.861 8 -12514018.862 8                  -9751174.338 8       380.000         215.000         195.000                  
G06  22433292.578    22433292.619    22433296.831                   -11860470.924 8 -11860470.924 8                  -9241914.305 9       236.000         176.000         551.000                  
G07  23204529.987    23204529.242    23204531.515                    -9826248.940 8  -9826248.945 8                  -7656826.147 8       246.000         142.000         342.000                  
G09  19310848.844    19310848.461    19310851.372                   -27840431.965 9 -27840431.967 9                 -21693843.818 9       812.000        1952.000        2844.000                  
G14  23944955.621    23944954.063    23944957.332                    -4324550.189 8  -4324550.176 6                  -3369787.931 6       111.000          18.000          37.000                  
G17  19148715.317    19148714.908    19148716.003                   -25653193.686 9 -25653193.688 9                 -19989502.318 9       755.000        1246.000        2886.000                  
G19  20543114.187    20543112.653    20543112.637                   -21992537.460 9 -21992537.464 8                 -17137035.410 9       571.000         314.000         540.000                  
G22  23642381.113    23642379.726    23642382.845                    -5889669.713 8  -5889669.718 6                  -4589362.932 7       145.000          21.000          52.000                  
> 2024 10 31 12 41 20.0000000  0 10
G02  23509989.621    23509987.689    23509989.877                    -6429005.926 8  -6429005.908 6                  -5009614.677 6       135.000          27.000          50.000                  
G03  23710110.940    23710111.467    23710115.132                    -4300508.847 8  -4300508.849 7                  -3351045.316 8       134.000          51.000         158.000                  
G04  20943949.361    20943949.296    20943951.062                   -12726209.854 8 -12726209.854 8                  -9916517.866 8       392.000         225.000         193.000                  
G06  22374976.555    22374976.267    22374980.677                   -12166923.856 8 -12166923.858 8                  -9480708.651 9       234.000         166.000         598.000                  
G07  23253304.000    23253303.364    23253305.589                    -9569939.101 8  -9569939.104 8                  -7457104.234 8       241.000         136.000         335.000                  
G09  19300184.151    19300183.634    19300186.531                   -27896475.828 9 -27896475.831 9                 -21737514.303 9       817.000        1948.000        2857.000                  
G14  24015899.046    24015898.083    24015901.930                    -3951738.103 8  -3951738.122 6                  -3079285.155 6       101.000          24.000          32.000                  
G17  19162559.003    19162558.511    19162559.644                   -25580444.765 9 -25580444.767 9                 -19932814.810 9       763.000        1243.000        2838.000                  
G19  20518674.410    20518672.854    20518672.789                   -22120969.452 9 -22120969.452 8                 -17237112.209 9       568.000         312.000         546.000                  
G22  23700696.672    23700695.665    23700697.913                    -5583219.282 8  -5583219.272 6                  -4350570.473 6       139.000          27.000          46.000                  
> 2024 10 31 12 41 30.0000000  0 10
G02  23529040.740    23529038.284    23529039.978                    -6328895.340 8  -6328895.321 6                  -4931606.373 7       137.000          29.000          51.000                  
G03  23655611.499    23655611.083    23655615.434                    -4586907.080 8  -4586907.098 6                  -3574212.564 8       132.000          47.000         173.000                  
G04  20904059.117    20904058.405    20904060.107                   -12935837.238 8 -12935837.238 8                 -10079863.779 8       401.000         243.000         196.000                  
G06  22317105.247    22317105.426    22317109.784                   -12471036.685 8 -12471036.684 8                  -9717679.542 9       229.000         168.000         634.000                  
G07  23302288.109    23302287.592    23302290.129                    -9312524.725 8  -9312524.725 8                  -7256521.639 8       233.000         123.000         323.000                  
G09  19290277.167    19290276.694    19290279.624                   -27948536.856 9 -27948536.857 9                 -21778081.277 9       827.000        2011.000        2889.000                  
G14  24087097.997    24087096.729    24087100.144                    -3577588.225 7  -3577588.243 6                  -2787739.962 6        90.000          25.000          34.000                  
G17  19177622.634    19177622.404    19177623.467                   -25501283.270 9 -25501283.272 9                 -19871130.490 9       750.000        1224.000        2709.000                  
G19  20495267.404    20495265.776    20495265.986                   -22243973.074 9 -22243973.077 8                 -17332959.102 9       568.000         304.000         565.000                  
G22  23759449.535    23759447.162    23759450.849                    -5274473.486 8  -5274473.490 6                  -4109989.424 6       138.000          28.000          45.000                  
> 2024 10 31 12 41 40.0000000  0 10
G02  23548667.200    23548666.037    23548666.844                    -6225753.565 8  -6225753.552 6                  -4851236.110 7       132.000          29.000          56.000                  
G03  23601424.109    23601423.966    23601427.825                    -4871663.091 8  -4871663.082 6                  -3796100.166 8       136.000          49.000         191.000                  
G04  20864667.706    20864667.259    20864669.075                   -13142838.232 8 -13142838.231 8                 -10241163.155 8       410.000         255.000         203.000                  
G06  22259697.852    22259697.495    22259701.883                   -12772716.534 8 -12772716.539 8                  -9952754.609 9       237.000         177.000         636.000                  
G07  23351482.966    23351482.186    23351484.562                    -9054005.940 8  -9054005.935 8                  -7055078.464 8       224.000         119.000         300.000                  
G09  19281136.257    19281135.870    19281138.690                   -27996572.352 9 -27996572.355 9                 -21815511.475 9       841.000        2108.000        2928.000                  
G14  24158547.004    24158545.143    24158550.051                    -3202121.788 7  -3202121.814 6                  -2495168.902 6        86.000          19.000          29.000                  
G17  19193908.981    19193908.518    19193909.546                   -25415699.078 9 -25415699.080 9                 -19804441.473 9       741.000        1205.000        2594.000                  
G19  20472907.076    20472905.572    20472905.545                   -22361476.876 9 -22361476.876 8                 -17424520.426 9       568.000         312.000         531.000                  
G22  23818634.602    23818633.492    23818636.423                    -4963449.866 8  -4963449.847 6                  -3867633.435 6       132.000          28.000          43.000                  
> 2024 10 31 12 41 50.0000000  0 10
G02  23568861.628    23568859.998    23568861.096                    -6119633.607 8  -6119633.638 6                  -4768545.169 7       135.000          22.000          54.000                  
G03  23547550.672    23547551.116    23547554.821                    -5154767.601 8  -5154767.605 7                  -4016700.895 8       138.000          53.000         206.000                  
G04  20825777.170    20825776.793    20825778.739                   -13347208.415 8 -13347208.414 8                 -10400412.553 8       419.000         261.000         207.000                  
G06  22202759.596    22202759.280    22202763.349                   -13071928.600 8 -13071928.602 8                 -10185906.738 9       254.000         191.000         630.000                  
G07  23400876.243    23400876.210    23400878.092                    -8794440.674 8  -8794440.669 8                  -6852819.845 8       225.000         114.000         288.000                  
G09  19272758.307    19272757.855    19272760.751                   -28040598.520 9 -28040598.523 9                 -21849817.524 9       856.000        2170.000        2940.000                  
G14  24230230.482    24230229.773    24230233.340                    -2825417.879 7  -2825417.899 6                  -2201633.604 6        78.000          20.000          29.000                  
G17  19211407.858    19211407.309    19211408.229                   -25323742.424 9 -25323742.427 9                 -19732786.905 9       728.000        1151.000        2475.000                  
G19  20451595.673    20451594.148    20451593.976                   -22473468.881 9 -22473468.881 8                 -17511786.860 9       554.000         295.000         509.000                  
G22  23878239.639    23878238.058    23878241.328                    -4650224.049 8  -4650224.040 6                  -3623561.480 6       128.000          20.000          40.000                  
> 2024 10 31 12 42  0.0000000  0 10
G02  23589619.112    23589617.119    23589619.362                    -6010550.205 8  -6010550.205 6                  -4683545.056 6       137.000          26.000          48.000                  
G03  23494000.761    23494001.187    23494004.912                    -5436172.553 8  -5436172.560 6                  -4235977.312 8       133.000          50.000         222.000                  
G04  20787395.702    20787395.163    20787396.978                   -13548904.776 8 -13548904.776 8                 -10557578.462 8       424.000         256.000         219.000                  
G06  22146304.756    22146304.786    22146308.729                   -13368599.182 8 -13368599.183 8                 -10417078.503 9       262.000         216.000         633.000                  
G07  23450465.560    23450465.013    23450467.418                    -8533847.879 8  -8533847.885 8                  -6649760.559 8       220.000         114.000         280.000                  
G09  19265147.472    19265147.022    19265149.896                   -28080593.614 9 -28080593.616 9                 -21880982.478 9       871.000        2243.000        2982.000                  
G14  24302142.655    24302141.541    24302145.623                    -2447516.487 7  -2447516.483 6                  -1907165.168 6        72.000          23.000          25.000                  
G17  19230116.506    19230116.106    19230117.085                   -25225426.487 9 -25225426.488 9                 -19656177.051 9       708.000        1087.000        2375.000                  
G19  20431342.240    20431340.545    20431340.848                   -22579899.827 9 -22579899.829 8                 -17594720.007 8       525.000         260.000         500.000                  
G22  23938256.115    23938255.254    23938258.239                    -4334832.878 8  -4334832.854 6                  -3377802.223 6       134.000          31.000          41.000                  
> 2024 10 31 12 42 10.0000000  0 10
G02  23610932.526    23610931.670    23610932.427                    -5898543.168 8  -5898543.166 6                  -4596266.793 7       140.000          25.000          55.000                  
G03  23440780.061    23440779.068    23440783.005                    -5715854.457 8  -5715854.459 7                  -4453911.091 8       135.000          52.000         235.000                  
G04  20749526.247    20749525.856    20749527.809                   -13747909.044 8 -13747909.043 8                 -10712646.636 8       429.000         268.000         240.000                  
G06  22090343.354    22090343.126    22090347.047                   -13662679.077 8 -13662679.078 8                 -10646231.548 9       262.000         216.000         640.000                  
G07  23500242.132    23500241.520    23500243.729                    -8272270.926 8  -8272270.923 8                  -6445934.394 8       215.000         102.000         257.000                  
G09  19258302.986    19258302.593    19258305.492                   -28116561.126 9 -28116561.128 9                 -21909009.057 9       880.000        2309.000        3055.000                  
G14  24374269.576    24374269.133    24374274.516                    -2068481.842 7  -2068481.857 6                  -1611813.692 6        67.000          26.000          28.000                  
G17  19250028.062    19250027.612    19250028.597                   -25120790.863 9 -25120790.865 9                 -19574642.765 9       702.000        1058.000        2263.000                  
G19  20412151.846    20412150.202    20412150.197                   -22680746.433 9 -22680746.437 8                 -17673301.717 9       527.000         273.000         505.000                  
G22  23998674.286    23998672.891    23998675.809                    -4017337.748 8  -4017337.730 6                  -3130403.500 6       122.000          24.000          31.000                  
> 2024 10 31 12 42 20.0000000  0 10
G02  23632801.370    23632798.929    23632800.835                    -5783626.904 8  -5783626.899 6                  -4506721.614 6       140.000          26.000          43.000                  
G03  23387894.310    23387894.635    23387898.479                    -5993763.845 8  -5993763.839 7                  -4670463.702 8       138.000          52.000         241.000                  
G04  20712177.766    20712177.093    20712179.091                   -13944177.190 8 -13944177.190 8                 -10865582.770 8       438.000         282.000         237.000                  
G06  22034888.777    22034888.869    22034892.690                   -13954092.985 8 -13954092.991 8                 -10873307.206 9       263.000         218.000         648.000                  
G07  23550202.865    23550202.108    23550204.371                    -8009727.007 8  -8009727.005 8                  -6241354.749 8       212.000         107.000         242.000                  
G09  19252229.236    19252228.661    19252231.617                   -28148479.400 9 -28148479.401 9                 -21933880.388 9       886.000        2308.000        3095.000                  
G14  24446607.676    24446605.263    24446611.668                    -1688351.806 7  -1688351.815 6                  -1315608.655 6        63.000          17.000          22.000                  
G17  19271139.235    19271138.745    19271139.673                   -25009851.172 9 -25009851.175 9                 -19488196.219 9       701.000        1048.000        2169.000                  
G19  20394032.842    20394031.364    20394031.619                   -22775960.870 9 -22775960.871 8                 -17747494.723 9       541.000         283.000         520.000                  
G22  24059487.369    24059483.581    24059487.706                    -3697774.127 8  -3697774.121 6                  -2881392.973 6       124.000          26.000          32.000                  
> 2024 10 31 12 42 30.0000000  0 10
G02  23655213.963    23655213.022    23655214.263                    -5665842.472 8  -5665842.495 6                  -4414941.488 6       145.000          28.000          47.000                  
G03  23335352.397    23335351.627    23335355.477                    -6269877.672 8  -6269877.675 7                  -4885617.176 8       143.000          51.000         258.000                  
G04  20675352.965    20675352.579    20675354.549                   -14137691.784 8 -14137691.783 8                 -11016373.285 8       441.000         293.000         251.000                  
G06  21979951.437    21979951.225    21979955.001                   -14242792.013 8 -14242792.014 8                 -11098267.379 9       272.000         221.000         662.000                  
G07  23600338.855    23600338.230    23600340.584                    -7746259.492 8  -7746259.492 8                  -6036055.427 8       206.000         101.000         225.000                  
G09  19246924.712    19246924.324    19246927.219                   -28176353.921 9 -28176353.923 9                 -21955600.748 9       888.000        2335.000        3097.000                  
G14  24519140.707    24519138.860    24519143.675                    -1307190.386 7  -1307190.383 6                  -1018599.958 6        58.000          23.000          20.000                  
G17  19293441.496    19293441.122    19293442.111                   -24892651.260 9 -24892651.262 9                 -19396871.583 9       701.000        1064.000        2132.000                  
G19  20376989.879    20376988.250    20376988.371                   -22865523.140 9 -22865523.140 8                 -17817283.446 9       556.000         302.000         517.000                  
G22  24120679.084    24120676.781    24120679.600                    -3376203.729 8  -3376203.725 6                  -2630818.738 6       116.000          24.000          30.000                  
> 2024 10 31 12 42 40.0000000  0 10
G02  23678167.536    23678165.600    23678166.514                    -5545225.583 8  -5545225.595 6                  -4320954.252 6       143.000          22.000          47.000                  
G03  23283156.264    23283156.399    23283160.175                    -6544166.997 8  -6544166.995 7                  -5099348.974 8       153.000          56.000         269.000                  
G04  20639056.450    20639056.169    20639058.052                   -14328429.699 8 -14328429.699 8                 -11165000.156 8       442.000         292.000         261.000                  
G06  21925541.034    21925540.638    21925544.408                   -14528721.233 8 -14528721.234 8                 -11321069.265 9       274.000         233.000         686.000                  
G07  23650643.211    23650643.285    23650645.464                    -7481905.638 8  -7481905.645 7                  -5830065.444 8       205.000          95.000         211.000                  
G09  19242389.834    19242389.384    19242392.260                   -28200185.005 9 -28200185.007 9                 -21974170.379 9       887.000        2332.000        3051.000                  
G14  24591858.258    24591856.990    24591861.929                     -925054.718 7   -925054.746 6                   -720832.117 6        54.000          20.000          21.000                  
G17  19316927.840    19316927.197    19316928.299                   -24769230.770 9 -24769230.772 9                 -19300699.745 9       716.000        1105.000        2124.000                  
G19  20361026.953    20361025.480    20361025.488                   -22949408.913 9 -22949408.914 8                 -17882648.929 9       559.000         301.000         531.000                  
G22  24182242.778    24182240.591    24182243.522                    -3052682.353 8  -3052682.364 6                  -2378724.307 6       114.000          21.000          25.000                  
> 2024 10 31 12 42 50.0000000  0  9
G02  23701656.261    23701654.771    23701656.052                    -5421788.138 8  -5421788.149 6                  -4224769.200 6       141.000          27.000          47.000                  
G03  23231317.711    23231317.946    23231321.674                    -6816578.651 8  -6816578.667 7                  -5311617.661 8       149.000          61.000         274.000                  
G04  20603297.709    20603297.351    20603299.371                   -14516343.780 8 -14516343.777 8                 -11311426.644 8       450.000         301.000         283.000                  
G06  21871672.405    21871672.111    21871675.943                   -14811801.470 8 -14811801.471 8                 -11541651.167 9       274.000         237.000         744.000                  
G07  23701114.775    23701114.429    23701116.637                    -7216678.227 8  -7216678.230 7                  -5623394.776 8       201.000          96.000         197.000                  
G09  19238628.696    19238628.299    19238631.119                   -28219949.535 9 -28219949.538 9                 -21989571.271 9       881.000        2291.000        2993.000                  
G17  19341594.398    19341593.833    19341594.838                   -24639606.898 9 -24639606.900 9                 -19199694.108 9       725.000        1130.000        2146.000                  
G19  20346153.166    20346151.724    20346151.561                   -23027571.162 9 -23027571.162 8                 -17943554.522 9       558.000         305.000         514.000                  
G22  24244172.688    24244170.696    24244173.795                    -2727241.397 8  -2727241.406 6                  -2125134.019 6       112.000          28.000          27.000                  
> 2024 10 31 12 43  0.0000000  0  9
G02  23725670.802    23725668.093    23725670.073                    -5295593.631 8  -5295593.629 6                  -4126435.807 6       135.000          29.000          38.000                  
G03  23179836.723    23179837.143    23179840.912                    -7087110.644 8  -7087110.645 7                  -5522421.688 8       151.000          67.000         278.000                  
G04  20568075.797    20568075.084    20568076.832                   -14701438.295 8 -14701438.295 8                 -11455656.069 8       451.000         298.000         286.000                  
G06  21818351.240    21818351.091    21818354.949                   -15092004.763 8 -15092004.766 8                 -11759991.300 9       281.000         242.000         768.000                  
G07  23751739.530    23751739.856    23751741.844                    -6950640.903 8  -6950640.896 7                  -5416093.001 8       194.000          84.000         174.000                  
G09  19235635.962    19235635.603    19235638.398                   -28235676.294 9 -28235676.296 9                 -22001825.852 9       883.000        2315.000        2937.000                  
G17  19367428.049    19367427.652    19367428.495                   -24503849.909 9 -24503849.911 9                 -19093909.426 9       731.000        1145.000        2131.000                  
G19  20332367.615    20332365.917    20332365.679                   -23100015.622 9 -23100015.623 8                 -18000004.702 9       576.000         319.000         523.000                  
G22  24306451.736    24306449.595    24306452.190                    -2399963.367 8  -2399963.373 6                  -1870112.284 6       110.000          24.000          32.000                  
> 2024 10 31 12 43 10.0000000  0  9
G02  23750211.176    23750209.238    23750210.988                    -5166629.763 8  -5166629.781 6                  -4025944.466 6       136.000          26.000          41.000                  
G03  23128729.285    23128729.147    23128732.816                    -7355684.770 8  -7355684.774 7                  -5731700.105 8       159.000          70.000         283.000                  
G04  20533403.114    20533402.943    20533404.821                   -14883641.450 8 -14883641.449 8                 -11597632.490 8       455.000         310.000         298.000                  
G06  21765597.587    21765597.329    21765601.240                   -15369226.843 8 -15369226.849 8                 -11976008.422 9       281.000         239.000         821.000                  
G07  23802521.792    23802521.905    23802523.656                    -6683780.966 8  -6683780.969 7                  -5208150.242 8       194.000          92.000         170.000                  
G09  19233420.686    19233420.133    19233422.894                   -28247318.590 9 -28247318.592 9                 -22010897.739 9       887.000        2327.000        2898.000                  
G17  19394429.707    19394429.266    19394430.108                   -24361955.250 9 -24361955.251 9                 -18983342.149 9       716.000        1107.000        2109.000                  
G19  20319682.910    20319681.496    20319681.144                   -23166673.118 9 -23166673.120 8                 -18051945.561 9       579.000         323.000         552.000                  
G22  24369079.015    24369077.246    24369079.761                    -2070854.414 8  -2070854.398 6                  -1613663.878 6       104.000          27.000          25.000                  
> 2024 10 31 12 43 20.0000000  0  9
G02  23775266.681    23775264.507    23775266.374                    -5034964.944 8  -5034964.952 6                  -3923348.494 6       128.000          29.000          50.000                  
G03  23077993.657    23077993.192    23077996.915                    -7622303.252 8  -7622303.260 7                  -5939454.649 8       166.000          74.000         298.000                  
G04  20499279.500    20499279.185    20499281.083                   -15062962.133 8 -15062962.135 8                 -11737362.831 8       471.000         319.000         316.000                  
G06  21713415.837    21713415.444    21713419.419                   -15643443.902 8 -15643443.903 8                 -12189683.964 9       282.000         236.000         871.000                  
G07  23853447.310    23853447.259    23853448.943                    -6416165.733 8  -6416165.724 7                  -4999618.942 8       190.000          85.000         148.000                  
G09  19231975.618    19231975.351    19231978.106                   -28254910.893 9 -28254910.895 9                 -22016813.789 9       895.000        2358.000        2864.000                  
G17  19422584.354    19422584.114    19422584.891                   -24214000.546 9 -24214000.548 9                 -18868052.762 9       706.000        1080.000        2045.000                  
G19  20308097.009    20308095.523    20308095.519                   -23227556.700 9 -23227556.703 8                 -18099387.274 9       568.000         309.000         558.000                  
G22  24432039.038    24432036.842    24432038.833                    -1740000.955 7  -1740000.961 6                  -1355856.134 6        99.000          26.000          26.000                  
> 2024 10 31 12 43 30.0000000  0  9
G02  23800833.664    23800830.219    23800831.464                    -4900616.743 8  -4900616.731 6                  -3818661.592 6       124.000          24.000          46.000                  
G03  23027639.430    23027638.920    23027642.395                    -7886917.165 8  -7886917.164 7                  -6145647.185 8       175.000          78.000         305.000                  
G04  20465712.502    20465712.095    20465714.085                   -15239358.275 8 -15239358.274 8                 -11874814.306 8       473.000         333.000         323.000                  
G06  21661819.783    21661819.780    21661823.654                   -15914580.932 8 -15914580.934 8                 -12400959.480 9       284.000         244.000         940.000                  
G07  23904514.183    23904513.268    23904515.437                    -6147811.164 8  -6147811.169 7                  -4790511.543 8       187.000          79.000         134.000                  
G09  19231304.722    19231304.316    19231307.065                   -28258437.227 9 -28258437.229 9                 -22019561.547 9       905.000        2419.000        2853.000                  
G17  19451887.290    19451886.798    19451887.594                   -24060013.881 9 -24060013.883 9                 -18748063.149 9       696.000        1038.000        2038.000                  
G19  20297616.929    20297615.283    20297615.394                   -23282629.692 9 -23282629.692 8                 -18142301.250 9       559.000         301.000         549.000                  
G22  24495322.740    24495321.318    24495324.584                    -1407438.048 7  -1407438.050 6                  -1096716.397 6        92.000          23.000          25.000                  
> 2024 10 31 12 43 40.0000000  0  9
G02  23826902.344    23826899.744    23826901.025                    -4763619.878 8  -4763619.857 6                  -3711910.781 6       116.000          22.000          49.000                  
G03  22977672.079    22977672.117    22977675.378                    -8149494.293 8  -8149494.293 7                  -6350252.615 8       178.000          91.000         317.000                  
G04  20432706.651    20432706.374    20432708.258                   -15412804.737 8 -15412804.736 8                 -12009967.329 8       478.000         335.000         329.000                  
G06  21610821.531    21610821.348    21610825.154                   -16182579.722 8 -16182579.726 8                 -12609789.619 9       281.000         247.000         940.000                  
G07  23955714.857    23955713.689    23955715.862                    -5878749.580 8  -5878749.582 7                  -4580853.242 8       184.000          75.000         126.000                  
G09  19231407.102    19231406.664    19231409.482                   -28257899.039 9 -28257899.042 9                 -22019142.144 9       917.000        2480.000        2833.000                  
G17  19482328.959    19482328.541    19482329.360                   -23900041.490 9 -23900041.494 9                 -18623409.337 9       681.000         990.000        2026.000                  
G19  20288246.099    20288244.575    20288244.557                   -23331873.730 9 -23331873.733 8                 -18180673.184 9       559.000         306.000         542.000                  
G22  24558922.607    24558921.511    24558923.472                    -1073217.450 7  -1073217.468 6                   -836284.947 6        88.000          26.000          21.000                  
> 2024 10 31 12 43 50.0000000  0  9
G02  23853465.883    23853464.359    23853465.871                    -4624022.068 8  -4624022.050 6                  -3603133.255 6       112.000          27.000          42.000                  
G03  22928096.740    22928096.210    22928100.025                    -8410015.245 8  -8410015.246 7                  -6553255.837 8       183.000          86.000         337.000                  
G04  20400264.388    20400263.988    20400265.946                   -15583289.449 8 -15583289.447 8                 -12142812.498 8       482.000         341.000         334.000                  
G06  21560428.581    21560428.401    21560432.445                   -16447394.906 8 -16447394.912 8                 -12816139.033 9       281.000         237.000         941.000                  
G07  24007041.365    24007040.783    24007042.965                    -5609025.781 8  -5609025.784 7                  -4370678.914 8       187.000          80.000         111.000                  
G09  19232280.070    19232279.664    19232282.392                   -28253311.337 9 -28253311.338 9                 -22015567.273 9       924.000        2521.000        2798.000                  
G17  19513898.172    19513897.692    19513898.589                   -23734143.966 9 -23734143.968 9                 -18494138.531 9       667.000         948.000        1916.000                  
G19  20279984.924    20279983.731    20279983.728                   -23375284.759 9 -23375284.762 8                 -18214499.918 9       572.000         312.000         531.000                  
G22  24622826.297    24622823.748    24622828.301                     -737403.312 7   -737403.303 6                   -574611.693 6        88.000          24.000          20.000                  
> 2024 10 31 12 44  0.0000000  0  9
G02  23880524.852    23880521.652    23880524.022                    -4481830.651 8  -4481830.653 6                  -3492334.778 6       106.000          22.000          42.000                  
G03  22878923.667    22878923.559    22878927.042                    -8668419.957 8  -8668419.960 7                  -6754610.035 8       186.000          97.000         345.000                  
G04  20368395.714    20368395.435    20368397.316                   -15750759.867 8 -15750759.867 8                 -12273308.865 8       489.000         348.000         346.000                  
G06  21510658.260    21510657.841    21510661.945                   -16708940.458 8 -16708940.462 8                 -13019940.681 9       282.000         247.000         958.000                  
G07  24058493.667    24058492.794    24058494.677                    -5338643.857 8  -5338643.862 7                  -4159991.764 8       174.000          79.000         103.000                  
G09  19233928.395    19233928.030    19233930.733                   -28244649.107 9 -28244649.109 9                 -22008817.445 9       930.000        2541.000        2833.000                  
G17  19546590.788    19546590.465    19546591.313                   -23562342.524 9 -23562342.527 9                 -18360267.272 9       656.000         917.000        1849.000                  
G19  20272842.532    20272841.029    20272840.875                   -23412819.869 9 -23412819.872 8                 -18243748.012 9       584.000         328.000         530.000                  
G22  24687028.290    24687026.080    24687030.925                     -400018.951 7   -400018.955 6                   -311714.960 6        81.000          23.000          19.000                  
> 2024 10 31 12 44 10.0000000  0  9
G02  23908062.725    23908060.317    23908062.689                    -4337113.556 8  -4337113.551 6                  -3379568.195 6       106.000          25.000          45.000                  
G03  22830153.464    22830153.506    22830156.704                    -8924708.813 8  -8924708.814 7                  -6954315.518 8       187.000         100.000         358.000                  
G04  20337099.179    20337099.003    20337100.816                   -15915224.100 8 -15915224.101 8                 -12401462.750 8       490.000         349.000         358.000                  
G06  21461514.600    21461514.262    21461518.460                   -16967190.914 8 -16967190.918 8                 -13221174.730 9       289.000         243.000         963.000                  
G07  24110058.324    24110057.757    24110059.259                    -5067667.723 8  -5067667.716 7                  -3948841.601 7       172.000          74.000          97.000                  
G09  19236345.203    19236344.786    19236347.541                   -28231948.530 9 -28231948.533 9                 -21998920.851 9       922.000        2513.000        2903.000                  
G17  19580391.096    19580390.845    19580391.708                   -23384720.260 9 -23384720.262 9                 -18221860.306 9       652.000         918.000        1772.000                  
G19  20266813.877    20266812.684    20266812.716                   -23444497.995 9 -23444497.996 8                 -18268432.222 9       580.000         320.000         518.000                  
G22  24751514.380    24751510.232    24751517.179                      -61147.941 7    -61147.940 6                    -47659.778 6        80.000          20.000          17.000                  
> 2024 10 31 12 44 20.0000000  0  9
G02  23936081.839    23936079.371    23936082.395                    -4189872.879 8  -4189872.881 6                  -3264835.198 6       105.000          20.000          39.000                  
G03  22781798.047    22781798.534    22781801.642                    -9178816.030 8  -9178816.033 7                  -7152321.030 8       189.000          94.000         364.000                  
G04  20306385.802    20306385.370    20306387.423                   -16076624.342 8 -16076624.342 8                 -12527229.111 8       492.000         360.000         367.000                  
G06  21413015.306    21413015.380    21413019.470                   -17222054.674 8 -17222054.678 8                 -13419769.795 9       292.000         263.000         945.000                  
G07  24161736.444    24161736.675    24161738.446                    -4796094.873 8  -4796094.872 7                  -3737226.456 7       163.000          68.000          99.000                  
G09  19239536.010    19239535.677    19239538.417                   -28215180.240 9 -28215180.242 9                 -21985854.611 9       907.000        2420.000        2945.000                  
G17  19615295.906    19615295.394    19615296.224                   -23201295.480 9 -23201295.483 9                 -18078931.894 9       656.000         917.000        1670.000                  
G19  20261909.479    20261907.990    20261907.693                   -23470273.525 9 -23470273.527 8                 -18288516.993 9       608.000         367.000         517.000                  
G22  24816279.440    24816275.487    24816280.688                      279192.635 7    279192.659 6                    217541.552 6        74.000          24.000          19.000                  
> 2024 10 31 12 44 30.0000000  0  9
G02  23964569.564    23964566.396    23964569.388                    -4040170.396 8  -4040170.416 6                  -3148183.909 6       101.000          22.000          40.000                  
G03  22733859.597    22733859.229    22733862.783                    -9430735.229 8  -9430735.228 7                  -7348621.597 8       187.000          92.000         387.000                  
G04  20276255.121    20276254.533    20276256.535                   -16234962.390 8 -16234962.390 8                 -12650609.350 8       497.000         350.000         367.000                  
G06  21365166.945    21365167.011    21365170.873                   -17473499.676 8 -17473499.679 8                 -13615700.894 9       298.000         271.000         919.000                  
G07  24213518.113    24213518.167    24213520.004                    -4523981.801 8  -4523981.807 7                  -3525190.368 7       159.000          56.000          88.000                  
G09  19243495.037    19243494.682    19243497.453                   -28194374.964 9 -28194374.966 9                 -21969642.668 9       897.000        2379.000        2980.000                  
G17  19651289.503    19651289.126    19651290.003                   -23012147.000 9 -23012147.002 9                 -17931543.454 9       647.000         897.000        1648.000                  
G19  20258124.951    20258123.332    20258123.048                   -23490161.811 9 -23490161.814 8                 -18304014.312 8       606.000         355.000         491.000                  
G22  24881309.853    24881305.977    24881311.369                      620927.146 7    620927.146 6                    483828.021 6        72.000          20.000          21.000                  
> 2024 10 31 12 44 40.0000000  0  9
G02  23993520.262    23993519.286    23993521.678                    -3888026.195 7  -3888026.197 6                  -3029630.017 6        96.000          21.000          46.000                  
G03  22686346.753    22686346.260    22686349.620                    -9680418.220 8  -9680418.221 7                  -7543179.667 8       191.000          94.000         403.000                  
G04  20246714.427    20246714.340    20246716.079                   -16390198.495 9 -16390198.495 8                 -12771572.494 8       501.000         373.000         375.000                  
G06  21317983.091    21317982.957    21317986.953                   -17721452.174 8 -17721452.178 8                 -13808910.560 9       309.000         291.000         890.000                  
G07  24265400.036    24265399.671    24265401.389                    -4251342.916 8  -4251342.925 7                  -3312744.552 7       152.000          56.000          86.000                  
G09  19248224.357    19248223.994    19248226.715                   -28169522.275 9 -28169522.276 9                 -21950276.896 9       882.000        2300.000        2943.000                  
G17  19688365.203    19688364.732    19688365.646                   -22817313.266 9 -22817313.269 9                 -17779724.944 9       651.000         907.000        1623.000                  
G19  20255465.291    20255463.687    20255463.441                   -23504138.118 9 -23504138.120 8                 -18314904.903 8       606.000         351.000         497.000                  
G22  24946597.100    24946595.197    24946598.810                      964020.445 7    964020.484 6                    751173.248 6        68.000          24.000          18.000                  
> 2024 10 31 12 44 50.0000000  0  9
G02  24022930.926    24022928.686    24022931.266                    -3733477.196 7  -3733477.195 6                  -2909202.199 6        93.000          24.000          40.000                  
G03  22639265.079    22639264.733    22639268.090                    -9927833.543 8  -9927833.545 7                  -7735970.734 8       187.000          94.000         434.000                  
G04  20217768.625    20217768.374    20217770.132                   -16542309.835 9 -16542309.836 8                 -12890100.758 8       506.000         375.000         390.000                  
G06  21271474.999    21271474.769    21271478.495                   -17965855.246 8 -17965855.249 8                 -13999354.438 9       328.000         334.000         841.000                  
G07  24317374.969    24317375.327    24317377.452                    -3978208.951 8  -3978208.957 7                  -3099912.970 7       145.000          57.000          76.000                  
G09  19253722.636    19253722.158    19253724.888                   -28140629.109 9 -28140629.111 9                 -21927762.704 9       877.000        2283.000        2919.000                  
G17  19726511.969    19726511.462    19726512.493                   -22616850.523 9 -22616850.524 9                 -17623520.199 9       640.000         887.000        1599.000                  
G19  20253931.756    20253930.129    20253929.988                   -23512195.954 9 -23512195.956 8                 -18321183.699 9       595.000         334.000         512.000                  
G22  25012133.972    25012132.691    25012137.733                     1308422.393 7   1308422.398 6                   1019539.171 6        62.000          24.000          19.000                  
> 2024 10 31 12 45  0.0000000  0  9
G02  24052789.435    24052786.046    24052789.402                    -3576573.917 7  -3576573.907 6                  -2786939.903 6        93.000          25.000          44.000                  
G03  22592617.770    22592618.051    22592621.352                   -10172963.151 8 -10172963.154 7                  -7926980.722 8       187.000          85.000         462.000                  
G04  20189419.102    20189418.744    20189420.465                   -16691287.260 9 -16691287.261 8                 -13006187.011 8       505.000         378.000         402.000                  
G06  21225650.336    21225650.063    21225653.629                   -18206665.569 8 -18206665.574 8                 -14186998.778 9       350.000         373.000         797.000                  
G07  24369437.669    24369437.233    24369439.551                    -3704623.718 8  -3704623.728 6                  -2886729.741 7       142.000          50.000          77.000                  
G09  19259985.485    19259985.198    19259987.890                   -28107716.472 9 -28107716.475 9                 -21902116.452 9       880.000        2288.000        2868.000                  
G17  19765716.424    19765715.935    19765717.012                   -22410829.515 9 -22410829.517 9                 -17462984.331 9       625.000         854.000        1614.000                  
G19  20253522.933    20253521.505    20253521.254                   -23514343.831 9 -23514343.832 8                 -18322857.327 9       590.000         341.000         521.000                  
G22  25077909.051    25077906.558    25077911.363                     1654069.443 7   1654069.445 6                   1288880.142 6        61.000          21.000          15.000                  
> 2024 10 31 12 45 10.0000000  0  9
G02  24083093.502    24083089.667    24083093.214                    -3417325.603 7  -3417325.628 6                  -2662850.288 6        95.000          22.000          45.000                  
G03  22546417.890    22546417.561    22546420.790                   -10415747.615 8 -10415747.625 7                  -8116163.329 8       184.000          92.000         498.000                  
G04  20161675.539    20161675.118    20161677.084                   -16837080.416 9 -16837080.415 8                 -13119792.018 8       507.000         386.000         401.000                  
G06  21180525.637    21180525.165    21180528.589                   -18443798.573 8 -18443798.575 8                 -14371777.666 9       375.000         421.000         794.000                  
G07  24421584.406    24421583.754    24421586.098                    -3430589.109 8  -3430589.110 6                  -2673196.363 7       138.000          47.000          71.000                  
G09  19267017.361    19267016.899    19267019.608                   -28070764.534 9 -28070764.537 9                 -21873322.695 9       875.000        2259.000        2838.000                  
G17  19805972.833    19805972.405    19805973.418                   -22199280.417 9 -22199280.421 9                 -17298140.862 9       622.000         829.000        1664.000                  
G19  20254244.850    20254243.359    20254243.150                   -23510550.476 9 -23510550.477 8                 -18319901.427 9       601.000         338.000         547.000                  
G22  25143916.393    25143914.510    25143918.133                     2000939.713 7   2000939.734 6                   1559191.759 6        54.000          23.000          20.000                  
> 2024 10 31 12 45 20.0000000  0  8
G02  24113828.849    24113826.332    24113829.798                    -3255803.210 7  -3255803.213 6                  -2536988.704 6        95.000          21.000          36.000                  
G03  22500663.351    22500662.912    22500666.337                   -10656189.198 8 -10656189.204 7                  -8303520.323 9       188.000          87.000         511.000                  
G04  20134535.753    20134535.398    20134537.240                   -16979700.942 9 -16979700.945 8                 -13230924.854 8       513.000         387.000         409.000                  
G06  21136104.438    21136104.529    21136107.625                   -18677231.578 8 -18677231.580 8                 -14553673.440 9       402.000         496.000         782.000                  
G07  24473805.425    24473804.463    24473806.879                    -3156168.427 8  -3156168.408 6                  -2459362.143 7       128.000          41.000          68.000                  
G09  19274809.540    19274809.106    19274811.859                   -28029815.849 9 -28029815.851 9                 -21841414.592 9       869.000        2244.000        2790.000                  
G17  19847263.660    19847263.126    19847264.107                   -21982296.640 9 -21982296.643 9                 -17129062.581 9       612.000         797.000        1724.000                  
G19  20256091.200    20256089.544    20256089.361                   -23500848.037 9 -23500848.039 8                 -18312341.062 9       583.000         320.000         527.000                  
> 2024 10 31 12 45 30.0000000  0  8
G02  24144998.149    24144995.314    24144999.025                    -3092010.033 7  -3092010.007 6                  -2409357.624 6        99.000          20.000          37.000                  
G03  22455366.975    22455366.590    22455370.041                   -10894222.357 8 -10894222.357 7                  -8489000.621 9       192.000          96.000         533.000                  
G04  20108010.259    20108009.809    20108011.891                   -17119092.852 9 -17119092.853 8                 -13339541.885 8       513.000         384.000         427.000                  
G06  21092405.323    21092404.880    21092408.065                   -18906874.270 8 -18906874.273 9                 -14732615.738 9       415.000         519.000         777.000                  
G07  24526100.008    24526099.558    24526101.765                    -2881356.780 8  -2881356.761 6                  -2245223.292 7       125.000          35.000          63.000                  
G09  19283366.986    19283366.682    19283369.418                   -27984845.682 9 -27984845.684 9                 -21806372.868 9       873.000        2247.000        2724.000                  
G17  19889583.162    19889582.881    19889583.899                   -21759904.450 9 -21759904.451 9                 -16955769.957 9       595.000         756.000        1782.000                  
G19  20259068.359    20259066.799    20259066.635                   -23485202.018 9 -23485202.018 8                 -18300149.323 9       590.000         338.000         538.000                  
> 2024 10 31 12 45 40.0000000  0  8
G02  24176586.725    24176584.832    24176587.280                    -2926010.227 8  -2926010.209 6                  -2280007.139 6       102.000          20.000          32.000                  
G03  22410529.912    22410529.356    22410533.036                   -11129842.366 8 -11129842.371 8                  -8672600.551 9       199.000         102.000         555.000                  
G04  20082098.202    20082097.898    20082099.764                   -17255261.223 9 -17255261.222 8                 -13445647.068 8       508.000         379.000         433.000                  
G06  21049432.238    21049431.959    21049435.246                   -19132697.423 8 -19132697.425 9                 -14908581.768 9       411.000         514.000         864.000                  
G07  24578458.688    24578458.322    24578460.380                    -2606209.587 8  -2606209.598 6                  -2030822.944 7       120.000          45.000          54.000                  
G09  19292682.769    19292682.426    19292685.127                   -27935890.724 9 -27935890.726 9                 -21768226.113 9       857.000        2180.000        2626.000                  
G17  19932915.680    19932915.166    19932916.159                   -21532191.741 9 -21532191.743 9                 -16778331.471 9       584.000         732.000        1811.000                  
G19  20263171.415    20263169.732    20263169.518                   -23463640.623 9 -23463640.623 8                 -18283348.202 9       602.000         343.000         515.000                  
> 2024 10 31 12 45 50.0000000  0  8
G02  24208591.262    24208589.622    24208591.627                    -2757825.322 7  -2757825.298 6                  -2148953.960 6       100.000          25.000          29.000                  
G03  22366161.279    22366160.831    22366164.129                   -11363001.868 8 -11363001.872 8                  -8854283.204 9       204.000         105.000         567.000                  
G04  20056806.561    20056806.451    20056808.165                   -17388168.733 9 -17388168.735 8                 -13549211.322 8       507.000         384.000         432.000                  
G06  21007200.043    21007199.712    21007203.065                   -19354629.385 8 -19354629.386 9                 -15081515.696 9       412.000         520.000        1003.000                  
G07  24630880.252    24630878.639    24630881.229                    -2330739.255 8  -2330739.273 6                  -1816170.838 7       117.000          32.000          56.000                  
G09  19302757.998    19302757.538    19302760.176                   -27882945.571 9 -27882945.573 9                 -21726970.119 9       851.000        2133.000        2525.000                  
G17  19977251.516    19977251.110    19977252.167                   -21299204.528 9 -21299204.530 9                 -16596782.970 9       570.000         699.000        1864.000                  
G19  20268402.492    20268400.826    20268400.750                   -23436150.893 9 -23436150.894 8                 -18261927.599 8       611.000         365.000         498.000                  
> 2024 10 31 12 46  0.0000000  0  8
G02  24241005.418    24241002.416    24241004.354                    -2587495.329 8  -2587495.325 6                  -2016229.249 6       105.000          25.000          31.000                  
G03  22322266.356    22322265.772    22322268.925                   -11593671.981 8 -11593671.983 8                  -9034026.074 9       211.000         116.000         570.000                  
G04  20032139.352    20032139.023    20032140.833                   -17517796.801 9 -17517796.801 8                 -13650220.166 8       511.000         390.000         438.000                  
G06  20965718.121    20965717.909    20965721.346                   -19572617.260 8 -19572617.260 9                 -15251376.313 9       409.000         512.000        1089.000                  
G07  24683355.182    24683354.367    24683356.993                    -2054976.194 8  -2054976.184 6                  -1601290.642 7       108.000          28.000          52.000                  
G09  19313589.732    19313589.362    19313592.004                   -27826023.841 9 -27826023.843 9                 -21682615.492 9       844.000        2095.000        2472.000                  
G17  20022578.867    20022578.486    20022579.336                   -21061008.327 9 -21061008.330 9                 -16411175.555 9       573.000         725.000        1840.000                  
G19  20274760.302    20274758.708    20274758.464                   -23402739.967 9 -23402739.968 8                 -18235893.072 8       613.000         373.000         486.000                  
> 2024 10 31 12 46 10.0000000  0  8
G02  24273815.339    24273813.665    24273814.436                    -2415072.604 8  -2415072.626 6                  -1881873.880 6       109.000          22.000          25.000                  
G03  22278847.450    22278847.374    22278850.708                   -11821836.208 8 -11821836.210 8                  -9211816.307 9       215.000         113.000         575.000                  
G04  20008097.069    20008096.766    20008098.728                   -17644139.424 9 -17644139.424 8                 -13748668.928 8       519.000         395.000         435.000                  
G06  20924994.593    20924994.355    20924997.765                   -19786620.769 8 -19786620.772 9                 -15418132.238 9       414.000         516.000        1165.000                  
G07  24735878.293    24735878.517    24735880.431                    -1778962.702 8  -1778962.704 6                  -1386215.281 7       106.000          32.000          52.000                  
G09  19325173.314    19325172.849    19325175.489                   -27765152.064 9 -27765152.066 9                 -21635182.910 9       827.000        2014.000        2468.000                  
G17  20068882.756    20068882.076    20068882.810                   -20817681.397 9 -20817681.399 9                 -16221570.116 9       581.000         728.000        1822.000                  
G19  20282240.882    20282239.529    20282238.912                   -23363428.825 9 -23363428.827 8                 -18205260.979 8       613.000         357.000         455.000                  
> 2024 10 31 12 46 20.0000000  0  8
G02  24307021.404    24307018.567    24307019.737                    -2240578.850 8  -2240578.841 6                  -1745904.719 6       109.000          26.000          28.000                  
G03  22235914.815    22235915.036    22235918.212                   -12047447.346 8 -12047447.347 8                  -9387617.118 9       219.000         120.000         590.000                  
G04  19984687.150    19984686.676    19984688.481                   -17767160.127 9 -17767160.128 8                 -13844529.180 8       524.000         407.000         438.000                  
G06  20885042.461    20885042.433    20885045.871                   -19996569.262 8 -19996569.265 9                 -15581728.415 9       414.000         527.000        1248.000                  
G07  24788448.062    24788447.154    24788449.638                    -1502709.984 8  -1502709.994 6                  -1170953.525 7       105.000          32.000          56.000                  
G09  19337509.169    19337508.655    19337511.408                   -27700326.556 9 -27700326.558 9                 -21584669.498 9       813.000        1951.000        2498.000                  
G17  20116153.197    20116152.749    20116153.558                   -20569272.262 9 -20569272.265 9                 -16028004.548 9       580.000         725.000        1779.000                  
G19  20290846.039    20290844.351    20290844.098                   -23318209.254 9 -23318209.257 8                 -18170024.915 8       615.000         365.000         444.000                  
> 2024 10 31 12 46 30.0000000  0  8
G02  24340612.354    24340609.408    24340611.730                    -2064056.468 8  -2064056.457 6                  -1608354.818 6       106.000          27.000          23.000                  
G03  22193473.598    22193473.460    22193476.669                   -12270479.015 8 -12270479.017 8                  -9561407.951 9       224.000         135.000         604.000                  
G04  19961912.140    19961911.729    19961913.479                   -17886843.532 9 -17886843.534 8                 -13937788.938 8       529.000         416.000         439.000                  
G06  20845871.386    20845871.521    20845875.059                   -20202413.248 8 -20202413.251 9                 -15742126.276 9       417.000         528.000        1311.000                  
G07  24841057.392    24841056.225    24841058.709                    -1226249.605 7  -1226249.592 6                   -955529.943 6        95.000          30.000          50.000                  
G09  19350594.145    19350593.560    19350596.252                   -27631564.964 9 -27631564.967 9                 -21531089.008 9       804.000        1911.000        2502.000                  
G17  20164377.652    20164377.206    20164378.055                   -20315850.980 9 -20315850.983 9                 -15830533.425 9       583.000         733.000        1729.000                  
G19  20300572.695    20300571.308    20300570.584                   -23267095.334 9 -23267095.335 8                 -18130195.859 8       615.000         368.000         441.000                  
> 2024 10 31 12 46 40.0000000  0  9
G02  24374581.027    24374577.229    24374579.397                    -1885551.714 8  -1885551.708 6                  -1469260.164 6       106.000          20.000          26.000                  
G03  22151526.799    22151527.027    22151530.264                   -12490908.770 8 -12490908.770 8                  -9733171.318 9       233.000         139.000         618.000                  
G04  19939774.133    19939773.904    19939775.677                   -18003178.400 9 -18003178.401 8                 -14028439.454 8       528.000         406.000         448.000                  
G06  20807490.401    20807490.331    20807493.899                   -20404107.474 8 -20404107.476 9                 -15899290.564 9       425.000         568.000        1387.000                  
G07  24893698.744    24893698.152    24893700.057                     -949616.492 7   -949616.485 6                   -739971.802 6        94.000          30.000          46.000                  
G09  19364423.670    19364423.191    19364425.952                   -27558889.338 9 -27558889.340 9                 -21474458.623 9       797.000        1885.000        2457.000                  
G11  24852126.363    24852151.388    24852182.013                     -311738.970 7   -311738.990 6                   -242918.027 6        74.000          18.000          18.000                  
G17  20213541.629    20213541.362    20213542.079                   -20057491.915 9 -20057491.918 9                 -15629214.682 9       591.000         760.000        1626.000                  
G19  20311417.134    20311415.625    20311415.275                   -23210106.577 9 -23210106.579 8                 -18085789.020 8       582.000         335.000         452.000                  
> 2024 10 31 12 46 50.0000000  0  9
G02  24408921.195    24408918.630    24408919.925                    -1705087.416 8  -1705087.420 6                  -1328638.641 6       103.000          23.000          20.000                  
G03  22110084.833    22110084.495    22110087.580                   -12708690.867 8 -12708690.869 8                  -9902871.581 9       235.000         136.000         623.000                  
G04  19918280.375    19918279.778    19918281.661                   -18116130.405 9 -18116130.405 8                 -14116453.972 8       531.000         412.000         448.000                  
G06  20769912.076    20769911.776    20769915.398                   -20601583.728 8 -20601583.731 9                 -16053168.111 9       451.000         617.000        1456.000                  
G07  24946370.884    24946369.462    24946372.899                     -672821.778 7   -672821.766 6                   -524287.700 6        89.000          28.000          42.000                  
G09  19378998.351    19378997.927    19379000.581                   -27482298.837 9 -27482298.839 9                 -21414777.690 9       799.000        1869.000        2413.000                  
G11  24814902.679    24814928.092    24814944.568                     -507340.915 7   -507340.894 6                   -395332.704 6        75.000          21.000          16.000                  
G17  20263635.742    20263635.330    20263636.005                   -19794246.528 9 -19794246.530 9                 -15424088.392 9       605.000         795.000        1522.000                  
G19  20323380.171    20323378.569    20323378.401                   -23147240.658 9 -23147240.659 8                 -18036802.571 8       584.000         330.000         466.000                  
> 2024 10 31 12 47  0.0000000  0  9
G02  24443627.218    24443623.440    24443625.073                    -1522710.407 7  -1522710.428 6                  -1186526.691 6        98.000          24.000          23.000                  
G03  22069149.573    22069149.719    22069152.915                   -12923803.711 8 -12923803.711 8                 -10070491.906 9       233.000         140.000         646.000                  
G04  19897431.579    19897431.372    19897433.065                   -18225689.604 9 -18225689.607 8                 -14201824.745 8       530.000         415.000         459.000                  
G06  20733144.730    20733144.539    20733147.744                   -20794798.328 8 -20794798.330 9                 -16203724.888 9       491.000         738.000        1472.000                  
G07  24999067.855    24999066.269    24999069.621                     -395900.258 7   -395900.246 6                   -308504.820 6        83.000          29.000          43.000                  
G09  19394313.460    19394313.091    19394315.645                   -27401817.240 9 -27401817.243 9                 -21352064.740 9       801.000        1890.000        2366.000                  
G11  24777939.263    24777964.314    24778002.262                     -701584.442 7   -701584.434 6                   -546693.685 6        76.000          21.000          17.000                  
G17  20314645.142    20314644.595    20314645.282                   -19526190.985 9 -19526190.988 9                 -15215213.927 9       613.000         792.000        1377.000                  
G19  20336457.160    20336455.574    20336455.256                   -23078520.768 9 -23078520.770 8                 -17983254.595 8       582.000         335.000         481.000                  
> 2024 10 31 12 47 10.0000000  0  9
G02  24478687.468    24478684.441    24478686.068                    -1338466.291 7  -1338466.306 6                  -1042959.875 6       100.000          20.000          19.000                  
G03  22028727.630    22028727.073    22028730.481                   -13136224.550 8 -13136224.553 8                 -10236014.571 9       236.000         140.000         650.000                  
G04  19877231.053    19877230.676    19877232.412                   -18331845.148 9 -18331845.151 8                 -14284543.319 8       527.000         404.000         467.000                  
G06  20697196.535    20697196.436    20697199.572                   -20983706.822 9 -20983706.825 9                 -16350926.262 9       514.000         812.000        1481.000                  
G07  25051782.903    25051780.180    25051783.178                     -118885.069 7   -118885.051 6                    -92648.931 6        83.000          28.000          40.000                  
G09  19410364.819    19410364.313    19410366.811                   -27317467.594 9 -27317467.596 9                 -21286337.734 9       806.000        1914.000        2350.000                  
G11  24741238.579    24741264.200    24741281.515                     -894437.672 7   -894437.663 6                   -696966.447 6        78.000          13.000          21.000                  
G17  20366555.229    20366554.853    20366555.433                   -19253400.734 9 -19253400.737 9                 -15002650.080 9       608.000         794.000        1237.000                  
G19  20350643.766    20350642.046    20350641.781                   -23003970.435 9 -23003970.436 8                 -17925163.413 8       584.000         332.000         500.000                  
> 2024 10 31 12 47 20.0000000  0  9
G02  24514098.967    24514097.130    24514097.996                    -1152376.306 7  -1152376.280 6                   -897954.721 6        95.000          23.000          18.000                  
G03  21988825.838    21988826.310    21988829.302                   -13345906.583 8 -13345906.585 8                 -10399403.102 9       234.000         141.000         651.000                  
G04  19857684.446    19857684.058    19857685.966                   -18434562.362 9 -18434562.365 8                 -14364582.674 8       534.000         416.000         465.000                  
G06  20662080.694    20662080.593    20662083.816                   -21168241.165 9 -21168241.168 9                 -16494719.197 9       527.000         835.000        1535.000                  
G07  25104511.880    25104510.969    25104513.372                      158215.247 7    158215.237 6                    123273.264 6        77.000          21.000          34.000                  
G09  19427151.931    19427151.728    19427154.251                   -27229249.217 9 -27229249.219 9                 -21217596.129 9       811.000        1927.000        2294.000                  
G11  24704816.463    24704839.330    24704877.869                    -1085844.239 7  -1085844.252 6                   -846116.860 6        79.000          25.000          17.000                  
G17  20419356.582    20419356.243    20419356.742                   -18975927.414 9 -18975927.416 9                 -14786437.082 9       611.000         811.000        1094.000                  
G19  20365939.351    20365937.769    20365937.395                   -22923590.376 9 -22923590.377 8                 -17862529.589 9       578.000         324.000         503.000                  
