     3.03           OBSERVATION DATA    M (MIXED)           RINEX VERSION / TYPE
BJPP                CNES                20241031 125225 UTC PGM / RUN BY / DATE 
MARKER                                                      MARKER NAME         
SPACECRAFT                                                  MARKER TYPE         
OBSERVER            CNES                                    OBSERVER / AGENCY   
RECNUM              BLACKJACK           RECVERS             REC # / TYPE / VERS 
ANTNUM              BLACKJACK                               ANT # / TYPE        
        0.0000        0.0000        0.0000                  ANTENNA: DELTA H/E/N
G   12 C1C C1W C2W C2X L1C L1W L2X L2W S1C S1W S2W S2X      SYS / # / OBS TYPES 
DBHZ                                                        SIGNAL STRENGTH UNIT
This rinex produced from the following file(s):             COMMENT             
/tmp/mesos_work/slaves/d197f515-9ebc-49f2-8adc-fe7a9d3e6458-COMMENT             
S15/frameworks/8c1b9f46-52ed-4aff-9edf-38d17bf6761e-3070/exeCOMMENT             
cutors/toil-66051/runs/9fb8f170-d816-4fe9-9098-4c1ac0faab9a/COMMENT             
9b82b6994c695e6395b0617e637f801b/dccf/125b/tmpjq27ev_067lbovCOMMENT             
f3/stgc84c623b-3521-463e-858c-837d318f693a/SWOT_KRX_20241031COMMENT             
T120547_20241031T095959_20241031T104519_O_APID1280.PTM_0    COMMENT             
  2024    10    31     9    59   40.0000000                 TIME OF FIRST OBS   
G L1C                                                       SYS / PHASE SHIFT   
G L1W -0.25000                                              SYS / PHASE SHIFT   
G L2W                                                       SYS / PHASE SHIFT   
G L2X  0.25000                                              SYS / PHASE SHIFT   
                                                            END OF HEADER       
> 2024 10 31 09 59 40.0000000  0 12
G05  23876479.036    23876478.582    23876492.494                     -518882.931 8   -518882.914 6                   -404328.838 6       123.000          40.000          19.000                  
G06  24278129.925    24278129.595    24278134.281                    -3612743.876 8  -3612743.892 7                  -2815125.776 7       117.000          52.000          79.000                  
G10  26692711.146    26692710.652    26692712.294                    10228144.395 6  10228144.421 6                   7969993.376 6        49.000          20.000          18.000                  
G11  23164133.074    23164132.487    23164134.434                    -9463015.868 8  -9463015.862 7                  -7373776.982 8       257.000          85.000         149.000                  
G12  21572069.828    21572069.535    21572069.805                   -18139433.793 9 -18139433.795 9                 -14134619.881 9       502.000         609.000         770.000                  
G13  20134004.171    20134003.629    20134004.556                   -20862812.454 9 -20862812.455 8                 -16256733.279 8       716.000         305.000         384.000                  
G15  19389815.643    19389815.492    19389816.262                   -27970670.767 9 -27970670.770 9                 -21795320.175 9       833.000        1566.000        2650.000                  
G19  23123559.822    23123558.103    23123558.219                    -6616086.111 8  -6616086.106 6                  -5155389.889 8       210.000          47.000         147.000                  
G23  24520651.076    24520650.238    24520652.318                    -1885384.523 7  -1885384.542 6                  -1469125.668 6        71.000          24.000          19.000                  
G24  22011824.822    22011824.691    22011828.059                   -10181705.037 8 -10181705.039 8                  -7933795.591 9       350.000         303.000        1576.000                  
G25  23033317.417    23033316.177    23033320.323                    -6117380.499 8  -6117380.493 7                  -4766785.319 8       183.000          86.000         299.000                  
G29  23429635.896    23429634.758    23429635.738                    -7839978.181 8  -7839978.184 7                  -6109075.178 8       206.000          96.000         264.000                  
> 2024 10 31 09 59 50.0000000  0 12
G05  23809630.242    23809629.463    23809630.385                     -870173.197 8   -870173.201 6                   -678057.901 6       125.000          41.000          44.000                  
G06  24271908.195    24271908.035    24271912.773                    -3645437.929 8  -3645437.929 6                  -2840601.655 7       115.000          44.000          80.000                  
G10  26738337.088    26738340.833    26738344.098                    10467932.677 6  10467932.648 6                   8156841.287 6        47.000          21.000          19.000                  
G11  23113060.698    23113059.999    23113061.762                    -9731404.662 8  -9731404.656 7                  -7582911.064 8       255.000          78.000         146.000                  
G12  21622253.946    21622253.482    21622253.681                   -17875715.873 8 -17875715.875 9                 -13929125.423 9       477.000         549.000         754.000                  
G13  20098132.528    20098132.012    20098132.715                   -21051319.361 9 -21051319.362 8                 -16403621.761 8       737.000         322.000         368.000                  
G15  19379203.287    19379203.121    19379203.807                   -28026439.557 9 -28026439.560 9                 -21838776.378 9       832.000        1567.000        2659.000                  
G19  23177035.448    23177033.575    23177033.598                    -6335070.791 8  -6335070.791 6                  -4936416.955 8       201.000          42.000         137.000                  
G23  24534280.907    24534277.958    24534280.852                    -1813764.434 7  -1813764.418 6                  -1413317.866 6        72.000          24.000          19.000                  
G24  22066208.733    22066208.314    22066211.747                    -9895917.293 8  -9895917.294 8                  -7711103.884 9       340.000         290.000        1521.000                  
G25  23052434.671    23052433.540    23052437.406                    -6016918.370 8  -6016918.366 7                  -4688503.159 8       189.000          83.000         298.000                  
G29  23367512.491    23367512.071    23367512.728                    -8166436.085 8  -8166436.089 8                  -6363457.915 8       216.000         107.000         266.000                  
> 2024 10 31 10 00  0.0000000  0 11
G05  23742921.390    23742921.108    23742921.271                    -1220730.626 8  -1220730.628 7                   -951219.461 7       136.000          53.000          57.000                  
G06  24266260.615    24266259.362    24266264.291                    -3675123.343 8  -3675123.336 6                  -2863733.139 7       115.000          42.000          89.000                  
G11  23062559.054    23062558.957    23062560.396                    -9996790.364 8  -9996790.365 7                  -7789705.073 8       259.000          92.000         159.000                  
G12  21673179.193    21673178.546    21673178.935                   -17608101.805 8 -17608101.806 9                 -13720595.003 9       458.000         501.000         742.000                  
G13  20062843.140    20062842.359    20062843.090                   -21236767.531 9 -21236767.531 8                 -16548126.811 8       755.000         329.000         366.000                  
G15  19369333.602    19369333.385    19369334.166                   -28078304.958 9 -28078304.961 9                 -21879190.967 9       839.000        1583.000        2719.000                  
G19  23230983.328    23230981.208    23230981.828                    -6051573.090 8  -6051573.096 6                  -4715509.750 8       197.000          34.000         128.000                  
G23  24548028.381    24548027.477    24548029.238                    -1741513.228 7  -1741513.244 6                  -1357018.215 6        72.000          19.000          21.000                  
G24  22121023.743    22121023.433    22121027.017                    -9607861.381 8  -9607861.380 8                  -7486644.774 9       332.000         267.000        1466.000                  
G25  23072210.652    23072209.805    23072213.858                    -5912992.968 8  -5912992.969 7                  -4607522.350 8       186.000          91.000         291.000                  
G29  23305796.941    23305796.448    23305796.969                    -8490753.971 8  -8490753.970 8                  -6616173.124 8       222.000         117.000         286.000                  
> 2024 10 31 10 00 10.0000000  0 11
G05  23676360.058    23676359.632    23676359.556                    -1570513.865 8  -1570513.867 6                  -1223777.782 7       141.000          50.000          66.000                  
G06  24261183.052    24261182.895    24261187.627                    -3701800.091 8  -3701800.083 6                  -2884520.226 7       114.000          46.000          89.000                  
G11  23012638.392    23012638.084    23012639.828                   -10259124.994 8 -10259124.987 7                  -7994121.623 8       264.000          95.000         161.000                  
G12  21724834.939    21724834.676    21724835.129                   -17336647.508 8 -17336647.508 8                 -13509072.202 9       438.000         453.000         717.000                  
G13  20028140.884    20028140.436    20028141.126                   -21419127.519 9 -21419127.520 8                 -16690225.477 8       775.000         355.000         367.000                  
G15  19360208.704    19360208.616    19360209.448                   -28126255.838 9 -28126255.841 9                 -21916555.287 9       838.000        1580.000        2764.000                  
G19  23285391.874    23285390.256    23285391.194                    -5765651.434 8  -5765651.442 6                  -4492713.722 8       191.000          40.000         122.000                  
G23  24561896.704    24561895.080    24561898.421                    -1668634.567 7  -1668634.587 6                  -1300229.697 6        74.000          21.000          22.000                  
G24  22176261.994    22176261.974    22176265.553                    -9317581.313 8  -9317581.312 8                  -7260452.564 9       327.000         262.000        1406.000                  
G25  23092643.719    23092642.726    23092646.869                    -5805617.876 8  -5805617.874 7                  -4523853.468 8       185.000          92.000         277.000                  
G29  23244501.219    23244500.175    23244500.749                    -8812867.789 8  -8812867.793 8                  -6867170.835 8       224.000         116.000         309.000                  
> 2024 10 31 10 00 20.0000000  0 11
G05  23609957.909    23609957.478    23609957.955                    -1919458.767 8  -1919458.762 7                  -1495682.868 7       151.000          58.000          75.000                  
G06  24256683.804    24256682.986    24256687.819                    -3725445.812 8  -3725445.806 6                  -2902945.468 7       115.000          43.000          77.000                  
G11  22963311.508    22963311.513    22963312.952                   -10518337.895 8 -10518337.886 7                  -8196105.656 8       265.000          82.000         174.000                  
G12  21777215.533    21777215.122    21777215.443                   -17061386.634 8 -17061386.636 8                 -13294583.240 9       426.000         438.000         674.000                  
G13  19994036.579    19994036.145    19994036.694                   -21598347.345 9 -21598347.347 8                 -16829877.270 8       801.000         382.000         368.000                  
G15  19351835.412    19351835.155    19351835.969                   -28170258.817 9 -28170258.820 9                 -21950843.322 9       842.000        1598.000        2821.000                  
G19  23340256.084    23340254.254    23340254.463                    -5477341.352 8  -5477341.351 6                  -4268056.560 8       192.000          36.000         110.000                  
G23  24575888.009    24575886.411    24575889.941                    -1595109.128 7  -1595109.145 6                  -1242937.098 6        73.000          22.000          20.000                  
G24  22231919.897    22231919.812    22231923.293                    -9025097.894 8  -9025097.895 8                  -7032543.451 9       320.000         251.000        1344.000                  
G25  23113735.111    23113733.632    23113737.680                    -5694784.500 8  -5694784.499 7                  -4437489.819 8       180.000          82.000         276.000                  
G29  23183640.707    23183640.027    23183640.482                    -9132690.409 8  -9132690.415 8                  -7116383.170 8       231.000         120.000         329.000                  
> 2024 10 31 10 00 30.0000000  0 11
G05  23543716.323    23543716.240    23543716.869                    -2267559.274 8  -2267559.273 7                  -1766929.968 7       159.000          66.000          82.000                  
G06  24252754.526    24252753.053    24252757.531                    -3746097.476 8  -3746097.463 6                  -2919037.689 7       113.000          37.000          80.000                  
G11  22914582.167    22914581.453    22914582.563                   -10774417.396 8 -10774417.398 7                  -8395648.085 8       264.000          92.000         184.000                  
G12  21830302.719    21830302.315    21830302.597                   -16782411.755 8 -16782411.756 8                 -13077200.253 9       411.000         412.000         630.000                  
G13  19960528.403    19960527.919    19960528.283                   -21774434.041 9 -21774434.041 8                 -16967087.667 8       799.000         380.000         371.000                  
G15  19344208.164    19344207.946    19344208.833                   -28210340.064 9 -28210340.066 9                 -21982075.470 9       848.000        1611.000        2900.000                  
G19  23395556.456    23395553.928    23395554.726                    -5186737.153 8  -5186737.149 6                  -4041611.790 8       188.000          33.000         103.000                  
G23  24589995.433    24589993.717    24589997.112                    -1520976.174 7  -1520976.169 6                  -1185171.237 6        74.000          21.000          19.000                  
G24  22287982.217    22287981.872    22287985.199                    -8730490.746 8  -8730490.747 8                  -6802979.487 9       315.000         245.000        1256.000                  
G25  23135474.591    23135473.099    23135477.185                    -5580543.593 8  -5580543.588 7                  -4348470.949 8       180.000          83.000         273.000                  
G29  23123221.733    23123221.101    23123221.587                    -9450193.518 8  -9450193.517 8                  -7363788.132 8       236.000         122.000         352.000                  
> 2024 10 31 10 00 40.0000000  0 11
G05  23477649.866    23477649.885    23477649.971                    -2614740.921 8  -2614740.920 7                  -2037461.077 7       164.000          64.000          94.000                  
G06  24249399.629    24249398.543    24249403.668                    -3763724.496 8  -3763724.480 6                  -2932773.042 7       117.000          43.000          82.000                  
G11  22866462.337    22866462.242    22866463.700                   -11027283.989 8 -11027283.988 7                  -8592686.943 8       270.000          94.000         181.000                  
G12  21884091.925    21884091.712    21884091.787                   -16499747.729 8 -16499747.731 8                 -12856942.607 9       400.000         384.000         597.000                  
G13  19927627.987    19927627.585    19927628.017                   -21947326.824 9 -21947326.823 8                 -17101809.294 8       780.000         351.000         381.000                  
G15  19337334.924    19337334.863    19337335.787                   -28246458.155 9 -28246458.157 9                 -22010219.429 9       846.000        1609.000        2933.000                  
G19  23451287.494    23451285.582    23451286.178                    -4893864.782 8  -4893864.791 6                  -3813399.622 7       181.000          36.000          95.000                  
G23  24604224.748    24604222.288    24604225.389                    -1446206.804 7  -1446206.792 6                  -1126909.350 6        76.000          21.000          20.000                  
G24  22344445.843    22344445.535    22344449.064                    -8433771.148 8  -8433771.149 8                  -6571769.458 9       308.000         226.000        1146.000                  
G25  23157864.741    23157863.922    23157867.946                    -5462878.468 8  -5462878.466 7                  -4256783.860 8       175.000          81.000         274.000                  
G29  23063262.115    23063261.666    23063262.478                    -9765280.390 8  -9765280.390 8                  -7609310.321 8       237.000         124.000         364.000                  
> 2024 10 31 10 00 50.0000000  0 11
G05  23411760.186    23411760.412    23411761.005                    -2960991.857 8  -2960991.856 7                  -2307266.957 8       164.000          74.000         109.000                  
G06  24246614.573    24246613.490    24246618.397                    -3778359.605 8  -3778359.609 6                  -2944177.028 7       117.000          47.000          76.000                  
G11  22818958.128    22818957.925    22818959.501                   -11276921.140 8 -11276921.130 7                  -8787209.354 8       269.000          94.000         203.000                  
G12  21938566.202    21938566.181    21938566.367                   -16213482.467 8 -16213482.470 8                 -12633878.807 9       385.000         356.000         606.000                  
G13  19895334.854    19895334.336    19895334.940                   -22117027.661 9 -22117027.661 8                 -17234043.688 8       753.000         337.000         416.000                  
G15  19331211.965    19331211.775    19331212.664                   -28278635.303 9 -28278635.307 9                 -22035292.520 9       855.000        1637.000        3008.000                  
G19  23507434.157    23507432.235    23507432.671                    -4598812.844 8  -4598812.849 6                  -3583489.106 7       175.000          35.000          88.000                  
G23  24618566.800    24618565.047    24618568.498                    -1370834.677 7  -1370834.682 6                  -1068179.850 6        79.000          21.000          19.000                  
G24  22401297.795    22401297.438    22401300.913                    -8135012.994 8  -8135012.994 8                  -6338970.949 9       308.000         233.000        1075.000                  
G25  23180898.920    23180897.377    23180901.693                    -5341835.732 8  -5341835.729 7                  -4162464.860 8       173.000          76.000         277.000                  
G29  23003769.463    23003769.154    23003769.892                   -10077916.411 8 -10077916.411 8                  -7852922.765 8       236.000         124.000         402.000                  
> 2024 10 31 10 01  0.0000000  0 12
G05  23346061.230    23346060.352    23346060.736                    -3306248.502 8  -3306248.504 7                  -2576298.064 8       166.000          70.000         107.000                  
G06  24244401.509    24244401.554    24244406.173                    -3789985.480 8  -3789985.487 6                  -2953236.163 7       118.000          48.000          82.000                  
G11  22772081.257    22772080.640    22772082.119                   -11523262.002 8 -11523262.001 7                  -8979163.229 8       277.000          93.000         200.000                  
G12  21993719.461    21993718.650    21993719.220                   -15923653.185 8 -15923653.187 8                 -12408037.847 9       367.000         322.000         603.000                  
G13  19863658.441    19863657.915    19863658.675                   -22283488.409 9 -22283488.409 8                 -17363753.341 8       740.000         328.000         456.000                  
G15  19325844.177    19325843.934    19325844.816                   -28306843.406 9 -28306843.408 9                 -22057272.846 9       861.000        1668.000        3021.000                  
G19  23563988.207    23563986.438    23563987.049                    -4301619.093 8  -4301619.099 6                  -3351909.630 7       170.000          35.000          79.000                  
G20  24659710.630    24659699.297    24659710.662                     -366459.365 7   -366459.335 6                   -285555.009 6        83.000          21.000          19.000                  
G23  24633027.556    24633026.378    24633028.666                    -1294842.738 7  -1294842.764 6                  -1008965.426 6        81.000          18.000          21.000                  
G24  22458533.172    22458532.858    22458536.159                    -7834239.334 8  -7834239.338 8                  -6104601.919 9       306.000         239.000        1005.000                  
G25  23204575.976    23204574.753    23204578.809                    -5217412.016 8  -5217412.016 7                  -4065511.334 8       172.000          74.000         271.000                  
G29  22944760.037    22944758.716    22944759.796                   -10388016.442 8 -10388016.445 8                  -8094559.107 8       234.000         127.000         439.000                  
> 2024 10 31 10 01 10.0000000  0 12
G05  23280557.904    23280557.545    23280558.098                    -3650466.463 8  -3650466.466 7                  -2844519.807 8       168.000          69.000         114.000                  
G06  24242762.804    24242761.274    24242766.305                    -3798604.389 8  -3798604.393 6                  -2959952.200 7       123.000          48.000          84.000                  
G11  22725840.434    22725839.887    22725841.183                   -11766259.020 8 -11766259.016 7                  -9168511.508 8       272.000          96.000         214.000                  
G12  22049539.436    22049538.729    22049539.489                   -15630316.521 8 -15630316.525 8                 -12179463.869 9       346.000         288.000         608.000                  
G13  19832604.047    19832603.505    19832604.253                   -22446680.354 9 -22446680.353 8                 -17490915.870 8       738.000         325.000         491.000                  
G15  19321233.056    19321232.970    19321233.813                   -28331074.270 9 -28331074.272 9                 -22076154.031 9       868.000        1695.000        3044.000                  
G19  23620939.806    23620937.623    23620938.097                    -4002340.275 8  -4002340.269 6                  -3118705.413 7       169.000          35.000          76.000                  
G20  24594584.392    24594574.752    24594584.795                     -708700.733 7   -708700.691 6                   -552236.317 6        88.000          25.000          25.000                  
G23  24647606.482    24647606.100    24647607.453                    -1218232.814 7  -1218232.788 6                   -949269.433 6        86.000          22.000          20.000                  
G24  22516144.061    22516144.113    22516147.166                    -7531492.110 8  -7531492.111 8                  -5868695.049 9       307.000         233.000         939.000                  
G25  23228893.080    23228891.951    23228896.166                    -5089623.569 8  -5089623.570 7                  -3965935.934 8       174.000          77.000         282.000                  
G29  22886244.459    22886243.983    22886245.053                   -10695514.171 8 -10695514.174 8                  -8334167.693 8       234.000         121.000         470.000                  
> 2024 10 31 10 01 20.0000000  0 12
G05  23215257.707    23215256.970    23215257.489                    -3993622.339 8  -3993622.340 7                  -3111913.939 8       170.000          69.000         115.000                  
G06  24241690.190    24241688.928    24241693.716                    -3804240.793 8  -3804240.795 6                  -2964344.218 7       123.000          48.000          83.000                  
G11  22680240.828    22680240.061    22680241.795                   -12005886.638 8 -12005886.635 7                  -9355234.283 8       270.000          98.000         231.000                  
G12  22106011.724    22106011.290    22106012.042                   -15333550.993 8 -15333550.995 8                 -11948218.045 9       330.000         269.000         609.000                  
G13  19802172.863    19802172.440    19802173.278                   -22606596.585 9 -22606596.584 8                 -17615525.897 9       746.000         329.000         531.000                  
G15  19317376.391    19317376.144    19317376.969                   -28351342.052 9 -28351342.056 9                 -22091947.111 9       885.000        1744.000        3053.000                  
G19  23678272.072    23678270.222    23678271.235                    -3701054.611 8  -3701054.605 6                  -2883937.441 7       164.000          37.000          80.000                  
G20  24529626.238    24529619.141    24529627.323                    -1050054.293 7  -1050054.294 6                   -818226.027 6        90.000          20.000          20.000                  
G23  24662298.273    24662297.506    24662298.100                    -1141028.270 7  -1141028.258 6                   -889110.063 6        85.000          28.000          20.000                  
G24  22574118.833    22574118.347    22574121.659                    -7226834.658 8  -7226834.656 8                  -5631299.697 9       302.000         224.000         870.000                  
G25  23253842.675    23253842.189    23253846.631                    -4958508.826 8  -4958508.830 7                  -3863768.624 8       174.000          77.000         284.000                  
G29  22828233.104    22828232.374    22828233.774                   -11000364.840 8 -11000364.839 8                  -8571713.636 9       234.000         120.000         520.000                  
> 2024 10 31 10 01 30.0000000  0 12
G05  23150173.043    23150172.591    23150173.470                    -4335642.385 8  -4335642.378 7                  -3378422.995 8       172.000          74.000         133.000                  
G06  24241189.792    24241189.310    24241193.604                    -3806869.272 8  -3806869.281 7                  -2966392.381 7       127.000          55.000          88.000                  
G11  22635296.802    22635296.323    22635297.838                   -12242069.231 8 -12242069.225 7                  -9539272.615 8       270.000          91.000         233.000                  
G12  22163131.655    22163131.095    22163131.876                   -15033384.852 8 -15033384.854 8                 -11714322.394 9       322.000         252.000         615.000                  
G13  19772375.868    19772375.562    19772376.302                   -22763180.265 9 -22763180.266 8                 -17737539.138 9       746.000         339.000         551.000                  
G15  19314280.515    19314280.267    19314281.051                   -28367611.114 9 -28367611.117 9                 -22104624.304 9       890.000        1783.000        3014.000                  
G19  23735982.173    23735979.366    23735980.072                    -3397789.514 8  -3397789.518 6                  -2647627.051 7       157.000          29.000          81.000                  
G20  24464850.599    24464845.446    24464849.533                    -1390449.944 7  -1390449.971 6                  -1083469.224 6        95.000          20.000          20.000                  
G23  24677106.795    24677106.915    24677107.676                    -1063201.942 7  -1063201.960 6                   -828466.209 6        88.000          26.000          23.000                  
G24  22632453.867    22632453.893    22632457.152                    -6920279.731 8  -6920279.730 8                  -5392425.784 9       290.000         204.000         807.000                  
G25  23279428.913    23279427.881    23279432.027                    -4824056.431 8  -4824056.442 7                  -3759000.539 8       174.000          67.000         285.000                  
G29  22770743.631    22770743.365    22770744.434                   -11302473.081 8 -11302473.081 8                  -8807122.614 9       241.000         130.000         556.000                  
> 2024 10 31 10 01 40.0000000  0 12
G05  23085307.800    23085307.048    23085307.285                    -4676513.922 8  -4676513.936 7                  -3644037.129 8       176.000          79.000         134.000                  
G06  24241254.550    24241254.000    24241259.043                    -3806526.644 8  -3806526.640 7                  -2966125.407 7       131.000          53.000          85.000                  
G11  22591010.123    22591010.286    22591011.727                   -12474793.151 8 -12474793.145 7                  -9720615.878 8       264.000          91.000         236.000                  
G12  22220881.195    22220880.733    22220881.735                   -14729907.876 8 -14729907.876 8                 -11477846.865 9       312.000         231.000         618.000                  
G13  19743212.320    19743211.842    19743212.642                   -22916436.368 9 -22916436.367 8                 -17856959.462 9       768.000         361.000         571.000                  
G15  19311940.397    19311940.161    19311941.024                   -28379908.127 9 -28379908.130 9                 -22114206.392 9       894.000        1811.000        2976.000                  
G19  23794050.838    23794048.808    23794049.571                    -3092634.019 8  -3092634.023 6                  -2409843.606 7       156.000          32.000          79.000                  
G20  24400261.276    24400255.787    24400258.980                    -1729878.885 7  -1729878.913 6                  -1347959.306 6        99.000          26.000          19.000                  
G23  24692029.691    24692029.002    24692029.885                     -984788.147 7   -984788.156 6                   -767364.544 6        89.000          19.000          22.000                  
G24  22691136.329    22691136.276    22691139.615                    -6611901.493 8  -6611901.493 8                  -5152131.101 9       276.000         189.000         738.000                  
G25  23305640.026    23305638.923    23305643.190                    -4686317.225 8  -4686317.217 7                  -3651671.309 8       176.000          83.000         280.000                  
G29  22713782.997    22713782.399    22713783.537                   -11601804.890 8 -11601804.887 8                  -9040368.124 9       243.000         138.000         571.000                  
> 2024 10 31 10 01 50.0000000  0 12
G05  23020670.699    23020670.420    23020670.763                    -5016182.085 8  -5016182.086 7                  -3908713.577 8       182.000          88.000         143.000                  
G06  24241886.711    24241885.793    24241890.771                    -3803208.466 8  -3803208.468 7                  -2963539.823 7       133.000          59.000          89.000                  
G11  22547393.119    22547392.805    22547394.224                   -12704003.399 8 -12704003.402 7                  -9899221.223 8       257.000          77.000         245.000                  
G12  22279252.075    22279251.516    22279252.390                   -14423168.300 8 -14423168.302 8                 -11238829.052 9       307.000         219.000         624.000                  
G13  19714688.772    19714688.291    19714689.170                   -23066328.497 9 -23066328.496 8                 -17973758.507 9       779.000         358.000         607.000                  
G15  19310358.941    19310358.837    19310359.495                   -28388218.781 9 -28388218.784 9                 -22120682.217 9       906.000        1853.000        3016.000                  
G19  23852470.339    23852468.664    23852470.193                    -2785635.172 8  -2785635.170 6                  -2170623.813 7       151.000          26.000          71.000                  
G20  24335861.363    24335858.929    24335861.504                    -2068290.246 8  -2068290.251 6                  -1611656.426 6       104.000          21.000          22.000                  
G23  24707063.622    24707063.521    24707065.023                     -905779.325 7   -905779.310 6                   -705799.201 6        93.000          25.000          22.000                  
G24  22750159.858    22750159.342    22750162.958                    -6301732.166 8  -6301732.165 8                  -4910440.773 9       266.000         178.000         684.000                  
G25  23332474.669    23332473.258    23332477.582                    -4545300.806 8  -4545300.803 7                  -3541788.398 8       176.000          73.000         274.000                  
G29  22657364.743    22657364.123    22657365.082                   -11898284.735 8 -11898284.738 8                  -9271391.341 9       254.000         148.000         600.000                  
> 2024 10 31 10 02  0.0000000  0 12
G05  22956274.805    22956274.487    22956274.875                    -5354585.049 8  -5354585.044 7                  -4172404.169 8       192.000          83.000         160.000                  
G06  24243085.334    24243085.808    24243090.051                    -3796904.011 8  -3796904.028 7                  -2958627.258 7       131.000          53.000          93.000                  
G11  22504456.623    22504455.899    22504457.428                   -12929638.486 8 -12929638.479 7                 -10075040.722 8       247.000          82.000         246.000                  
G12  22338235.651    22338235.191    22338236.080                   -14113207.542 8 -14113207.541 8                 -10997301.221 9       308.000         233.000         590.000                  
G13  19686813.612    19686813.072    19686813.796                   -23212813.841 9 -23212813.842 8                 -18087902.905 9       792.000         380.000         618.000                  
G15  19309540.149    19309539.897    19309540.560                   -28392522.471 9 -28392522.474 9                 -22124035.742 9       916.000        1902.000        2976.000                  
G19  23911234.101    23911231.886    23911232.722                    -2476832.860 8  -2476832.872 6                  -1929998.709 7       145.000          31.000          69.000                  
G20  24271670.304    24271667.362    24271668.179                    -2405626.254 8  -2405626.249 6                  -1874515.526 6       109.000          24.000          22.000                  
G23  24722214.829    24722215.057    24722216.830                     -826160.928 7   -826160.960 6                   -643758.962 6        91.000          20.000          17.000                  
G24  22809519.237    22809518.857    22809522.392                    -5989796.829 8  -5989796.832 8                  -4667374.327 9       267.000         170.000         626.000                  
G25  23359931.948    23359931.097    23359935.074                    -4401010.481 8  -4401010.477 7                  -3429354.404 8       179.000          77.000         266.000                  
G29  22601504.825    22601504.508    22601505.246                   -12191829.912 8 -12191829.914 8                  -9500127.805 9       261.000         155.000         613.000                  
> 2024 10 31 10 02 10.0000000  0 12
G05  22892122.067    22892122.070    22892122.411                    -5691708.690 8  -5691708.687 7                  -4435097.851 8       198.000          90.000         170.000                  
G06  24244846.121    24244845.981    24244850.709                    -3787651.919 8  -3787651.932 7                  -2951417.824 7       128.000          51.000          92.000                  
G11  22462202.098    22462201.109    22462203.087                   -13151686.196 8 -13151686.195 7                 -10248064.860 8       246.000          82.000         255.000                  
G12  22397815.049    22397814.691    22397815.392                   -13800115.997 8 -13800116.000 8                 -10753333.821 9       311.000         233.000         552.000                  
G13  19659585.551    19659584.961    19659585.547                   -23355898.699 9 -23355898.702 8                 -18199397.572 9       827.000         415.000         611.000                  
G15  19309477.990    19309477.779    19309478.559                   -28392848.231 9 -28392848.234 9                 -22124289.574 9       915.000        1875.000        2962.000                  
G19  23970323.903    23970320.684    23970322.749                    -2166315.545 8  -2166315.531 6                  -1688037.266 7       139.000          30.000          70.000                  
G20  24207683.070    24207681.084    24207684.130                    -2741877.421 8  -2741877.434 6                  -2136529.320 6       116.000          25.000          23.000                  
G23  24737475.846    24737474.948    24737476.908                     -745967.146 7   -745967.178 6                   -581270.271 6        91.000          25.000          22.000                  
G24  22869200.662    22869200.271    22869203.867                    -5676169.128 8  -5676169.129 8                  -4422989.149 9       266.000         182.000         582.000                  
G25  23388002.264    23388001.312    23388005.483                    -4253498.939 8  -4253498.933 7                  -3314410.365 8       181.000          84.000         263.000                  
G29  22546210.305    22546209.487    22546210.286                   -12482406.454 8 -12482406.459 8                  -9726551.033 9       270.000         162.000         643.000                  
> 2024 10 31 10 02 20.0000000  0 12
G05  22828227.269    22828226.858    22828227.149                    -6027479.481 8  -6027479.476 7                  -4696737.380 8       202.000          98.000         183.000                  
G06  24247172.204    24247171.782    24247175.858                    -3775431.799 8  -3775431.791 7                  -2941895.646 7       126.000          53.000          89.000                  
G11  22420644.248    22420643.151    22420645.199                   -13370075.171 8 -13370075.170 7                 -10418238.042 8       244.000          77.000         251.000                  
G12  22457983.764    22457983.817    22457984.644                   -13483924.432 8 -13483924.432 8                 -10506950.816 9       305.000         227.000         511.000                  
G13  19633014.509    19633014.018    19633014.509                   -23495530.202 9 -23495530.200 8                 -18308201.311 9       850.000         430.000         625.000                  
G15  19310178.631    19310178.519    19310179.291                   -28389166.229 9 -28389166.232 9                 -22121420.484 9       917.000        1898.000        3015.000                  
G19  24029734.643    24029731.667    24029732.686                    -1854111.851 8  -1854111.842 6                  -1444761.748 7       136.000          33.000          66.000                  
G20  24143916.557    24143913.822    24143915.575                    -3076974.487 8  -3076974.491 6                  -2397643.801 6       118.000          22.000          20.000                  
G23  24752849.458    24752849.586    24752851.584                     -665172.430 7   -665172.433 6                   -518313.452 6        91.000          25.000          20.000                  
G24  22929201.620    22929201.304    22929204.509                    -5360862.992 8  -5360862.995 8                  -4177296.097 9       264.000         166.000         540.000                  
G25  23416687.025    23416686.269    23416690.392                    -4102759.783 8  -4102759.778 7                  -3196951.301 8       178.000          85.000         253.000                  
G29  22491497.771    22491497.564    22491498.178                   -12769920.872 8 -12769920.873 8                  -9950588.189 9       275.000         171.000         672.000                  
> 2024 10 31 10 02 30.0000000  0 12
G05  22764593.558    22764593.421    22764594.039                    -6361874.366 8  -6361874.367 7                  -4957304.772 8       202.000          96.000         185.000                  
G06  24250056.660    24250055.691    24250060.045                    -3760274.482 8  -3760274.481 7                  -2930084.749 7       130.000          58.000          92.000                  
G11  22379786.036    22379785.043    22379787.168                   -13584785.232 8 -13584785.230 7                 -10585544.538 8       247.000          81.000         262.000                  
G12  22518727.822    22518727.643    22518728.282                   -13164714.339 8 -13164714.342 8                 -10258215.714 8       307.000         229.000         472.000                  
G13  19607100.933    19607100.503    19607101.101                   -23631706.603 9 -23631706.604 8                 -18414312.763 9       859.000         428.000         622.000                  
G15  19311637.946    19311637.703    19311638.585                   -28381497.873 9 -28381497.876 9                 -22115445.132 9       913.000        1888.000        2998.000                  
G19  24089450.369    24089448.619    24089449.203                    -1540300.899 8  -1540300.905 6                  -1200233.819 7       133.000          28.000          64.000                  
G20  24080372.113    24080370.895    24080372.759                    -3410898.812 8  -3410898.825 6                  -2657844.519 6       124.000          24.000          23.000                  
G23  24768333.494    24768333.843    24768334.854                     -583801.823 7   -583801.826 6                   -454907.792 6        91.000          23.000          20.000                  
G24  22989509.249    22989509.229    22989512.504                    -5043942.730 8  -5043942.731 8                  -3930345.284 8       252.000         162.000         500.000                  
G25  23445977.440    23445976.704    23445980.748                    -3948837.883 8  -3948837.889 7                  -3077012.185 8       174.000          76.000         237.000                  
G29  22437376.585    22437375.833    22437376.969                   -13054330.508 8 -13054330.510 8                 -10172206.055 9       284.000         184.000         697.000                  
> 2024 10 31 10 02 40.0000000  0 12
G05  22701232.110    22701231.674    22701232.129                    -6694841.999 8  -6694841.994 8                  -5216760.020 8       202.000         109.000         195.000                  
G06  24253498.860    24253498.293    24253502.706                    -3742183.458 8  -3742183.468 7                  -2915987.831 7       123.000          53.000          87.000                  
G11  22339636.413    22339636.611    22339638.115                   -13795768.763 8 -13795768.758 7                 -10749947.240 8       249.000          81.000         267.000                  
G12  22580035.754    22580035.558    22580036.125                   -12842539.328 8 -12842539.328 8                 -10007170.286 8       307.000         227.000         439.000                  
G13  19581850.598    19581849.979    19581850.561                   -23764398.626 9 -23764398.626 8                 -18517709.112 9       853.000         432.000         622.000                  
G15  19313856.809    19313856.648    19313857.473                   -28369837.370 9 -28369837.373 9                 -22106359.018 9       901.000        1837.000        3010.000                  
G19  24149461.141    24149460.593    24149461.933                    -1224933.479 8  -1224933.489 6                   -954493.018 7       127.000          27.000          59.000                  
G20  24017060.242    24017058.446    24017060.770                    -3743603.316 8  -3743603.297 6                  -2917094.674 6       131.000          28.000          25.000                  
G23  24783928.442    24783927.853    24783928.661                     -501852.331 7   -501852.328 6                   -391051.101 6        88.000          24.000          20.000                  
G24  23050117.772    23050117.531    23050120.700                    -4725444.504 8  -4725444.500 8                  -3682164.899 8       243.000         139.000         461.000                  
G25  23475870.317    23475869.450    23475873.331                    -3791750.628 8  -3791750.620 7                  -2954606.556 8       172.000          75.000         232.000                  
G29  22383859.896    22383859.011    22383859.730                   -13335564.519 8 -13335564.515 8                 -10391349.372 9       292.000         201.000         733.000                  
> 2024 10 31 10 02 50.0000000  0 12
G05  22638153.253    22638152.902    22638153.591                    -7026323.850 8  -7026323.850 7                  -5475057.535 8       206.000          98.000         199.000                  
G06  24257499.705    24257499.871    24257504.333                    -3721155.981 8  -3721155.990 6                  -2899602.768 7       117.000          46.000          91.000                  
G11  22300207.056    22300206.855    22300208.613                   -14002971.972 8 -14002971.962 7                 -10911404.237 8       249.000          75.000         266.000                  
G12  22641899.252    22641898.908    22641899.399                   -12517446.334 8 -12517446.335 8                  -9753851.107 8       303.000         219.000         393.000                  
G13  19557269.629    19557269.210    19557269.783                   -23893570.840 9 -23893570.841 8                 -18618362.758 9       853.000         431.000         600.000                  
G15  19316837.647    19316837.421    19316838.290                   -28354172.998 9 -28354173.001 9                 -22094153.015 9       894.000        1804.000        2981.000                  
G19  24209763.346    24209760.666    24209761.649                     -908053.576 8   -908053.590 6                   -707573.711 7       121.000          22.000          54.000                  
G20  23953991.666    23953989.402    23953991.104                    -4075034.278 8  -4075034.264 6                  -3175352.502 6       135.000          26.000          34.000                  
G23  24799635.360    24799635.190    24799636.248                     -419314.143 7   -419314.143 6                   -326735.635 6        91.000          17.000          19.000                  
G24  23111020.667    23111020.404    23111023.696                    -4405397.481 8  -4405397.481 8                  -3432777.663 8       227.000         122.000         435.000                  
G25  23506362.721    23506362.022    23506366.421                    -3631509.295 8  -3631509.292 7                  -2829743.203 8       169.000          72.000         228.000                  
G29  22330961.094    22330960.796    22330961.573                   -13613545.744 8 -13613545.748 8                 -10607958.080 9       291.000         190.000         761.000                  
> 2024 10 31 10 03  0.0000000  0 12
G05  22575360.960    22575360.497    22575360.596                    -7356300.581 8  -7356300.579 8                  -5732182.206 8       208.000         116.000         208.000                  
G06  24262054.461    24262052.844    24262057.832                    -3697229.501 8  -3697229.489 6                  -2880958.748 7       117.000          49.000          93.000                  
G11  22261500.124    22261499.220    22261500.967                   -14206381.166 8 -14206381.164 7                 -11069904.861 8       244.000          75.000         259.000                  
G12  22704300.963    22704300.620    22704301.218                   -12189521.784 8 -12189521.786 8                  -9498325.519 8       290.000         201.000         361.000                  
G13  19533357.986    19533357.528    19533358.106                   -24019227.758 9 -24019227.758 8                 -18716277.218 9       850.000         428.000         598.000                  
G15  19320574.920    19320574.699    19320575.634                   -28334533.340 9 -28334533.343 9                 -22078849.386 9       878.000        1750.000        2980.000                  
G19  24270334.356    24270333.140    24270334.038                     -589744.349 8   -589744.347 6                   -459540.641 6       120.000          21.000          47.000                  
G20  23891167.614    23891164.938    23891168.287                    -4405177.181 8  -4405177.174 6                  -3432606.638 6       143.000          26.000          34.000                  
G23  24815448.694    24815447.912    24815449.844                     -336216.909 7   -336216.921 6                   -261984.526 6        89.000          19.000          20.000                  
G24  23172205.754    23172204.779    23172208.416                    -4083870.210 8  -4083870.212 8                  -3182236.994 8       216.000         115.000         397.000                  
G25  23537446.929    23537445.562    23537449.553                    -3468165.144 8  -3468165.151 7                  -2702462.072 8       163.000          62.000         218.000                  
G29  22278689.284    22278688.736    22278689.725                   -13888236.334 8 -13888236.331 8                 -10822002.635 9       291.000         192.000         774.000                  
> 2024 10 31 10 03 10.0000000  0 12
G05  22512868.962    22512868.598    22512868.992                    -7684696.598 8  -7684696.600 8                  -5988075.150 8       213.000         109.000         208.000                  
G06  24267162.217    24267160.545    24267165.708                    -3670385.488 8  -3670385.488 6                  -2860041.324 7       115.000          44.000          98.000                  
G11  22223527.499    22223527.342    22223528.711                   -14405926.764 8 -14405926.763 7                 -11225394.889 8       251.000          84.000         258.000                  
G12  22767236.355    22767235.858    22767236.236                   -11858795.410 8 -11858795.408 8                  -9240616.693 8       276.000         181.000         325.000                  
G13  19510124.876    19510124.464    19510125.015                   -24141317.886 9 -24141317.886 8                 -18811412.359 9       843.000         426.000         601.000                  
G15  19325073.920    19325073.650    19325074.539                   -28310891.269 9 -28310891.272 9                 -22060427.002 9       869.000        1699.000        2944.000                  
G19  24331174.617    24331171.961    24331172.973                     -270032.159 8   -270032.141 6                   -210414.337 6       120.000          26.000          49.000                  
G20  23828601.577    23828599.847    23828601.957                    -4733960.830 8  -4733960.831 6                  -3688801.631 6       154.000          30.000          30.000                  
G23  24831373.364    24831372.108    24831373.340                     -252533.726 7   -252533.723 6                   -196776.897 6        90.000          20.000          20.000                  
G24  23233669.617    23233668.844    23233672.658                    -3760874.455 8  -3760874.460 8                  -2930552.047 8       209.000         113.000         367.000                  
G25  23569120.796    23569120.358    23569124.372                    -3301713.523 8  -3301713.534 7                  -2572759.538 8       157.000          62.000         213.000                  
G29  22227061.266    22227060.778    22227061.920                   -14159542.339 8 -14159542.341 8                 -11033409.887 9       289.000         189.000         796.000                  
> 2024 10 31 10 03 20.0000000  0 12
G05  22450682.403    22450682.184    22450682.304                    -8011488.428 8  -8011488.428 8                  -6242718.089 8       224.000         117.000         214.000                  
G06  24272818.062    24272817.567    24272822.052                    -3640658.848 8  -3640658.842 6                  -2836877.706 8       110.000          45.000         105.000                  
G11  22186293.953    22186293.139    22186294.654                   -14601592.667 8 -14601592.666 7                 -11377861.782 8       264.000          85.000         261.000                  
G12  22830688.877    22830688.232    22830688.839                   -11525350.051 8 -11525350.051 8                  -8980789.183 8       261.000         162.000         303.000                  
G13  19487570.346    19487569.850    19487570.513                   -24259843.246 9 -24259843.245 8                 -18903769.763 9       850.000         419.000         636.000                  
G15  19330329.487    19330329.205    19330330.092                   -28283273.127 9 -28283273.130 9                 -22038906.371 9       859.000        1651.000        2860.000                  
G19  24392266.362    24392263.897    24392265.014                       51004.003 8     51003.995 6                     39743.618 6       123.000          33.000          43.000                  
G20  23766297.666    23766296.732    23766299.084                    -5061366.716 8  -5061366.730 6                  -3943923.022 6       158.000          25.000          31.000                  
G23  24847404.331    24847403.311    24847403.920                     -168290.439 7   -168290.432 6                   -131132.803 6        89.000          22.000          23.000                  
G24  23295400.585    23295400.393    23295404.057                    -3436474.632 8  -3436474.632 8                  -2677773.026 8       203.000         103.000         358.000                  
G25  23601377.275    23601377.142    23601381.134                    -3132203.141 8  -3132203.141 7                  -2440673.554 8       148.000          54.000         218.000                  
G29  22176085.299    22176084.935    22176085.879                   -14427422.851 8 -14427422.851 8                 -11242147.930 9       290.000         188.000         810.000                  
> 2024 10 31 10 03 30.0000000  0 12
G05  22388811.092    22388811.125    22388810.822                    -8336623.355 8  -8336623.353 8                  -6496069.928 8       233.000         140.000         229.000                  
G06  24279022.463    24279021.604    24279026.162                    -3608056.013 8  -3608056.002 6                  -2811472.893 8       109.000          41.000         102.000                  
G11  22149806.360    22149806.006    22149807.365                   -14793334.373 8 -14793334.370 7                 -11527270.857 8       276.000          94.000         253.000                  
G12  22894648.719    22894648.171    22894648.752                   -11189239.056 8 -11189239.057 8                  -8718884.547 8       255.000         154.000         294.000                  
G13  19465699.142    19465698.789    19465699.240                   -24374777.008 9 -24374777.008 8                 -18993328.522 9       850.000         423.000         653.000                  
G15  19336342.193    19336341.790    19336342.631                   -28251676.918 9 -28251676.921 9                 -22014285.958 9       848.000        1616.000        2748.000                  
G19  24453599.197    24453598.828    24453598.247                      373314.325 8    373314.312 6                    290894.432 6       116.000          27.000          35.000                  
G20  23704266.716    23704265.060    23704265.981                    -5387347.073 8  -5387347.068 6                  -4197933.599 6       160.000          32.000          31.000                  
G23  24863541.400    24863540.745    24863542.279                      -83483.831 7    -83483.831 6                    -65049.815 6        86.000          24.000          23.000                  
G24  23357392.220    23357392.320    23357395.833                    -3110705.857 8  -3110705.858 7                  -2423927.268 8       194.000         100.000         315.000                  
G25  23634212.842    23634212.039    23634215.946                    -2959654.126 8  -2959654.127 7                  -2306219.800 8       148.000          51.000         215.000                  
G29  22125774.395    22125774.227    22125774.984                   -14691807.866 8 -14691807.866 8                 -11448162.226 9       289.000         195.000         801.000                  
> 2024 10 31 10 03 40.0000000  0 12
G05  22327266.781    22327266.338    22327266.471                    -8660042.947 8  -8660042.947 8                  -6748085.137 8       248.000         147.000         237.000                  
G06  24285772.876    24285772.901    24285777.914                    -3572578.387 8  -3572578.400 6                  -2783827.972 7       104.000          42.000          97.000                  
G11  22114075.116    22114075.093    22114076.019                   -14981102.480 8 -14981102.480 8                 -11673583.619 8       283.000         104.000         257.000                  
G12  22959106.819    22959106.082    22959106.801                   -10850510.357 8 -10850510.361 8                  -8454940.149 8       245.000         149.000         306.000                  
G13  19444517.347    19444516.986    19444517.533                   -24486087.507 9 -24486087.507 8                 -19080063.949 9       848.000         430.000         693.000                  
G15  19343112.960    19343112.610    19343113.438                   -28216096.021 9 -28216096.023 9                 -21986560.584 9       842.000        1613.000        2676.000                  
G19  24515167.759    24515165.962    24515166.458                      696855.232 8    696855.217 6                    543004.180 6       115.000          31.000          41.000                  
G20  23642515.893    23642514.121    23642514.604                    -5711848.536 8  -5711848.554 6                  -4450791.834 6       167.000          29.000          35.000                  
G23  24879788.377    24879786.827    24879789.795                        1895.004 7      1895.019 6                      1476.062 6        87.000          22.000          16.000                  
G24  23419638.844    23419638.710    23419642.355                    -2783597.459 8  -2783597.467 7                  -2169037.647 8       192.000          88.000         290.000                  
G25  23667623.578    23667622.158    23667626.613                    -2784081.578 8  -2784081.579 6                  -2169410.050 8       138.000          48.000         215.000                  
G29  22076143.477    22076142.782    22076143.761                   -14952622.089 8 -14952622.092 8                 -11651394.055 9       297.000         206.000         841.000                  
> 2024 10 31 10 03 50.0000000  0 12
G05  22266052.693    22266051.850    22266051.992                    -8981726.318 8  -8981726.321 8                  -6998747.462 8       262.000         163.000         253.000                  
G06  24293064.415    24293063.543    24293067.986                    -3534265.908 8  -3534265.910 6                  -2753974.091 7       101.000          31.000          99.000                  
G11  22079101.934    22079102.183    22079103.345                   -15164886.257 8 -15164886.240 7                 -11816791.708 8       284.000          99.000         258.000                  
G12  23024046.469    23024045.710    23024046.648                   -10509249.811 8 -10509249.814 8                  -8189022.878 8       242.000         146.000         299.000                  
G13  19424023.922    19424023.542    19424024.097                   -24593781.621 9 -24593781.621 8                 -19163981.408 9       857.000         439.000         704.000                  
G15  19350635.716    19350635.608    19350636.406                   -28176562.257 9 -28176562.260 9                 -21955755.046 9       841.000        1602.000        2537.000                  
G19  24576954.126    24576952.004    24576953.112                     1021545.216 8   1021545.216 6                    796009.289 6       110.000          22.000          33.000                  
G20  23581049.922    23581047.510    23581050.297                    -6034855.513 8  -6034855.506 6                  -4702485.537 6       172.000          30.000          40.000                  
G23  24896140.957    24896138.557    24896141.606                       87817.011 7     87816.997 6                     68428.365 6        83.000          23.000          21.000                  
G24  23482127.472    23482127.715    23482131.480                    -2455216.514 8  -2455216.516 7                  -1913156.428 8       184.000          84.000         263.000                  
G25  23701598.742    23701598.108    23701602.145                    -2605539.018 8  -2605539.016 7                  -2030286.002 8       137.000          55.000         223.000                  
G29  22027198.658    22027198.034    22027198.815                   -15209828.717 8 -15209828.718 8                 -11851814.786 9       307.000         218.000         850.000                  
> 2024 10 31 10 04  0.0000000  0 12
G05  22205182.986    22205182.566    22205182.907                    -9301595.819 8  -9301595.822 8                  -7247996.380 8       271.000         181.000         287.000                  
G06  24300895.770    24300896.345    24300901.347                    -3493102.102 7  -3493102.104 6                  -2721898.381 7        99.000          39.000          97.000                  
G11  22044899.545    22044899.874    22044901.304                   -15344618.671 8 -15344618.670 8                 -11956842.896 8       290.000         111.000         261.000                  
G12  23089462.628    23089461.989    23089462.890                   -10165486.153 8 -10165486.158 8                  -7921155.129 8       241.000         145.000         302.000                  
G13  19404228.113    19404227.578    19404228.129                   -24697809.795 9 -24697809.794 8                 -19245042.292 9       867.000         449.000         746.000                  
G15  19358915.626    19358915.468    19358916.197                   -28133051.461 9 -28133051.464 9                 -21921850.529 9       844.000        1611.000        2448.000                  
G19  24638955.011    24638952.432    24638953.756                     1347360.035 8   1347360.067 6                   1049890.862 6       110.000          26.000          31.000                  
G20  23519882.082    23519879.818    23519881.398                    -6356295.220 8  -6356295.205 6                  -4952957.954 6       182.000          36.000          46.000                  
G23  24912597.964    24912597.825    24912599.876                      174310.228 7    174310.189 6                    135825.661 6        83.000          18.000          17.000                  
G24  23544857.262    23544856.842    23544860.460                    -2125572.870 8  -2125572.868 7                  -1656291.306 8       166.000          71.000         246.000                  
G25  23736140.325    23736139.001    23736143.490                    -2424023.455 8  -2424023.468 6                  -1888845.333 8       134.000          50.000         227.000                  
G29  21978958.240    21978957.673    21978958.367                   -15463333.877 8 -15463333.881 8                 -12049351.227 9       324.000         231.000         845.000                  
> 2024 10 31 10 04 10.0000000  0 12
G05  22144663.274    22144663.196    22144663.503                    -9619628.019 8  -9619628.017 8                  -7495813.627 8       284.000         193.000         317.000                  
G06  24309264.870    24309265.077    24309269.751                    -3449125.898 7  -3449125.884 6                  -2687631.208 7        97.000          34.000          95.000                  
G11  22011471.312    22011470.969    22011472.333                   -15520288.334 8 -15520288.335 8                 -12093728.299 8       300.000         115.000         268.000                  
G12  23155339.181    23155338.464    23155339.407                    -9819302.889 8  -9819302.891 8                  -7651401.978 8       238.000         136.000         303.000                  
G13  19385128.547    19385128.132    19385128.601                   -24798177.869 9 -24798177.870 8                 -19323251.146 9       873.000         454.000         756.000                  
G15  19367946.187    19367946.104    19367946.900                   -28085594.938 9 -28085594.941 9                 -21884871.446 9       841.000        1608.000        2370.000                  
G19  24701154.834    24701151.709    24701152.633                     1674220.928 8   1674220.959 6                   1304587.561 6       104.000          26.000          30.000                  
G20  23459015.115    23459013.500    23459015.081                    -6676149.587 8  -6676149.579 6                  -5202195.066 7       192.000          37.000          51.000                  
G23  24929161.179    24929160.911    24929162.310                      261347.867 7    261347.890 6                    203647.118 6        82.000          22.000          18.000                  
G24  23607814.430    23607814.163    23607817.519                    -1794730.960 8  -1794730.965 7                  -1398492.478 8       152.000          62.000         226.000                  
G25  23771237.309    23771236.305    23771240.436                    -2239587.274 8  -2239587.266 6                  -1745128.858 8       133.000          48.000         216.000                  
G29  21931429.251    21931428.776    21931429.604                   -15713099.298 8 -15713099.299 8                 -12243973.628 9       337.000         255.000         834.000                  
> 2024 10 31 10 04 20.0000000  0 12
G05  22084502.963    22084502.731    22084503.058                    -9935772.125 8  -9935772.126 8                  -7742159.633 8       299.000         210.000         349.000                  
G06  24318166.483    24318165.893    24318170.792                    -3402349.558 7  -3402349.543 6                  -2651182.117 7        97.000          37.000         100.000                  
G11  21978823.034    21978822.454    21978823.994                   -15691857.421 8 -15691857.423 8                 -12227418.449 8       308.000         114.000         280.000                  
G12  23221665.158    23221664.846    23221665.621                    -9470756.256 8  -9470756.260 8                  -7379807.243 8       234.000         128.000         289.000                  
G13  19366729.513    19366729.238    19366729.636                   -24894865.175 9 -24894865.175 8                 -19398591.863 9       874.000         450.000         756.000                  
G15  19377726.987    19377726.770    19377727.526                   -28034197.584 9 -28034197.586 9                 -21844821.559 9       840.000        1598.000        2309.000                  
G19  24763542.587    24763540.234    24763542.205                     2002076.705 7   2002076.749 6                   1560059.496 6        97.000          21.000          38.000                  
G20  23398459.614    23398458.060    23398459.213                    -6994373.252 8  -6994373.280 6                  -5450161.491 7       202.000          38.000          65.000                  
G23  24945827.654    24945826.632    24945828.775                      348930.346 7    348930.339 6                    271893.138 6        79.000          28.000          20.000                  
G24  23670991.710    23670992.215    23670996.021                    -1462727.782 8  -1462727.789 7                  -1139788.770 8       142.000          51.000         202.000                  
G25  23806885.270    23806884.203    23806888.603                    -2052256.097 8  -2052256.108 6                  -1599156.544 8       135.000          48.000         223.000                  
G29  21884625.067    21884624.149    21884624.795                   -15959059.587 8 -15959059.589 8                 -12435630.953 9       353.000         282.000         821.000                  
> 2024 10 31 10 04 30.0000000  0 12
G05  22024715.054    22024714.595    22024715.079                   -10249960.726 8 -10249960.727 8                  -7986981.867 8       307.000         226.000         392.000                  
G06  24327600.920    24327601.253    24327605.615                    -3352769.407 7  -3352769.391 6                  -2612548.240 7        99.000          37.000          94.000                  
G11  21946964.466    21946964.570    21946965.943                   -15859272.354 8 -15859272.358 8                 -12357871.597 8       321.000         125.000         290.000                  
G12  23288433.648    23288433.530    23288433.975                    -9119885.836 8  -9119885.841 8                  -7106401.767 8       227.000         124.000         283.000                  
G13  19349038.101    19349037.641    19349037.937                   -24987835.078 9 -24987835.079 8                 -19471035.902 9       874.000         446.000         757.000                  
G15  19388259.540    19388259.302    19388260.068                   -27978848.532 9 -27978848.534 9                 -21801692.418 9       840.000        1571.000        2287.000                  
G19  24826113.995    24826112.594    24826113.678                     2330892.895 7   2330892.894 6                   1816279.824 6        92.000          26.000          28.000                  
G20  23338225.231    23338224.471    23338225.894                    -7310904.370 8  -7310904.378 6                  -5696809.042 7       211.000          39.000          61.000                  
G23  24962601.544    24962599.828    24962603.662                      437074.698 7    437074.703 6                    340577.010 6        73.000          16.000          26.000                  
G24  23734387.533    23734387.570    23734391.083                    -1129583.610 8  -1129583.616 6                   -880195.973 8       136.000          49.000         189.000                  
G25  23843083.345    23843080.978    23843085.636                    -1862039.473 8  -1862039.463 6                  -1450935.836 8       132.000          50.000         216.000                  
G29  21838559.925    21838559.030    21838559.585                   -16201133.437 8 -16201133.441 8                 -12624259.903 9       364.000         300.000         837.000                  
> 2024 10 31 10 04 40.0000000  0 12
G05  21965301.772    21965301.632    21965302.024                   -10562178.197 8 -10562178.195 8                  -8230268.158 8       321.000         245.000         428.000                  
G06  24337560.678    24337559.926    24337564.930                    -3300434.071 7  -3300434.061 6                  -2571767.462 7        98.000          34.000          99.000                  
G11  21915897.412    21915897.175    21915898.549                   -16022532.171 8 -16022532.169 8                 -12485086.997 8       325.000         127.000         291.000                  
G12  23355627.284    23355626.778    23355627.593                    -8766782.486 8  -8766782.490 8                  -6831256.350 8       221.000         126.000         272.000                  
G13  19332050.814    19332050.438    19332050.713                   -25077103.432 9 -25077103.433 8                 -19540595.623 9       869.000         448.000         764.000                  
G15  19399536.133    19399535.942    19399536.714                   -27919589.367 9 -27919589.370 9                 -21755516.440 9       834.000        1561.000        2243.000                  
G19  24888852.868    24888850.734    24888853.249                     2660583.662 7   2660583.650 6                   2073181.626 6        85.000          25.000          27.000                  
G20  23278315.784    23278314.528    23278315.529                    -7625732.753 8  -7625732.753 6                  -5942129.792 7       216.000          37.000          71.000                  
G23  24979474.707    24979473.091    24979476.554                      525746.186 7    525746.178 6                    409671.666 6        71.000          22.000          22.000                  
G24  23797986.330    23797986.080    23797989.942                     -795370.298 8   -795370.317 6                   -619770.077 8       133.000          45.000         165.000                  
G25  23879816.928    23879815.462    23879820.059                    -1668999.229 8  -1668999.223 6                  -1300514.911 8       128.000          44.000         209.000                  
G29  21793239.315    21793239.138    21793239.538                   -16439291.597 8 -16439291.600 8                 -12809837.663 9       371.000         306.000         824.000                  
> 2024 10 31 10 04 50.0000000  0 12
G05  21906277.524    21906277.198    21906277.735                   -10872353.036 8 -10872353.039 8                  -8471962.799 8       337.000         272.000         456.000                  
G06  24348045.051    24348045.028    24348049.677                    -3245337.127 8  -3245337.132 6                  -2528834.786 7       101.000          29.000          99.000                  
G11  21885631.470    21885631.033    21885632.413                   -16181581.132 8 -16181581.133 8                 -12609021.210 8       332.000         138.000         283.000                  
G12  23423239.036    23423238.457    23423239.304                    -8411481.677 8  -8411481.677 8                  -6554398.626 8       212.000         114.000         261.000                  
G13  19315775.425    19315775.107    19315775.258                   -25162630.971 9 -25162630.969 8                 -19607240.417 9       868.000         447.000         746.000                  
G15  19411559.310    19411559.202    19411559.981                   -27856406.819 9 -27856406.821 9                 -21706283.282 9       829.000        1553.000        2218.000                  
G19  24951751.424    24951748.689    24951750.885                     2991119.042 7   2991119.033 6                   2330741.603 6        84.000          25.000          30.000                  
G20  23218742.320    23218740.776    23218742.349                    -7938792.411 8  -7938792.415 6                  -6186072.312 7       222.000          48.000          75.000                  
G23  24996452.704    24996451.584    24996453.758                      614965.722 7    614965.732 6                    479193.382 6        69.000          18.000          27.000                  
G24  23861785.442    23861784.818    23861789.156                     -460103.761 8   -460103.763 6                   -358523.499 8       126.000          47.000         154.000                  
G25  23917087.793    23917086.494    23917090.595                    -1473141.963 8  -1473141.953 6                  -1147898.894 8       126.000          47.000         201.000                  
G29  21748680.467    21748680.173    21748680.755                   -16673449.801 8 -16673449.802 8                 -12992298.569 9       378.000         326.000         806.000                  
> 2024 10 31 10 05  0.0000000  0 12
G05  21847650.148    21847649.829    21847650.032                   -11180442.626 8 -11180442.627 8                  -8712032.555 8       355.000         302.000         493.000                  
G06  24359050.886    24359050.418    24359055.269                    -3187501.915 7  -3187501.932 6                  -2483768.387 7        99.000          36.000          93.000                  
G11  21856171.774    21856170.936    21856172.572                   -16336393.585 8 -16336393.588 8                 -12729654.255 8       342.000         146.000         285.000                  
G12  23491256.304    23491255.872    23491256.673                    -8054047.867 8  -8054047.871 8                  -6275878.828 8       207.000         106.000         247.000                  
G13  19300213.844    19300213.318    19300213.430                   -25244408.299 9 -25244408.297 8                 -19670962.966 9       877.000         466.000         734.000                  
G15  19424326.015    19424325.790    19424326.636                   -27789317.598 9 -27789317.600 9                 -21654005.974 9       818.000        1521.000        2239.000                  
G19  25014800.334    25014797.181    25014800.151                     3322440.165 7   3322440.186 6                   2588913.803 6        80.000          19.000          29.000                  
G20  23159512.523    23159510.820    23159512.366                    -8250046.578 8  -8250046.577 6                  -6428607.969 7       230.000          42.000          77.000                  
G23  25013533.583    25013531.462    25013534.513                      704725.002 7    704725.002 6                    549135.548 6        68.000          19.000          22.000                  
G24  23925775.832    23925776.116    23925779.999                     -123828.943 8   -123828.949 6                    -96491.248 8       122.000          38.000         134.000                  
G25  23954886.865    23954885.500    23954890.052                    -1274503.965 8  -1274503.975 6                   -993116.084 8       130.000          43.000         191.000                  
G29  21704893.538    21704892.966    21704893.575                   -16903553.331 8 -16903553.334 8                 -13171599.989 9       380.000         321.000         820.000                  
> 2024 10 31 10 05 10.0000000  0 12
G05  21789426.566    21789426.444    21789426.616                   -11486408.817 8 -11486408.819 8                  -8950447.718 9       364.000         332.000         517.000                  
G06  24370573.599    24370572.104    24370576.667                    -3126956.404 7  -3126956.415 6                  -2436590.061 7        98.000          39.000          94.000                  
G11  21827521.898    21827521.556    21827522.882                   -16486948.857 8 -16486948.858 8                 -12846970.004 8       359.000         154.000         296.000                  
G12  23559666.417    23559665.924    23559666.949                    -7694549.489 8  -7694549.488 7                  -5995750.271 8       195.000          99.000         223.000                  
G13  19285366.656    19285366.007    19285366.295                   -25322430.955 9 -25322430.955 8                 -19731759.798 9       873.000         456.000         723.000                  
G15  19437831.914    19437831.763    19437832.610                   -27718343.265 9 -27718343.268 9                 -21598701.330 9       815.000        1497.000        2164.000                  
G19  25077983.745    25077983.242    25077985.248                     3654484.387 7   3654484.410 6                   2847649.419 6        75.000          22.000          21.000                  
G20  23100632.110    23100630.789    23100632.305                    -8559462.609 8  -8559462.616 6                  -6669711.315 7       242.000          50.000          76.000                  
G23  25030713.745    25030712.830    25030715.073                      795011.724 7    795011.728 6                    619488.831 6        64.000          24.000          22.000                  
G24  23989950.481    23989949.540    23989953.739                      213405.381 8    213405.392 6                    166288.661 8       119.000          41.000         108.000                  
G25  23993207.953    23993206.225    23993211.161                    -1073126.049 8  -1073126.056 6                   -836198.270 8       125.000          42.000         169.000                  
G29  21661886.942    21661886.682    21661887.339                   -17129552.218 8 -17129552.220 8                 -13347702.994 9       384.000         325.000         806.000                  
> 2024 10 31 10 05 20.0000000  0 12
G05  21731620.475    21731620.213    21731620.449                   -11790181.741 8 -11790181.740 8                  -9187153.842 9       376.000         338.000         567.000                  
G06  24382610.936    24382610.085    24382614.122                    -3063698.189 7  -3063698.186 6                  -2387297.949 7        97.000          28.000          93.000                  
G11  21799691.882    21799691.705    21799692.880                   -16633196.252 8 -16633196.255 8                 -12960928.978 8       369.000         176.000         301.000                  
G12  23628462.317    23628462.127    23628463.123                    -7333023.779 8  -7333023.771 7                  -5714041.987 8       184.000          87.000         201.000                  
G13  19271240.315    19271239.860    19271240.150                   -25396664.127 9 -25396664.128 8                 -19789603.787 9       864.000         436.000         749.000                  
G15  19452079.123    19452078.747    19452079.556                   -27643475.189 9 -27643475.192 9                 -21540362.587 9       824.000        1526.000        2196.000                  
G19  25141303.411    25141301.359    25141302.172                     3987220.321 7   3987220.346 6                   3106924.108 6        70.000          21.000          25.000                  
G20  23042114.079    23042112.884    23042114.126                    -8866976.698 8  -8866976.689 7                  -6909332.628 7       250.000          56.000          78.000                  
G23  25047995.606    25047998.188    25047998.883                      885844.416 7    885844.411 6                    690267.497 6        63.000          16.000          18.000                  
G24  24054303.051    24054303.072    24054305.964                      551581.555 8    551581.557 6                    429802.482 8       118.000          36.000         101.000                  
G25  24032048.145    24032047.189    24032051.442                     -869018.495 8   -869018.480 6                   -677153.474 8       124.000          39.000         154.000                  
G29  21619677.475    21619677.025    21619677.518                   -17351366.082 8 -17351366.082 8                 -13520544.962 9       387.000         336.000         797.000                  
> 2024 10 31 10 05 30.0000000  0 12
G05  21674234.128    21674233.624    21674234.254                   -12091748.719 8 -12091748.719 8                  -9422141.045 9       380.000         355.000         606.000                  
G06  24395153.055    24395152.660    24395157.691                    -2997782.255 7  -2997782.242 6                  -2335934.900 7        93.000          32.000          93.000                  
G11  21772680.254    21772680.127    21772681.321                   -16775142.861 8 -16775142.861 8                 -13071536.685 8       382.000         178.000         288.000                  
G12  23697626.708    23697625.829    23697627.195                    -6969564.624 8  -6969564.626 7                  -5430827.126 8       175.000          77.000         166.000                  
G13  19257830.919    19257830.549    19257830.787                   -25467130.443 9 -25467130.443 8                 -19844512.567 9       856.000         431.000         745.000                  
G15  19467057.559    19467057.340    19467058.138                   -27564762.133 9 -27564762.135 9                 -21479027.715 9       832.000        1557.000        2118.000                  
G19  25204736.287    25204733.366    25204734.861                     4320560.056 7   4320560.045 6                   3366669.265 6        66.000          20.000          21.000                  
G20  22983959.513    22983958.459    22983959.486                    -9172581.982 8  -9172581.970 7                  -7147466.558 7       253.000          59.000          77.000                  
G23  25065380.154    25065379.607    25065380.782                      977184.858 7    977184.860 6                    761441.873 6        61.000          21.000          18.000                  
G24  24118820.193    24118821.035    24118823.959                      890625.385 8    890625.385 6                    693992.401 7       112.000          37.000          81.000                  
G25  24071395.511    24071394.062    24071398.289                     -662248.876 8   -662248.883 6                   -516034.336 8       120.000          45.000         139.000                  
G29  21578268.197    21578267.705    21578268.341                   -17568972.023 8 -17568972.023 8                 -13690107.976 9       392.000         346.000         777.000                  
> 2024 10 31 10 05 40.0000000  0 12
G05  21617284.423    21617284.212    21617284.794                   -12391019.993 8 -12391019.993 8                  -9655339.375 9       384.000         357.000         671.000                  
G06  24408207.401    24408206.270    24408211.050                    -2929187.300 7  -2929187.308 6                  -2282484.296 7        92.000          34.000          92.000                  
G11  21746500.021    21746499.787    21746501.157                   -16912719.991 8 -16912719.990 8                 -13178739.600 8       391.000         190.000         285.000                  
G12  23767155.331    23767154.770    23767155.674                    -6604189.040 8  -6604189.039 7                  -5146118.934 8       164.000          58.000         147.000                  
G13  19245148.703    19245148.208    19245148.494                   -25533776.674 9 -25533776.674 8                 -19896444.670 9       843.000         424.000         780.000                  
G15  19482772.942    19482772.762    19482773.532                   -27482177.262 9 -27482177.265 9                 -21414675.892 9       839.000        1593.000        2151.000                  
G19  25268283.068    25268278.568    25268280.016                     4654493.185 7   4654493.202 6                   3626876.838 6        67.000          23.000          22.000                  
G20  22926183.814    22926182.986    22926183.112                    -9476194.951 8  -9476194.958 7                  -7384048.021 7       255.000          62.000          79.000                  
G23  25082864.827    25082864.784    25082867.664                     1069071.038 7   1069071.049 6                    833041.254 6        59.000          25.000          19.000                  
G24  24183504.991    24183504.752    24183507.488                     1230539.545 8   1230539.533 6                    958860.503 7       108.000          37.000          70.000                  
G25  24111250.789    24111249.254    24111253.603                     -452808.392 8   -452808.364 6                   -352834.011 8       122.000          40.000         121.000                  
G29  21537679.052    21537678.317    21537678.969                   -17782271.247 8 -17782271.248 8                 -13856315.151 9       397.000         346.000         806.000                  
> 2024 10 31 10 05 50.0000000  0 12
G05  21560774.983    21560774.848    21560775.449                   -12687978.194 8 -12687978.192 8                  -9886735.323 9       390.000         373.000         694.000                  
G06  24421758.947    24421759.188    24421763.856                    -2857964.658 7  -2857964.653 6                  -2226986.140 7        89.000          30.000          85.000                  
G11  21721150.917    21721150.428    21721151.694                   -17045931.993 8 -17045931.997 8                 -13282541.123 8       402.000         207.000         270.000                  
G12  23837031.492    23837031.143    23837032.176                    -6236986.043 8  -6236986.063 7                  -4859986.793 8       154.000          57.000         119.000                  
G13  19233189.620    19233189.056    19233189.417                   -25596622.268 9 -25596622.268 8                 -19945415.243 9       830.000         413.000         764.000                  
G15  19499216.586    19499216.273    19499217.017                   -27395766.012 9 -27395766.013 9                 -21347342.439 9       842.000        1607.000        2059.000                  
G19  25331924.029    25331921.264    25331924.047                     4988936.145 7   4988936.147 6                   3887481.698 6        60.000          21.000          17.000                  
G20  22868790.128    22868788.379    22868789.200                    -9777803.968 8  -9777803.967 7                  -7619067.962 7       256.000          55.000          83.000                  
G23  25100448.668    25100447.393    25100450.626                     1161470.401 7   1161470.407 6                    905040.764 6        56.000          22.000          26.000                  
G24  24248339.938    24248340.554    24248344.017                     1571254.871 8   1571254.885 6                   1224352.878 7       102.000          28.000          59.000                  
G25  24151602.024    24151600.326    24151605.018                     -240760.766 8   -240760.771 6                   -187602.144 8       118.000          35.000         104.000                  
G29  21497913.846    21497913.244    21497914.009                   -17991237.500 8 -17991237.502 8                 -14019145.984 9       403.000         362.000         792.000                  
> 2024 10 31 10 06  0.0000000  0 12
G05  21504714.888    21504714.619    21504715.208                   -12982576.279 8 -12982576.280 8                 -10116292.216 9       402.000         394.000         763.000                  
G06  24435808.897    24435808.186    24435813.490                    -2784136.544 7  -2784136.546 6                  -2169457.734 7        86.000          30.000          86.000                  
G11  21696636.780    21696636.417    21696637.338                   -17174754.562 8 -17174754.564 8                 -13382922.301 8       416.000         222.000         274.000                  
G12  23907245.346    23907244.353    23907245.245                    -5868014.395 8  -5868014.397 7                  -4572476.470 8       140.000          54.000         103.000                  
G13  19221955.507    19221954.989    19221955.158                   -25655657.657 9 -25655657.659 8                 -19991416.813 9       818.000         399.000         787.000                  
G15  19516384.905    19516384.725    19516385.424                   -27305545.305 9 -27305545.306 9                 -21277040.565 9       843.000        1610.000        2112.000                  
G19  25395653.465    25395650.945    25395652.989                     5323836.877 7   5323836.866 6                   4148443.199 6        55.000          18.000          22.000                  
G20  22811784.059    22811782.930    22811783.845                   -10077367.867 8 -10077367.871 7                  -7852494.318 7       262.000          59.000          87.000                  
G23  25118130.754    25118127.929    25118130.783                     1254378.523 7   1254378.526 6                    977436.649 6        55.000          23.000          26.000                  
G24  24313322.540    24313321.680    24313324.616                     1912732.198 7   1912732.212 6                   1490439.014 7        91.000          30.000          53.000                  
G25  24192442.166    24192441.508    24192445.490                      -26140.375 8    -26140.384 6                    -20365.531 7       116.000          34.000          98.000                  
G29  21458983.976    21458983.473    21458983.921                   -18195815.641 8 -18195815.643 8                 -14178557.487 9       413.000         378.000         816.000                  
> 2024 10 31 10 06 10.0000000  0 11
G05  21449118.939    21449118.717    21449119.221                   -13274734.314 8 -13274734.314 8                 -10343947.792 9       419.000         422.000         782.000                  
G06  24450355.815    24450354.625    24450360.176                    -2707693.387 7  -2707693.405 6                  -2109891.629 7        85.000          32.000          89.000                  
G11  21672968.528    21672968.160    21672969.101                   -17299132.082 8 -17299132.082 8                 -13479839.800 8       426.000         225.000         260.000                  
G12  23977790.247    23977789.049    23977789.139                    -5497300.531 8  -5497300.532 6                  -4283608.590 7       130.000          45.000         100.000                  
G13  19211454.244    19211453.768    19211453.951                   -25710841.821 9 -25710841.822 8                 -20034417.433 9       801.000         388.000         782.000                  
G15  19534280.982    19534280.834    19534281.565                   -27211500.285 9 -27211500.287 9                 -21203758.718 9       838.000        1593.000        2050.000                  
G20  22755182.516    22755181.375    22755182.073                   -10374813.152 8 -10374813.146 7                  -8084269.799 7       269.000          56.000          93.000                  
G23  25135910.279    25135909.631    25135913.856                     1347823.788 7   1347823.797 6                   1050251.169 6        56.000          24.000          24.000                  
G24  24378447.398    24378446.657    24378448.945                     2254964.806 7   2254964.814 6                   1757113.658 6        87.000          24.000          45.000                  
G25  24233773.468    24233771.249    24233775.981                      191050.284 8    191050.286 6                    148873.892 7       107.000          34.000          82.000                  
G29  21420905.541    21420904.946    21420905.378                   -18395918.939 8 -18395918.941 8                 -14334482.062 9       423.000         393.000         802.000                  
> 2024 10 31 10 06 20.0000000  0 11
G05  21393990.489    21393990.036    21393990.554                   -13564437.222 8 -13564437.222 8                 -10569690.262 9       431.000         448.000         806.000                  
G06  24465389.293    24465388.160    24465393.454                    -2628690.592 7  -2628690.592 6                  -2048331.001 7        83.000          28.000          87.000                  
G11  21650144.354    21650143.827    21650144.720                   -17419074.504 8 -17419074.506 8                 -13573301.382 8       435.000         235.000         254.000                  
G12  24048647.562    24048647.174    24048648.345                    -5124935.273 8  -5124935.269 6                  -3993453.909 7       122.000          35.000          83.000                  
G13  19201681.232    19201680.782    19201680.962                   -25762198.961 9 -25762198.959 8                 -20074435.971 9       783.000         368.000         806.000                  
G15  19552895.385    19552895.182    19552895.942                   -27113681.163 9 -27113681.165 9                 -21127536.015 9       828.000        1566.000        2030.000                  
G20  22698985.568    22698983.935    22698984.710                   -10670130.882 8 -10670130.881 7                  -8314387.440 7       269.000          64.000          93.000                  
G23  25153788.236    25153787.022    25153789.766                     1441770.132 7   1441770.120 6                   1123455.967 6        57.000          19.000          28.000                  
G24  24443700.969    24443701.672    24443704.236                     2597881.749 7   2597881.734 6                   2024321.578 6        74.000          25.000          39.000                  
G25  24275580.428    24275577.306    24275581.379                      410743.836 8    410743.833 6                    320063.630 7       106.000          35.000          71.000                  
G29  21383682.543    21383682.151    21383682.539                   -18591526.076 8 -18591526.080 8                 -14486903.155 9       429.000         412.000         818.000                  
> 2024 10 31 10 06 30.0000000  0 11
G05  21339341.023    21339340.784    21339341.194                   -13851621.452 8 -13851621.452 8                 -10793470.123 9       444.000         474.000         829.000                  
G06  24480908.416    24480907.530    24480912.548                    -2547135.631 7  -2547135.627 6                  -1984781.681 7        83.000          34.000          84.000                  
G11  21628170.810    21628170.678    21628171.564                   -17534544.328 8 -17534544.330 8                 -13663277.816 8       443.000         245.000         266.000                  
G12  24119814.054    24119812.472    24119813.851                    -4750960.742 8  -4750960.739 6                  -3702045.245 7       111.000          34.000          73.000                  
G13  19192640.984    19192640.581    19192640.717                   -25809705.555 9 -25809705.558 8                 -20111454.060 9       788.000         367.000         810.000                  
G15  19572227.472    19572227.195    19572227.855                   -27012090.552 9 -27012090.554 9                 -21048374.470 9       816.000        1510.000        1986.000                  
G20  22643203.812    22643202.697    22643203.578                   -10963263.727 8 -10963263.723 7                  -8542802.576 7       263.000          59.000          94.000                  
G23  25171765.296    25171761.474    25171764.562                     1536229.818 7   1536229.845 6                   1197060.925 6        60.000          21.000          21.000                  
G24  24509081.160    24509082.361    24509085.681                     2941460.721 7   2941460.707 6                   2292045.373 6        70.000          21.000          39.000                  
G25  24317857.460    24317855.869    24317860.967                      632921.053 8    632921.060 6                    493188.688 7       101.000          30.000          70.000                  
G29  21347328.608    21347328.041    21347328.343                   -18782568.052 8 -18782568.054 8                 -14635766.957 9       445.000         439.000         793.000                  
> 2024 10 31 10 06 40.0000000  0 10
G05  21285181.827    21285181.566    21285181.767                   -14136230.059 8 -14136230.059 9                 -11015242.987 9       466.000         525.000         870.000                  
G06  24496911.695    24496909.667    24496914.830                    -2463042.749 7  -2463042.766 6                  -1919254.754 7        79.000          30.000          77.000                  
G11  21607054.847    21607054.295    21607055.278                   -17645511.470 8 -17645511.475 8                 -13749745.667 8       439.000         237.000         275.000                  
G12  24191274.939    24191274.838    24191275.607                    -4375425.111 8  -4375425.105 6                  -3409420.145 7       102.000          35.000          66.000                  
G13  19184336.692    19184336.297    19184336.365                   -25853345.100 9 -25853345.101 8                 -20145458.853 9       790.000         364.000         828.000                  
G15  19592275.241    19592274.982    19592275.749                   -26906738.105 9 -26906738.108 9                 -20966281.616 9       796.000        1444.000        1975.000                  
G20  22587847.943    22587846.324    22587847.530                   -11254160.794 8 -11254160.801 7                  -8769475.549 7       253.000          59.000          97.000                  
G24  24574582.976    24574584.451    24574586.769                     3285673.381 7   3285673.389 6                   2560262.902 6        63.000          19.000          32.000                  
G25  24360604.495    24360603.768    24360607.602                      857556.016 8    857556.019 6                    668228.861 7       102.000          37.000          70.000                  
G29  21311854.948    21311854.416    21311854.693                   -18968983.200 8 -18968983.202 8                 -14781025.432 9       458.000         471.000         804.000                  
> 2024 10 31 10 06 50.0000000  0 10
G05  21231517.710    21231517.310    21231517.436                   -14418237.786 8 -14418237.786 9                 -11234989.214 9       486.000         570.000         892.000                  
G06  24513387.481    24513386.596    24513391.486                    -2376458.807 7  -2376458.802 6                  -1851786.719 7        79.000          24.000          70.000                  
G11  21586794.370    21586793.932    21586794.936                   -17751979.045 8 -17751979.047 8                 -13832707.362 8       436.000         236.000         270.000                  
G12  24263019.592    24263018.701    24263019.620                    -3998408.307 7  -3998408.294 6                  -3115640.894 7        97.000          32.000          55.000                  
G13  19176765.053    19176764.530    19176764.775                   -25893134.033 9 -25893134.033 8                 -20176463.168 9       790.000         376.000         824.000                  
G15  19613030.925    19613030.679    19613031.359                   -26797666.294 9 -26797666.297 9                 -20881290.567 9       787.000        1408.000        1931.000                  
G20  22532920.933    22532919.279    22532920.489                   -11542803.289 8 -11542803.277 7                  -8994391.706 7       257.000          57.000          95.000                  
G24  24640192.658    24640195.148    24640197.436                     3630459.473 7   3630459.460 6                   2828927.314 6        61.000          23.000          35.000                  
G25  24403807.474    24403806.463    24403810.836                     1084590.347 7   1084590.321 6                    845138.685 7       100.000          37.000          69.000                  
G29  21277267.112    21277266.662    21277266.788                   -19150742.645 8 -19150742.645 8                 -14922656.113 9       467.000         500.000         805.000                  
> 2024 10 31 10 07  0.0000000  0 10
G05  21178362.271    21178362.220    21178362.398                   -14697569.080 9 -14697569.081 9                 -11452649.909 9       502.000         609.000         964.000                  
G06  24530338.188    24530337.667    24530342.896                    -2287380.832 7  -2287380.827 6                  -1782375.297 7        75.000          23.000          77.000                  
G11  21567399.341    21567399.057    21567399.857                   -17853900.879 8 -17853900.880 8                 -13912126.922 8       437.000         238.000         274.000                  
G12  24335039.872    24335038.919    24335038.978                    -3619939.683 7  -3619939.692 6                  -2820730.337 7        93.000          29.000          51.000                  
G13  19169932.696    19169932.093    19169932.157                   -25929039.136 9 -25929039.138 8                 -20204441.120 9       787.000         373.000         829.000                  
G15  19634495.827    19634495.556    19634496.223                   -26684867.705 9 -26684867.707 9                 -20793395.547 9       779.000        1372.000        1978.000                  
G20  22478436.542    22478435.031    22478435.863                   -11829122.199 8 -11829122.198 7                  -9217497.279 7       264.000          57.000         100.000                  
G24  24705913.411    24705912.822    24705915.324                     3975809.370 7   3975809.376 6                   3098031.049 6        63.000          24.000          33.000                  
G25  24447466.591    24447464.955    24447468.954                     1314015.722 7   1314015.723 6                   1023911.646 7        98.000          35.000          56.000                  
G29  21243580.437    21243579.785    21243580.034                   -19327768.236 8 -19327768.237 9                 -15060598.081 9       477.000         517.000         845.000                  
> 2024 10 31 10 07 10.0000000  0 10
G05  21125719.907    21125719.630    21125719.722                   -14974208.145 9 -14974208.147 9                 -11668212.750 9       521.000         650.000        1028.000                  
G06  24547752.642    24547752.489    24547757.237                    -2195865.787 7  -2195865.771 6                  -1711064.857 7        73.000          28.000          74.000                  
G11  21548866.419    21548866.145    21548866.970                   -17951291.449 8 -17951291.452 8                 -13988015.629 8       437.000         235.000         278.000                  
G12  24407321.518    24407318.660    24407319.155                    -3240107.948 7  -3240107.940 6                  -2524757.641 6        92.000          29.000          42.000                  
G13  19163833.860    19163833.227    19163833.563                   -25961087.577 9 -25961087.577 8                 -20229413.895 9       787.000         360.000         810.000                  
G15  19656659.621    19656659.487    19656660.209                   -26568395.231 9 -26568395.233 9                 -20702637.758 9       769.000        1344.000        1932.000                  
G20  22424395.397    22424394.115    22424395.193                   -12113108.050 8 -12113108.049 7                  -9438784.892 8       264.000          58.000         104.000                  
G24  24771724.795    24771724.367    24771727.746                     4321654.005 7   4321654.014 6                   3367520.276 6        61.000          24.000          37.000                  
G25  24491565.853    24491565.087    24491569.539                     1545763.930 7   1545763.931 6                   1204494.634 7        96.000          34.000          62.000                  
G29  21210797.387    21210797.189    21210797.322                   -19500042.064 8 -19500042.064 9                 -15194837.361 9       494.000         545.000         848.000                  
> 2024 10 31 10 07 20.0000000  0 10
G05  21073605.122    21073604.774    21073604.948                   -15248073.294 9 -15248073.294 9                 -11881614.115 9       538.000         686.000        1081.000                  
G06  24565631.896    24565631.564    24565637.021                    -2101905.200 7  -2101905.198 6                  -1637848.792 7        70.000          28.000          69.000                  
G11  21531205.474    21531205.024    21531206.004                   -18044100.459 8 -18044100.460 8                 -14060334.296 8       436.000         233.000         294.000                  
G12  24479853.575    24479852.946    24479854.324                    -2858935.546 7  -2858935.582 6                  -2227740.256 6        93.000          28.000          37.000                  
G13  19158476.326    19158475.782    19158476.044                   -25989241.309 9 -25989241.309 8                 -20251351.840 9       790.000         375.000         798.000                  
G15  19679525.144    19679524.919    19679525.657                   -26448236.527 9 -26448236.529 9                 -20609007.601 9       760.000        1305.000        1909.000                  
G20  22370812.934    22370811.720    22370812.835                   -12394685.700 8 -12394685.688 7                  -9658195.991 7       266.000          53.000          99.000                  
G24  24837631.032    24837630.076    24837634.305                     4667990.627 7   4667990.616 6                   3637392.892 6        61.000          23.000          33.000                  
G25  24536107.870    24536106.601    24536110.651                     1779832.430 7   1779832.446 6                   1386885.620 7        96.000          29.000          54.000                  
G29  21178934.809    21178934.337    21178934.606                   -19667481.504 9 -19667481.505 9                 -15325309.589 9       507.000         567.000         866.000                  
> 2024 10 31 10 07 30.0000000  0 10
G05  21022022.164    21022021.805    21022022.036                   -15519143.070 9 -15519143.069 9                 -12092837.264 9       542.000         706.000        1144.000                  
G06  24583968.365    24583968.159    24583972.855                    -2005551.256 7  -2005551.258 6                  -1562767.774 7        75.000          25.000          64.000                  
G11  21514414.346    21514413.809    21514414.785                   -18132338.923 8 -18132338.925 8                 -14129091.497 8       438.000         239.000         298.000                  
G12  24552628.124    24552627.457    24552628.011                    -2476504.935 7  -2476504.948 6                  -1929742.458 6        84.000          29.000          35.000                  
G13  19153855.659    19153855.225    19153855.337                   -26013523.183 9 -26013523.182 8                 -20270272.736 9       786.000         365.000         804.000                  
G15  19703083.144    19703082.631    19703083.345                   -26324439.864 9 -26324439.865 9                 -20512542.618 9       752.000        1282.000        1910.000                  
G20  22317691.656    22317689.859    22317691.326                   -12673840.310 8 -12673840.294 7                  -9875718.998 7       271.000          63.000          99.000                  
G24  24903617.501    24903617.715    24903621.821                     5014756.894 7   5014756.893 6                   3907600.361 6        64.000          21.000          37.000                  
G25  24581079.486    24581078.201    24581082.760                     2016158.119 7   2016158.116 6                   1571035.480 6        94.000          30.000          50.000                  
G29  21147996.158    21147995.756    21147996.048                   -19830065.130 9 -19830065.132 9                 -15451998.096 9       523.000         609.000         926.000                  
> 2024 10 31 10 07 40.0000000  0 10
G05  20970984.180    20970983.933    20970984.168                   -15787348.606 9 -15787348.606 9                 -12301828.533 9       543.000         718.000        1201.000                  
G06  24602758.856    24602758.650    24602762.939                    -1906808.963 7  -1906808.968 6                  -1485825.699 7        69.000          26.000          62.000                  
G11  21498499.351    21498499.112    21498500.026                   -18215971.386 8 -18215971.389 8                 -14194259.605 8       444.000         245.000         327.000                  
G12  24625636.911    24625634.666    24625633.830                    -2092850.733 7  -2092850.751 6                  -1630791.196 6        77.000          25.000          28.000                  
G13  19149976.239    19149975.780    19149975.959                   -26033909.328 9 -26033909.327 8                 -20286157.991 9       776.000         358.000         830.000                  
G15  19727332.316    19727332.324    19727332.999                   -26197006.802 9 -26197006.803 9                 -20413244.093 9       750.000        1271.000        1890.000                  
G20  22265042.980    22265041.651    22265042.784                   -12950509.478 8 -12950509.471 7                 -10091305.296 7       272.000          67.000          96.000                  
G24  24969684.567    24969683.033    24969687.402                     5361936.961 7   5361936.980 6                   4178130.208 6        66.000          23.000          36.000                  
G25  24626476.625    24626475.846    24626480.757                     2254725.304 7   2254725.289 6                   1756931.938 7        94.000          29.000          55.000                  
G29  21117994.290    21117994.156    21117994.423                   -19987724.990 9 -19987724.992 9                 -15574849.890 9       534.000         629.000        1011.000                  
> 2024 10 31 10 07 50.0000000  0 10
G05  20920498.494    20920498.218    20920498.371                   -16052652.866 9 -16052652.865 9                 -12508559.054 9       553.000         734.000        1196.000                  
G06  24621994.775    24621995.765    24621999.853                    -1805715.216 7  -1805715.222 6                  -1407051.330 7        66.000          26.000          60.000                  
G11  21483461.672    21483461.277    21483462.403                   -18294995.082 8 -18294995.085 8                 -14255836.466 8       450.000         250.000         319.000                  
G12  24698863.576    24698861.494    24698861.688                    -1708038.665 7  -1708038.651 6                  -1330937.677 6        73.000          21.000          22.000                  
G13  19146836.468    19146836.086    19146836.313                   -26050408.195 9 -26050408.197 8                 -20299014.209 9       762.000         345.000         816.000                  
G15  19752267.883    19752267.547    19752268.222                   -26065970.927 9 -26065970.929 9                 -20311138.169 9       747.000        1261.000        1780.000                  
G20  22212873.356    22212872.209    22212872.925                   -13224662.480 8 -13224662.488 7                 -10304930.950 7       274.000          66.000          98.000                  
G24  25035820.332    25035818.694    25035824.260                     5709485.051 7   5709485.060 6                   4448946.788 6        63.000          27.000          31.000                  
G25  24672291.453    24672291.825    24672295.359                     2495486.450 7   2495486.456 6                   1944537.982 6        93.000          28.000          47.000                  
G29  21088936.499    21088936.005    21088936.339                   -20140425.919 9 -20140425.920 9                 -15693837.595 9       542.000         657.000        1044.000                  
> 2024 10 31 10 08  0.0000000  0 10
G05  20870573.245    20870572.858    20870572.883                   -16315012.278 9 -16315012.278 9                 -12712994.888 9       560.000         755.000        1248.000                  
G06  24641676.178    24641674.651    24641679.032                    -1702300.897 7  -1702300.871 6                  -1326468.723 7        65.000          22.000          64.000                  
G11  21469302.315    21469302.047    21469303.164                   -18369401.874 8 -18369401.876 8                 -14313815.737 8       460.000         260.000         328.000                  
G12  24772299.946    24772297.973    24772299.368                    -1322127.817 7  -1322127.805 6                  -1030228.050 6        68.000          22.000          26.000                  
G13  19144436.153    19144435.606    19144435.794                   -26063022.404 9 -26063022.403 8                 -20308843.409 9       751.000         332.000         829.000                  
G15  19777883.398    19777883.137    19777883.782                   -25931360.020 9 -25931360.022 9                 -20206246.560 9       736.000        1227.000        1748.000                  
G20  22161189.186    22161188.827    22161189.148                   -13496262.308 8 -13496262.306 7                 -10516567.123 7       275.000          60.000          97.000                  
G24  25102018.547    25102018.095    25102023.341                     6057361.757 7   6057361.753 6                   4720019.452 6        66.000          19.000          33.000                  
G25  24718518.128    24718516.567    24718521.314                     2738400.308 7   2738400.305 6                   2133821.467 6        92.000          30.000          50.000                  
G29  21060829.978    21060829.436    21060829.783                   -20288127.190 9 -20288127.191 9                 -15808929.493 9       547.000         664.000        1107.000                  
> 2024 10 31 10 08 10.0000000  0 10
G05  20821220.189    20821219.875    20821220.023                   -16574363.399 9 -16574363.399 9                 -12915086.610 9       562.000         761.000        1279.000                  
G06  24661792.747    24661792.932    24661798.126                    -1596577.408 7  -1596577.418 6                  -1244086.753 7        64.000          26.000          59.000                  
G11  21456026.556    21456026.503    21456027.615                   -18439164.977 8 -18439164.977 8                 -14368176.551 8       470.000         272.000         312.000                  
G12  24845937.105    24845936.606    24845936.488                     -935156.568 7   -935156.602 6                   -728692.050 6        68.000          23.000          25.000                  
G13  19142778.044    19142777.514    19142777.665                   -26071735.593 9 -26071735.591 8                 -20315632.865 9       751.000         331.000         814.000                  
G15  19804177.589    19804177.491    19804178.163                   -25793182.282 9 -25793182.283 9                 -20098575.588 9       725.000        1192.000        1666.000                  
G20  22110002.934    22110001.468    22110001.946                   -13765252.217 8 -13765252.220 7                 -10726169.582 7       282.000          67.000          95.000                  
G24  25168277.698    25168276.470    25168280.923                     6405547.648 7   6405547.652 6                   4991333.067 6        65.000          27.000          28.000                  
G25  24765148.120    24765147.159    24765151.792                     2983445.236 7   2983445.254 6                   2324765.535 6        90.000          27.000          44.000                  
G29  21033686.175    21033685.408    21033685.854                   -20430769.373 9 -20430769.374 9                 -15920079.195 9       549.000         668.000        1136.000                  
> 2024 10 31 10 08 20.0000000  0 10
G05  20772446.987    20772446.435    20772446.531                   -16830669.463 9 -16830669.463 9                 -13114805.554 9       565.000         773.000        1320.000                  
G06  24682343.024    24682343.312    24682348.710                    -1488582.909 7  -1488582.906 6                  -1159935.161 7        62.000          26.000          55.000                  
G11  21443634.948    21443634.881    21443635.558                   -18504285.077 8 -18504285.078 8                 -14418919.444 8       478.000         280.000         309.000                  
G12  24919765.315    24919763.736    24919765.479                     -547189.828 7   -547189.837 6                   -426380.408 6        64.000          23.000          21.000                  
G13  19141860.073    19141859.772    19141859.865                   -26076558.444 9 -26076558.443 8                 -20319390.902 9       750.000         333.000         835.000                  
G15  19831144.159    19831143.899    19831144.573                   -25651473.046 9 -25651473.047 9                 -19988152.788 9       718.000        1171.000        1618.000                  
G20  22059318.372    22059316.630    22059317.522                   -14031601.969 8 -14031601.974 7                 -10933714.785 8       285.000          74.000         104.000                  
G24  25234585.130    25234583.509    25234587.514                     6753997.329 7   6753997.355 6                   5262852.197 6        64.000          25.000          28.000                  
G25  24812173.964    24812173.761    24812178.046                     3230572.982 7   3230572.966 6                   2517332.571 6        88.000          30.000          41.000                  
G29  21007510.850    21007510.262    21007510.577                   -20568320.611 9 -20568320.612 9                 -16027261.921 9       550.000         669.000        1174.000                  
> 2024 10 31 10 08 30.0000000  0 10
G05  20724261.373    20724261.051    20724261.175                   -17083884.710 9 -17083884.710 9                 -13312116.067 9       577.000         803.000        1341.000                  
G06  24703320.330    24703321.193    24703326.183                    -1378346.824 7  -1378346.847 6                  -1074036.899 7        58.000          24.000          60.000                  
G11  21432127.895    21432127.569    21432128.451                   -18564754.987 8 -18564754.988 8                 -14466038.812 8       478.000         278.000         295.000                  
G12  24993773.560    24993771.046    24993772.522                     -158283.098 7   -158283.106 6                   -123336.269 6        59.000          23.000          18.000                  
G13  19141682.402    19141681.720    19141682.003                   -26077493.283 9 -26077493.284 8                 -20320119.308 9       753.000         341.000         860.000                  
G15  19858777.395    19858777.195    19858777.844                   -25506259.099 9 -25506259.100 9                 -19874999.075 9       713.000        1151.000        1583.000                  
G20  22009142.892    22009141.621    22009142.390                   -14295272.395 8 -14295272.387 7                 -11139172.204 8       279.000          65.000         108.000                  
G24  25300934.669    25300934.819    25300939.053                     7102674.649 7   7102674.646 6                   5534548.730 6        66.000          22.000          28.000                  
G25  24859591.496    24859589.531    24859593.516                     3479744.250 7   3479744.266 6                   2711491.973 6        86.000          30.000          39.000                  
G29  20982311.840    20982311.435    20982311.666                   -20700741.142 9 -20700741.144 9                 -16130446.678 9       546.000         667.000        1181.000                  
> 2024 10 31 10 08 40.0000000  0 11
G05  20676675.926    20676675.697    20676675.680                   -17333947.792 9 -17333947.792 9                 -13506970.364 9       586.000         826.000        1393.000                  
G06  24724722.933    24724721.027    24724726.940                    -1265883.037 7  -1265882.992 6                   -986402.740 7        57.000          19.000          54.000                  
G11  21421509.858    21421509.575    21421510.562                   -18620552.814 8 -18620552.816 8                 -14509517.595 8       477.000         279.000         306.000                  
G12  25067949.142    25067948.347    25067948.422                      231524.433 7    231524.439 6                    180409.612 6        58.000          21.000          17.000                  
G13  19142246.561    19142246.078    19142246.399                   -26074527.322 9 -26074527.322 8                 -20317808.118 9       763.000         339.000         896.000                  
G15  19887075.620    19887075.281    19887075.915                   -25357551.677 9 -25357551.678 9                 -19759123.154 9       706.000        1127.000        1614.000                  
G20  21959488.478    21959486.958    21959487.962                   -14556208.777 8 -14556208.779 7                 -11342499.192 8       277.000          67.000         118.000                  
G24  25367325.381    25367326.389    25367329.837                     7451559.611 7   7451559.613 6                   5806407.047 6        64.000          21.000          35.000                  
G25  24907391.072    24907389.033    24907393.443                     3730935.344 7   3730935.358 6                   2907225.273 6        80.000          25.000          37.000                  
G29  20958099.660    20958099.282    20958099.506                   -20827976.709 9 -20827976.711 9                 -16229591.217 9       543.000         644.000        1244.000                  
G30  24960165.230    24960162.569    24960182.821                     -327559.583 7   -327559.590 6                   -255245.279 6        72.000          26.000          18.000                  
> 2024 10 31 10 08 50.0000000  0 11
G05  20629695.285    20629694.648    20629694.665                   -17580834.155 9 -17580834.155 9                 -13699349.281 9       595.000         855.000        1332.000                  
G06  24746538.023    24746536.608    24746542.230                    -1151242.584 7  -1151242.602 6                   -897072.518 7        58.000          25.000          56.000                  
G11  21411777.725    21411777.690    21411778.491                   -18671694.535 8 -18671694.535 8                 -14549368.244 8       473.000         276.000         304.000                  
G12  25142283.514    25142282.779    25142283.746                      622157.186 7    622157.175 6                    484798.801 6        52.000          16.000          19.000                  
G13  19143548.640    19143548.063    19143548.347                   -26067685.288 9 -26067685.290 8                 -20312476.626 9       774.000         358.000         862.000                  
G15  19916029.086    19916028.811    19916029.613                   -25205399.488 9 -25205399.490 9                 -19640563.010 9       703.000        1132.000        1574.000                  
G20  21910357.489    21910356.131    21910357.127                   -14814393.240 8 -14814393.236 7                 -11543681.825 8       291.000          74.000         116.000                  
G24  25433745.142    25433745.921    25433749.876                     7800595.822 7   7800595.820 6                   6078383.230 6        62.000          22.000          29.000                  
G25  24955563.569    24955562.137    24955567.728                     3984085.740 7   3984085.745 6                   3104485.293 6        82.000          23.000          35.000                  
G29  20934877.277    20934876.928    20934877.245                   -20950010.861 9 -20950010.863 9                 -16324682.763 9       546.000         666.000        1229.000                  
G30  24920995.884    24920992.495    24920997.064                     -533407.222 7   -533407.216 6                   -415645.200 7        74.000          26.000          86.000                  
> 2024 10 31 10 09  0.0000000  0 11
G05  20583330.120    20583329.816    20583329.694                   -17824483.411 9 -17824483.412 9                 -13889205.778 9       621.000         910.000        1344.000                  
G06  24768765.357    24768762.141    24768768.742                    -1034440.408 7  -1034440.405 6                   -806057.828 6        57.000          21.000          44.000                  
G11  21402936.091    21402935.483    21402936.200                   -18718161.008 8 -18718161.008 8                 -14585575.849 8       468.000         275.000         294.000                  
G13  19145590.255    19145589.788    19145589.949                   -26056956.382 9 -26056956.382 8                 -20304116.399 9       793.000         378.000         858.000                  
G15  19945635.810    19945635.498    19945636.290                   -25049815.250 9 -25049815.251 9                 -19519328.501 9       706.000        1123.000        1555.000                  
G18  25086830.317    25086852.980    25086875.442                     -288250.964 7   -288250.966 6                   -224614.181 6        85.000          19.000          18.000                  
G20  21861760.595    21861758.943    21861759.937                   -15069771.755 8 -15069771.743 7                 -11742678.018 8       296.000          77.000         121.000                  
G24  25500189.835    25500191.153    25500193.415                     8149763.351 7   8149763.333 6                   6350461.765 6        61.000          20.000          27.000                  
G25  25004105.614    25004103.617    25004108.798                     4239171.001 7   4239170.988 6                   3303253.010 6        78.000          28.000          33.000                  
G29  20912654.153    20912654.099    20912654.436                   -21066792.071 9 -21066792.073 9                 -16415681.075 9       545.000         674.000        1230.000                  
G30  24881896.143    24881896.895    24881900.388                     -738862.617 7   -738862.632 6                   -575740.134 7        79.000          26.000          87.000                  
> 2024 10 31 10 09 10.0000000  0 11
G05  20537593.179    20537592.978    20537592.717                   -18064832.059 9 -18064832.059 9                 -14076490.374 9       633.000         950.000        1343.000                  
G06  24791399.444    24791397.949    24791404.612                     -915489.174 7   -915489.188 6                   -713368.677 6        53.000          23.000          47.000                  
G11  21394987.002    21394986.766    21394987.520                   -18759931.144 8 -18759931.146 8                 -14618123.974 8       464.000         266.000         288.000                  
G13  19148374.157    19148373.681    19148373.745                   -26042327.420 9 -26042327.420 8                 -20292717.181 9       801.000         378.000         839.000                  
G15  19975893.630    19975893.414    19975894.068                   -24890809.176 9 -24890809.178 9                 -19395427.624 9       703.000        1128.000        1553.000                  
G18  25041828.539    25041847.546    25041857.661                     -524737.035 7   -524737.044 6                   -408886.460 6        88.000          22.000          18.000                  
G20  21813707.799    21813706.767    21813707.821                   -15322287.533 8 -15322287.539 7                 -11939443.525 8       292.000          77.000         119.000                  
G24  25566655.756    25566657.757    25566660.846                     8499045.800 7   8499045.804 6                   6622629.796 6        58.000          23.000          19.000                  
G25  25053010.907    25053009.278    25053014.675                     4496169.710 7   4496169.685 6                   3503511.690 6        74.000          22.000          31.000                  
G29  20891441.454    20891441.096    20891441.439                   -21178267.167 9 -21178267.168 9                 -16502544.741 9       551.000         680.000        1257.000                  
G30  24842882.712    24842881.775    24842884.954                     -943890.028 7   -943890.032 6                   -735501.658 7        78.000          30.000          94.000                  
> 2024 10 31 10 09 20.0000000  0 11
G05  20492486.480    20492486.085    20492485.984                   -18301869.411 9 -18301869.410 9                 -14261194.730 9       635.000         975.000        1345.000                  
G06  24814433.892    24814430.929    24814436.812                     -794452.633 7   -794452.633 6                   -619054.462 6        54.000          25.000          45.000                  
G11  21387925.919    21387925.734    21387926.287                   -18797037.269 8 -18797037.271 8                 -14647037.800 8       464.000         255.000         296.000                  
G13  19151892.260    19151891.908    19151892.027                   -26023838.037 9 -26023838.037 8                 -20278309.824 9       798.000         379.000         828.000                  
G15  20006790.664    20006790.426    20006791.107                   -24728444.138 9 -24728444.139 9                 -19268909.369 9       709.000        1146.000        1533.000                  
G18  24997011.360    24997026.777    24997062.347                     -760253.310 7   -760253.301 6                   -592408.090 6        93.000          20.000          16.000                  
G20  21766201.640    21766200.017    21766201.192                   -15571936.021 8 -15571936.012 7                 -12133974.756 8       293.000          76.000         131.000                  
G24  25633129.774    25633132.334    25633136.290                     8848374.708 7   8848374.687 6                   6894834.031 6        54.000          23.000          27.000                  
G25  25102265.177    25102263.692    25102269.246                     4755008.059 7   4755008.084 6                   3705203.928 6        72.000          27.000          33.000                  
G29  20871238.270    20871237.620    20871238.071                   -21284436.505 9 -21284436.507 9                 -16585274.050 9       560.000         693.000        1282.000                  
G30  24803945.358    24803945.087    24803947.905                    -1148505.233 7  -1148505.245 6                   -894941.947 7        82.000          24.000          96.000                  
> 2024 10 31 10 09 30.0000000  0 11
G05  20448024.863    20448024.625    20448024.510                   -18535516.042 9 -18535516.041 9                 -14443256.987 9       653.000        1026.000        1375.000                  
G06  24837862.488    24837861.347    24837867.740                     -671326.779 7   -671326.755 6                   -523112.087 6        53.000          26.000          39.000                  
G11  21381759.016    21381758.686    21381759.478                   -18829444.374 8 -18829444.375 8                 -14672290.046 8       458.000         257.000         306.000                  
G13  19156150.798    19156150.161    19156150.320                   -26001460.205 9 -26001460.204 8                 -20260872.491 9       792.000         371.000         824.000                  
G15  20038327.651    20038327.624    20038328.245                   -24562714.870 9 -24562714.871 9                 -19139769.602 9       707.000        1146.000        1528.000                  
G18  24952393.230    24952401.673    24952409.694                     -994725.210 7   -994725.218 6                   -775110.934 6        96.000          23.000          19.000                  
G20  21719254.480    21719252.862    21719254.302                   -15818644.640 8 -15818644.646 7                 -12326215.191 8       303.000          74.000         130.000                  
G24  25699616.415    25699615.111    25699619.695                     9197750.436 7   9197750.446 6                   7167074.757 6        54.000          27.000          18.000                  
G25  25151869.131    25151867.226    25151874.069                     5015680.622 7   5015680.624 6                   3908325.349 6        65.000          23.000          29.000                  
G29  20852057.278    20852056.739    20852056.915                   -21385233.317 9 -21385233.317 9                 -16663816.958 9       569.000         721.000        1294.000                  
G30  24765096.959    24765095.574    24765099.551                    -1352655.646 7  -1352655.612 6                  -1054020.055 8        81.000          26.000         104.000                  
> 2024 10 31 10 09 40.0000000  0 11
G05  20404211.342    20404211.010    20404210.868                   -18765757.882 9 -18765757.882 9                 -14622666.160 9       671.000        1079.000        1405.000                  
G06  24861676.745    24861676.690    24861681.958                     -546175.375 7   -546175.383 6                   -425591.431 6        51.000          23.000          37.000                  
G11  21376480.208    21376480.074    21376481.031                   -18857183.569 8 -18857183.571 8                 -14693904.952 8       459.000         262.000         302.000                  
G13  19161141.674    19161141.319    19161141.456                   -25975231.630 9 -25975231.630 8                 -20240434.588 9       788.000         383.000         810.000                  
G15  20070493.732    20070493.560    20070494.190                   -24393681.655 9 -24393681.655 9                 -19008055.370 9       698.000        1108.000        1490.000                  
G18  24907975.082    24907978.895    24908010.308                    -1228142.798 8  -1228142.785 6                   -956997.211 6       102.000          22.000          18.000                  
G20  21672868.236    21672867.094    21672867.799                   -16062405.859 8 -16062405.857 7                 -12516158.944 8       323.000          90.000         143.000                  
G24  25766097.980    25766095.746    25766100.473                     9547108.705 7   9547108.691 6                   7439301.879 6        51.000          22.000          21.000                  
G25  25201808.475    25201807.745    25201812.887                     5278116.930 7   5278116.929 6                   4112821.163 6        68.000          25.000          29.000                  
G29  20833898.603    20833898.138    20833898.305                   -21480657.077 9 -21480657.078 9                 -16738173.092 9       572.000         722.000        1325.000                  
G30  24726333.157    24726332.975    24726336.203                    -1556353.512 7  -1556353.494 6                  -1212745.563 8        81.000          28.000         106.000                  
> 2024 10 31 10 09 50.0000000  0  9
G05  20361056.872    20361056.475    20361056.380                   -18992536.235 9 -18992536.236 9                 -14799376.506 9       679.000        1097.000        1455.000                  
G11  21372092.546    21372092.396    21372092.982                   -18880242.058 8 -18880242.057 8                 -14711872.561 8       473.000         272.000         317.000                  
G13  19166866.969    19166866.363    19166866.530                   -25945145.617 9 -25945145.618 8                 -20216990.884 9       781.000         366.000         797.000                  
G15  20103285.488    20103285.217    20103285.907                   -24221359.876 9 -24221359.878 9                 -18873778.640 9       688.000        1071.000        1458.000                  
G18  24863768.847    24863769.095    24863776.288                    -1460450.830 8  -1460450.811 6                  -1138015.584 6       107.000          28.000          26.000                  
G20  21627052.772    21627051.514    21627052.201                   -16303167.348 8 -16303167.348 7                 -12703765.243 8       334.000         100.000         156.000                  
G25  25252079.906    25252078.608    25252084.466                     5542291.549 7   5542291.551 6                   4318671.465 6        68.000          23.000          32.000                  
G29  20816770.936    20816770.498    20816770.592                   -21570663.490 9 -21570663.492 9                 -16808307.904 9       575.000         735.000        1326.000                  
G30  24687663.810    24687661.879    24687666.673                    -1759565.657 7  -1759565.680 6                  -1371092.578 8        83.000          26.000         113.000                  
> 2024 10 31 10 10  0.0000000  0  9
G05  20318574.554    20318574.232    20318574.050                   -19215781.685 9 -19215781.685 9                 -14973333.946 9       688.000        1117.000        1497.000                  
G11  21368599.475    21368599.348    21368600.053                   -18898597.057 8 -18898597.057 8                 -14726175.113 8       484.000         283.000         334.000                  
G13  19173329.353    19173328.850    19173328.960                   -25911184.942 9 -25911184.940 8                 -20190527.953 9       781.000         370.000         793.000                  
G15  20136701.972    20136701.941    20136702.593                   -24045754.286 9 -24045754.287 9                 -18736943.120 9       685.000        1059.000        1406.000                  
G18  24819786.501    24819784.791    24819785.516                    -1691582.965 8  -1691582.970 6                  -1318118.432 6       112.000          23.000          33.000                  
G20  21581820.273    21581819.034    21581819.832                   -16540865.907 8 -16540865.910 7                 -12888984.836 8       347.000          92.000         164.000                  
G25  25302679.967    25302677.752    25302683.375                     5808190.026 7   5808190.029 6                   4525865.065 6        64.000          27.000          33.000                  
G29  20800684.189    20800683.909    20800684.040                   -21655198.799 9 -21655198.802 9                 -16874179.528 9       567.000         722.000        1315.000                  
G30  24649095.312    24649093.120    24649097.109                    -1962247.778 7  -1962247.773 6                  -1529026.582 8        85.000          28.000         108.000                  
> 2024 10 31 10 10 10.0000000  0  9
G05  20276765.991    20276765.785    20276765.630                   -19435486.401 9 -19435486.400 9                 -15144532.372 9       693.000        1157.000        1558.000                  
G11  21365994.183    21365993.858    21365994.549                   -18912288.551 8 -18912288.551 8                 -14736843.767 8       489.000         294.000         333.000                  
G13  19180520.689    19180519.997    19180520.110                   -25873394.720 9 -25873394.720 8                 -20161080.957 9       782.000         368.000         788.000                  
G15  20170730.902    20170730.777    20170731.382                   -23866931.491 9 -23866931.492 9                 -18597600.686 9       677.000        1040.000        1350.000                  
G18  24776026.833    24776025.699    24776026.651                    -1921534.297 8  -1921534.314 6                  -1497301.205 6       114.000          29.000          37.000                  
G20  21537170.998    21537169.316    21537170.444                   -16775500.250 8 -16775500.249 8                 -13071816.711 8       355.000         107.000         173.000                  
G25  25353592.166    25353589.854    25353595.696                     6075736.292 7   6075736.325 6                   4734342.631 6        66.000          20.000          30.000                  
G29  20785637.262    20785636.690    20785636.824                   -21734272.071 9 -21734272.073 9                 -16935795.013 9       568.000         727.000        1322.000                  
G30  24610623.233    24610622.151    24610626.032                    -2164416.991 7  -2164416.995 6                  -1686560.932 8        89.000          34.000         121.000                  
> 2024 10 31 10 10 20.0000000  0  9
G05  20235646.077    20235645.577    20235645.483                   -19651574.343 9 -19651574.344 9                 -15312912.549 9       700.000        1165.000        1637.000                  
G11  21364281.725    21364281.162    21364282.031                   -18921288.803 8 -18921288.803 8                 -14743856.913 8       491.000         296.000         342.000                  
G13  19188444.919    19188444.488    19188444.407                   -25831751.854 9 -25831751.854 8                 -20128631.913 9       784.000         368.000         790.000                  
G15  20205372.562    20205372.189    20205372.741                   -23684889.504 9 -23684889.506 9                 -18455749.748 9       672.000        1010.000        1307.000                  
G18  24732506.869    24732506.754    24732507.937                    -2150230.912 8  -2150230.884 6                  -1675506.292 6       116.000          27.000          38.000                  
G20  21493117.713    21493116.527    21493117.368                   -17007000.593 8 -17007000.597 8                 -13252206.536 8       363.000         119.000         199.000                  
G25  25404816.484    25404814.706    25404820.496                     6344923.112 7   6344923.124 6                   4944098.563 6        62.000          24.000          27.000                  
G29  20771640.387    20771639.947    20771640.062                   -21807825.168 9 -21807825.169 9                 -16993109.068 9       570.000         733.000        1303.000                  
G30  24572258.840    24572257.773    24572262.063                    -2366021.298 7  -2366021.290 6                  -1843655.118 8        93.000          32.000         132.000                  
> 2024 10 31 10 10 30.0000000  0  9
G05  20195217.179    20195216.874    20195216.820                   -19864027.976 9 -19864027.977 9                 -15478460.770 9       703.000        1173.000        1743.000                  
G11  21363455.352    21363455.106    21363455.858                   -18925629.602 8 -18925629.601 8                 -14747239.312 8       490.000         296.000         335.000                  
G13  19197095.581    19197095.123    19197095.090                   -25786292.368 9 -25786292.368 8                 -20093208.886 9       799.000         384.000         816.000                  
G15  20240615.393    20240615.347    20240615.788                   -23499685.278 9 -23499685.279 9                 -18311434.716 9       660.000         981.000        1224.000                  
G18  24689229.343    24689229.313    24689230.120                    -2377657.085 8  -2377657.095 6                  -1852721.414 6       119.000          30.000          36.000                  
G20  21449663.272    21449661.844    21449662.622                   -17235355.576 8 -17235355.579 8                 -13430145.390 8       378.000         122.000         211.000                  
G25  25456340.783    25456338.924    25456343.855                     6615684.770 7   6615684.780 6                   5155081.714 6        58.000          25.000          26.000                  
G29  20758693.936    20758693.392    20758693.548                   -21875859.622 9 -21875859.623 9                 -17046122.891 9       573.000         726.000        1322.000                  
G30  24534001.079    24534000.651    24534004.041                    -2567066.991 7  -2567066.992 6                  -2000314.009 8        96.000          37.000         139.000                  
> 2024 10 31 10 10 40.0000000  0  9
G05  20155491.420    20155491.061    20155491.060                   -20072788.449 9 -20072788.449 9                 -15641131.223 9       708.000        1188.000        1860.000                  
G11  21363517.973    21363517.520    21363518.235                   -18925301.758 8 -18925301.759 8                 -14746983.808 8       488.000         289.000         331.000                  
G13  19206473.414    19206473.073    19206473.111                   -25737010.847 9 -25737010.847 8                 -20054807.656 9       809.000         394.000         830.000                  
G15  20276457.661    20276457.427    20276457.782                   -23311333.926 9 -23311333.926 9                 -18164667.377 9       647.000         951.000        1172.000                  
G18  24646204.794    24646204.506    24646203.972                    -2603754.929 8  -2603754.936 6                  -2028901.482 6       119.000          28.000          38.000                  
G20  21406817.172    21406815.934    21406816.586                   -17460512.482 8 -17460512.478 8                 -13605592.280 8       376.000         116.000         213.000                  
G25  25508157.669    25508158.353    25508163.631                     6887997.718 7   6887997.745 6                   5367273.537 6        56.000          26.000          28.000                  
G29  20746804.878    20746804.391    20746804.607                   -21938336.408 9 -21938336.410 9                 -17094806.057 9       571.000         728.000        1343.000                  
G30  24495855.397    24495855.749    24495859.300                    -2767518.109 8  -2767518.097 6                  -2156509.608 8       101.000          32.000         141.000                  
> 2024 10 31 10 10 50.0000000  0  9
G05  20116476.495    20116476.013    20116475.996                   -20277813.760 9 -20277813.760 9                 -15800891.153 9       710.000        1215.000        1937.000                  
G11  21364466.903    21364466.712    21364467.231                   -18920314.258 8 -18920314.259 8                 -14743097.413 8       492.000         291.000         333.000                  
G13  19216576.521    19216575.923    19216575.920                   -25683919.475 9 -25683919.473 8                 -20013437.673 9       818.000         395.000         828.000                  
G15  20312892.588    20312892.172    20312892.446                   -23119867.725 9 -23119867.726 9                 -18015472.877 9       642.000         936.000        1129.000                  
G18  24603440.188    24603440.003    24603440.307                    -2828483.450 8  -2828483.421 6                  -2204014.549 6       120.000          26.000          41.000                  
G20  21364586.343    21364585.133    21364585.936                   -17682435.477 8 -17682435.477 8                 -13778519.217 8       358.000         108.000         206.000                  
G25  25560263.041    25560265.232    25560269.939                     7161821.238 6   7161821.238 6                   5580642.509 6        49.000          23.000          25.000                  
G29  20735977.535    20735976.982    20735977.130                   -21995235.032 9 -21995235.032 9                 -17139142.626 9       577.000         750.000        1343.000                  
G30  24457829.583    24457828.379    24457831.437                    -2967355.403 8  -2967355.369 6                  -2312226.901 8       102.000          38.000         155.000                  
> 2024 10 31 10 11  0.0000000  0  8
G05  20078177.794    20078177.507    20078177.394                   -20479073.514 9 -20479073.515 9                 -15957716.895 9       712.000        1201.000        1961.000                  
G11  21366298.588    21366298.356    21366299.159                   -18910688.058 8 -18910688.059 8                 -14735596.432 8       483.000         285.000         327.000                  
G13  19227399.712    19227399.237    19227399.222                   -25627042.026 9 -25627042.026 8                 -19969117.519 9       816.000         392.000         821.000                  
G15  20349911.610    20349911.345    20349911.622                   -22925330.398 9 -22925330.399 9                 -17863885.296 9       636.000         913.000        1105.000                  
G18  24560941.454    24560941.147    24560942.985                    -3051812.309 8  -3051812.290 6                  -2378036.989 6       119.000          26.000          36.000                  
G20  21322976.058    21322974.483    21322975.338                   -17901100.158 8 -17901100.158 8                 -13948907.196 8       357.000         103.000         205.000                  
G29  20726212.955    20726212.538    20726212.699                   -22046547.313 9 -22046547.315 9                 -17179126.170 9       590.000         775.000        1345.000                  
G30  24419918.965    24419918.792    24419922.196                    -3166570.575 8  -3166570.594 6                  -2467459.429 8       103.000          32.000         156.000                  
> 2024 10 31 10 11 10.0000000  0  8
G05  20040606.422    20040606.098    20040605.955                   -20676512.537 9 -20676512.538 9                 -16111565.458 9       707.000        1202.000        1991.000                  
G11  21369013.807    21369013.578    21369014.155                   -18896419.874 8 -18896419.875 8                 -14724478.296 8       478.000         276.000         321.000                  
G13  19238943.610    19238943.192    19238943.237                   -25566377.575 9 -25566377.574 8                 -19921846.460 9       818.000         399.000         817.000                  
G15  20387511.835    20387511.412    20387511.725                   -22727740.336 9 -22727740.337 9                 -17709918.947 9       636.000         907.000        1092.000                  
G18  24518720.085    24518719.740    24518720.741                    -3273685.879 8  -3273685.896 6                  -2550925.452 6       116.000          24.000          38.000                  
G20  21281994.860    21281993.447    21281994.284                   -18116457.200 8 -18116457.201 8                 -14116717.815 8       372.000         113.000         194.000                  
G29  20717517.807    20717517.228    20717517.360                   -22092241.330 9 -22092241.332 9                 -17214731.860 9       602.000         805.000        1342.000                  
G30  24382135.076    24382133.589    24382137.253                    -3365129.556 8  -3365129.559 6                  -2622180.601 8       109.000          31.000         170.000                  
> 2024 10 31 10 11 20.0000000  0  8
G05  20003769.129    20003768.685    20003768.612                   -20870094.406 9 -20870094.406 9                 -16262408.442 9       708.000        1201.000        2049.000                  
G11  21372608.965    21372608.738    21372609.399                   -18877526.158 8 -18877526.158 8                 -14709755.861 8       474.000         273.000         299.000                  
G13  19251204.872    19251204.284    19251204.312                   -25501944.521 9 -25501944.521 8                 -19871638.855 9       819.000         394.000         804.000                  
G15  20425685.552    20425685.469    20425685.635                   -22527134.690 9 -22527134.692 9                 -17553602.742 9       637.000         913.000        1073.000                  
G18  24476783.651    24476782.223    24476783.546                    -3494066.816 8  -3494066.792 6                  -2722650.786 6       118.000          24.000          39.000                  
G20  21241649.003    21241647.693    21241648.254                   -18328476.080 8 -18328476.083 8                 -14281927.279 8       379.000         118.000         194.000                  
G29  20709894.198    20709893.363    20709893.361                   -22132305.206 9 -22132305.207 9                 -17245950.416 9       612.000         838.000        1352.000                  
G30  24344479.082    24344477.523    24344480.374                    -3563016.852 8  -3563016.858 6                  -2776378.383 8       108.000          35.000         167.000                  
> 2024 10 31 10 11 30.0000000  0  8
G05  19967672.224    19967671.933    19967671.932                   -21059783.514 9 -21059783.515 9                 -16410218.079 9       713.000        1219.000        2141.000                  
G11  21377081.157    21377080.978    21377081.441                   -18854024.789 8 -18854024.791 8                 -14691443.052 8       477.000         280.000         297.000                  
G13  19264179.492    19264179.115    19264179.062                   -25433761.924 9 -25433761.925 8                 -19818509.526 9       818.000         400.000         795.000                  
G15  20464426.109    20464425.922    20464426.196                   -22323551.483 9 -22323551.483 9                 -17394966.383 9       630.000         881.000        1086.000                  
G18  24435137.534    24435136.953    24435138.294                    -3712918.194 8  -3712918.228 6                  -2893184.307 6       122.000          28.000          44.000                  
G20  21201943.880    21201942.600    21201943.438                   -18537126.990 8 -18537126.992 8                 -14444512.334 8       388.000         128.000         195.000                  
G29  20703343.149    20703342.648    20703342.762                   -22166729.146 9 -22166729.146 9                 -17272774.232 9       615.000         827.000        1402.000                  
G30  24306952.467    24306951.203    24306954.297                    -3760217.134 8  -3760217.150 6                  -2930040.859 8       109.000          32.000         185.000                  
> 2024 10 31 10 11 40.0000000  0  8
G05  19932327.202    19932326.765    19932326.776                   -21245523.641 9 -21245523.642 9                 -16554950.621 9       718.000        1230.000        2151.000                  
G11  21382430.460    21382430.213    21382430.727                   -18825913.396 8 -18825913.397 8                 -14669538.023 8       483.000         285.000         294.000                  
G13  19277867.961    19277867.625    19277867.603                   -25361828.372 9 -25361828.371 8                 -19762457.403 9       821.000         391.000         778.000                  
G15  20503730.088    20503729.803    20503730.193                   -22117007.576 9 -22117007.577 9                 -17234023.028 9       616.000         854.000        1070.000                  
G18  24393793.396    24393792.316    24393793.507                    -3930181.527 8  -3930181.543 6                  -3062480.323 6       127.000          25.000          38.000                  
G20  21162889.699    21162888.416    21162888.902                   -18742359.352 8 -18742359.352 8                 -14604433.615 8       408.000         139.000         187.000                  
G29  20697871.532    20697870.876    20697870.934                   -22195483.359 9 -22195483.361 9                 -17295180.046 9       619.000         849.000        1403.000                  
G30  24269562.996    24269562.577    24269566.099                    -3956693.568 8  -3956693.574 6                  -3083139.289 8       113.000          39.000         180.000                  
> 2024 10 31 10 11 50.0000000  0  8
G05  19897739.146    19897738.806    19897738.825                   -21427284.705 9 -21427284.706 9                 -16696582.609 9       730.000        1263.000        2170.000                  
G11  21388652.727    21388652.439    21388652.745                   -18793216.298 8 -18793216.298 8                 -14644059.727 8       482.000         282.000         280.000                  
G13  19292265.580    19292265.139    19292265.163                   -25286168.416 9 -25286168.415 8                 -19703501.536 9       805.000         391.000         780.000                  
G15  20543589.346    20543589.084    20543589.426                   -21907545.410 9 -21907545.411 9                 -17070805.694 9       603.000         825.000        1061.000                  
G18  24352758.286    24352757.496    24352758.521                    -4145824.037 8  -4145824.014 6                  -3230513.336 6       125.000          32.000          37.000                  
G20  21124490.335    21124489.327    21124489.341                   -18944148.534 8 -18944148.533 8                 -14761671.887 8       423.000         151.000         183.000                  
G29  20693478.819    20693478.400    20693478.488                   -22218565.440 9 -22218565.441 9                 -17313166.016 9       616.000         841.000        1431.000                  
G30  24232314.732    24232314.550    24232317.685                    -4152434.702 8  -4152434.700 6                  -3235664.765 8       119.000          37.000         196.000                  
> 2024 10 31 10 12  0.0000000  0  8
G05  19863914.710    19863914.296    19863914.254                   -21605033.515 9 -21605033.516 9                 -16835088.164 9       740.000        1302.000        2107.000                  
G11  21395743.046    21395742.698    21395743.231                   -18755955.037 8 -18755955.038 8                 -14615024.932 8       481.000         287.000         273.000                  
G13  19307368.090    19307367.675    19307367.776                   -25206803.662 9 -25206803.662 8                 -19641658.830 9       809.000         392.000         746.000                  
G15  20583996.566    20583996.178    20583996.633                   -21695203.989 9 -21695203.989 9                 -16905344.783 9       592.000         794.000        1017.000                  
G18  24312037.944    24312037.927    24312037.684                    -4359809.009 8  -4359809.023 6                  -3397254.814 6       130.000          28.000          34.000                  
G20  21086751.721    21086750.361    21086750.777                   -19142466.418 8 -19142466.418 8                 -14916205.235 8       445.000         167.000         180.000                  
G29  20690166.591    20690166.223    20690166.257                   -22235970.725 9 -22235970.726 9                 -17326728.521 9       610.000         837.000        1406.000                  
G30  24195209.719    24195209.462    24195212.392                    -4347425.175 8  -4347425.165 6                  -3387605.305 8       118.000          40.000         211.000                  
> 2024 10 31 10 12 10.0000000  0  8
G05  19830864.204    19830863.743    19830863.603                   -21778715.211 9 -21778715.211 9                 -16970424.512 9       751.000        1355.000        2130.000                  
G11  21403701.820    21403701.576    21403702.290                   -18714130.593 8 -18714130.595 8                 -14582434.405 8       477.000         273.000         300.000                  
G13  19323175.811    19323175.123    19323175.105                   -25123734.602 9 -25123734.603 8                 -19576929.657 9       811.000         389.000         727.000                  
G15  20624948.145    20624948.039    20624948.242                   -21480000.786 9 -21480000.786 9                 -16737653.914 9       581.000         762.000         988.000                  
G18  24271644.835    24271644.575    24271644.065                    -4572077.945 8  -4572077.948 6                  -3562659.136 6       133.000          31.000          45.000                  
G20  21049683.167    21049681.679    21049681.712                   -19337263.923 8 -19337263.928 8                 -15067995.493 8       475.000         185.000         178.000                  
G29  20687939.302    20687939.031    20687939.054                   -22247674.385 9 -22247674.387 9                 -17335848.193 9       613.000         837.000        1444.000                  
G30  24158253.286    24158253.504    24158256.629                    -4541627.805 8  -4541627.794 6                  -3538931.971 8       127.000          33.000         218.000                  
> 2024 10 31 10 12 20.0000000  0  8
G05  19798592.771    19798592.535    19798592.387                   -21948301.303 9 -21948301.304 9                 -17102569.487 9       768.000        1415.000        2142.000                  
G11  21412524.223    21412523.777    21412524.369                   -18667770.518 8 -18667770.518 8                 -14546309.618 8       482.000         280.000         295.000                  
G13  19339682.914    19339682.596    19339682.475                   -25036987.674 9 -25036987.674 8                 -19509334.610 9       811.000         390.000         708.000                  
G15  20666436.281    20666436.084    20666436.450                   -21261979.011 9 -21261979.012 9                 -16567766.765 9       573.000         742.000         961.000                  
G18  24231583.812    24231583.640    24231583.306                    -4782597.896 8  -4782597.890 6                  -3726700.589 6       134.000          32.000          50.000                  
G20  21013288.393    21013287.471    21013287.540                   -19528517.541 8 -19528517.540 8                 -15217024.243 8       490.000         203.000         190.000                  
G29  20686796.902    20686796.360    20686796.442                   -22253678.857 9 -22253678.858 9                 -17340526.947 9       608.000         822.000        1437.000                  
G30  24121449.166    24121450.158    24121453.257                    -4735030.679 8  -4735030.685 6                  -3689635.427 8       124.000          42.000         232.000                  
> 2024 10 31 10 12 30.0000000  0  8
G05  19767106.880    19767106.702    19767106.542                   -22113760.614 9 -22113760.614 9                 -17231498.798 9       784.000        1480.000        2150.000                  
G11  21422204.294    21422204.116    21422204.436                   -18616899.989 8 -18616899.989 8                 -14506670.206 8       484.000         288.000         282.000                  
G13  19356885.759    19356885.535    19356885.164                   -24946586.547 9 -24946586.548 8                 -19438892.176 9       818.000         393.000         689.000                  
G15  20708453.224    20708452.912    20708453.189                   -21041178.555 9 -21041178.555 9                 -16395714.386 9       571.000         715.000         901.000                  
G18  24191863.507    24191862.695    24191862.062                    -4991332.454 8  -4991332.444 6                  -3889350.838 6       139.000          29.000          42.000                  
G20  20977573.804    20977572.479    20977572.423                   -19716201.167 9 -19716201.168 8                 -15363271.182 8       520.000         218.000         189.000                  
G29  20686738.782    20686738.181    20686738.106                   -22253984.658 9 -22253984.661 9                 -17340765.180 9       607.000         818.000        1421.000                  
G30  24084802.749    24084801.565    24084805.138                    -4927618.428 8  -4927618.425 6                  -3839703.731 8       125.000          41.000         254.000                  
> 2024 10 31 10 12 40.0000000  0  8
G05  19736416.419    19736416.230    19736416.079                   -22275040.369 9 -22275040.370 9                 -17357171.317 9       806.000        1545.000        2165.000                  
G11  21432742.294    21432741.933    21432742.371                   -18561522.956 8 -18561522.957 8                 -14463519.240 8       478.000         277.000         273.000                  
G13  19374783.664    19374783.039    19374783.108                   -24852533.132 9 -24852533.131 8                 -19365603.768 9       816.000         398.000         671.000                  
G15  20750995.367    20750995.320    20750995.421                   -20817617.352 9 -20817617.352 9                 -16221510.813 9       561.000         703.000         851.000                  
G18  24152492.698    24152492.435    24152492.968                    -5198222.930 8  -5198222.928 6                  -4050564.150 6       141.000          34.000          44.000                  
G20  20942547.165    20942545.896    20942545.820                   -19900266.934 9 -19900266.934 8                 -15506699.044 8       533.000         234.000         184.000                  
G29  20687768.626    20687768.164    20687768.200                   -22248571.730 9 -22248571.732 9                 -17336547.278 9       602.000         812.000        1406.000                  
G30  24048316.207    24048315.530    24048319.085                    -5119353.195 8  -5119353.193 6                  -3989107.364 8       126.000          42.000         255.000                  
> 2024 10 31 10 12 50.0000000  0  8
G05  19706526.473    19706526.006    19706525.844                   -22432114.427 9 -22432114.428 9                 -17479566.672 9       816.000        1593.000        2199.000                  
G11  21444131.856    21444131.573    21444132.220                   -18501670.369 8 -18501670.367 8                 -14416880.821 8       471.000         270.000         273.000                  
G13  19393370.856    19393370.440    19393370.317                   -24754856.037 9 -24754856.037 8                 -19289491.668 9       818.000         390.000         688.000                  
G15  20794054.701    20794054.462    20794054.674                   -20591339.421 9 -20591339.422 9                 -16045190.355 9       553.000         695.000         820.000                  
G18  24113479.915    24113479.387    24113479.264                    -5403236.729 8  -5403236.727 6                  -4210315.144 6       145.000          36.000          48.000                  
G20  20908212.935    20908211.909    20908211.806                   -20080693.275 9 -20080693.275 8                 -15647290.953 8       514.000         215.000         199.000                  
G29  20689885.412    20689885.022    20689884.876                   -22237447.562 9 -22237447.563 9                 -17327879.062 9       600.000         811.000        1387.000                  
G30  24011994.194    24011993.912    24011997.557                    -5310223.123 8  -5310223.114 7                  -4137837.085 8       131.000          54.000         277.000                  
> 2024 10 31 10 13  0.0000000  0  8
G05  19677441.963    19677441.660    19677441.500                   -22584953.489 9 -22584953.488 9                 -17598662.031 9       825.000        1632.000        2115.000                  
G11  21456367.456    21456367.218    21456367.928                   -18437370.408 8 -18437370.407 8                 -14366776.892 8       464.000         270.000         274.000                  
G13  19412642.843    19412642.469    19412642.377                   -24653580.662 9 -24653580.661 8                 -19210575.762 9       816.000         399.000         669.000                  
G15  20837623.208    20837623.061    20837623.129                   -20362384.928 9 -20362384.930 9                 -15866784.218 9       551.000         681.000         758.000                  
G18  24074831.063    24074830.935    24074831.466                    -5606337.311 8  -5606337.297 6                  -4368575.299 7       151.000          36.000          58.000                  
G20  20874576.142    20874574.836    20874575.364                   -20257455.593 9 -20257455.594 8                 -15785027.800 8       502.000         204.000         230.000                  
G29  20693088.114    20693087.627    20693087.473                   -22220617.683 9 -22220617.685 9                 -17314764.849 9       600.000         802.000        1346.000                  
G30  23975840.790    23975839.984    23975843.930                    -5500212.349 8  -5500212.351 6                  -4285880.570 8       129.000          43.000         277.000                  
> 2024 10 31 10 13 10.0000000  0  8
G05  19649173.135    19649172.810    19649172.621                   -22733507.127 9 -22733507.126 9                 -17714418.133 9       822.000        1632.000        2034.000                  
G11  21469448.331    21469448.014    21469448.541                   -18368630.339 8 -18368630.338 8                 -14313213.159 8       458.000         259.000         260.000                  
G13  19432598.890    19432598.445    19432598.444                   -24548710.788 9 -24548710.788 8                 -19128858.934 9       823.000         411.000         654.000                  
G15  20881697.848    20881697.496    20881697.481                   -20130772.655 9 -20130772.656 9                 -15686307.103 9       539.000         653.000         712.000                  
G18  24036557.318    24036556.742    24036557.568                    -5807466.315 8  -5807466.331 6                  -4525299.178 7       156.000          35.000          58.000                  
G20  20841645.466    20841644.202    20841644.543                   -20430507.678 9 -20430507.677 8                 -15919873.534 8       501.000         197.000         251.000                  
G29  20697379.434    20697378.820    20697378.739                   -22198067.098 9 -22198067.098 9                 -17297192.938 9       599.000         803.000        1344.000                  
G30  23939862.505    23939861.447    23939864.763                    -5689282.852 8  -5689282.844 6                  -4433208.169 8       128.000          42.000         276.000                  
> 2024 10 31 10 13 20.0000000  0  8
G05  19621724.352    19621724.049    19621723.854                   -22877751.505 9 -22877751.505 9                 -17826816.340 9       827.000        1645.000        2107.000                  
G11  21483367.383    21483367.306    21483367.793                   -18295484.384 8 -18295484.386 8                 -14256216.269 8       461.000         264.000         264.000                  
G13  19453233.190    19453232.692    19453232.798                   -24440276.915 9 -24440276.914 8                 -19044364.986 9       823.000         407.000         659.000                  
G15  20926269.391    20926269.012    20926269.085                   -19896546.791 9 -19896546.791 9                 -15503793.408 9       524.000         613.000         713.000                  
G18  23998665.446    23998664.962    23998665.033                    -6006591.404 8  -6006591.396 6                  -4680461.562 7       162.000          40.000          63.000                  
G20  20809424.373    20809422.747    20809423.682                   -20599830.169 8 -20599830.170 8                 -16051813.116 8       489.000         202.000         271.000                  
G29  20702756.531    20702756.215    20702756.085                   -22169808.593 9 -22169808.595 9                 -17275173.297 9       594.000         782.000        1405.000                  
G30  23904059.384    23904059.552    23904062.865                    -5877422.573 8  -5877422.579 6                  -4579810.478 8       133.000          44.000         293.000                  
> 2024 10 31 10 13 30.0000000  0  9
G05  19595100.667    19595100.325    19595100.224                   -23017659.937 9 -23017659.937 9                 -17935835.884 9       825.000        1611.000        2145.000                  
G07  25280578.367    25280575.583    25280584.148                     -272410.853 8   -272410.871 6                   -212269.658 6       112.000          29.000          26.000                  
G11  21498119.065    21498118.843    21498119.432                   -18217963.943 8 -18217963.941 8                 -14195810.688 8       459.000         262.000         249.000                  
G13  19474540.449    19474539.882    19474539.953                   -24328306.075 9 -24328306.075 8                 -18957114.915 9       814.000         394.000         639.000                  
G15  20971330.495    20971330.196    20971330.456                   -19659748.313 9 -19659748.314 9                 -15319275.088 9       503.000         579.000         686.000                  
G18  23961162.068    23961161.289    23961161.820                    -6203676.548 8  -6203676.532 6                  -4834034.383 7       167.000          41.000          70.000                  
G20  20777917.440    20777916.220    20777916.439                   -20765400.312 9 -20765400.312 8                 -16180828.780 8       502.000         208.000         274.000                  
G29  20709218.260    20709217.740    20709217.722                   -22135852.718 9 -22135852.719 9                 -17248714.147 9       595.000         786.000        1410.000                  
G30  23868438.995    23868437.995    23868441.097                    -6064615.523 8  -6064615.527 6                  -4725675.049 8       136.000          46.000         288.000                  
> 2024 10 31 10 13 40.0000000  0  9
G05  19569311.272    19569310.983    19569310.821                   -23153183.857 9 -23153183.857 9                 -18041438.916 9       823.000        1616.000        2151.000                  
G07  25220075.679    25220075.346    25220075.400                     -590352.627 8   -590352.598 6                   -460015.716 6       119.000          39.000          39.000                  
G11  21513701.518    21513700.989    21513701.374                   -18136078.799 8 -18136078.800 8                 -14132004.031 8       452.000         252.000         246.000                  
G13  19496520.039    19496519.375    19496519.303                   -24212803.433 9 -24212803.433 8                 -18867112.806 9       818.000         398.000         629.000                  
G15  21016877.667    21016877.490    21016877.806                   -19420395.718 8 -19420395.719 9                 -15132766.532 9       487.000         546.000         688.000                  
G18  23924056.824    23924055.810    23924056.976                    -6398663.176 8  -6398663.171 6                  -4985971.985 7       169.000          34.000          71.000                  
G20  20747132.865    20747131.703    20747132.116                   -20927173.446 9 -20927173.447 8                 -16306885.741 8       503.000         215.000         280.000                  
G29  20716766.056    20716765.424    20716765.337                   -22096189.315 9 -22096189.316 9                 -17217807.575 9       589.000         780.000        1391.000                  
G30  23833004.966    23833003.522    23833006.889                    -6250823.060 8  -6250823.064 6                  -4870771.766 8       140.000          49.000         293.000                  
> 2024 10 31 10 13 50.0000000  0  9
G05  19544360.032    19544359.853    19544359.764                   -23284302.466 9 -23284302.466 9                 -18143609.225 9       820.000        1614.000        2254.000                  
G07  25159613.652    25159613.388    25159613.633                     -908082.342 8   -908082.344 6                   -707597.256 7       121.000          44.000          67.000                  
G11  21530106.904    21530106.536    21530106.848                   -18049866.634 8 -18049866.634 8                 -14064825.660 8       449.000         251.000         241.000                  
G13  19519165.143    19519164.658    19519164.709                   -24093801.562 9 -24093801.562 8                 -18774384.029 9       808.000         394.000         663.000                  
G15  21062902.305    21062902.059    21062902.444                   -19178534.538 8 -19178534.539 9                 -14944303.239 9       470.000         502.000         717.000                  
G18  23887357.196    23887357.038    23887357.566                    -6591519.800 8  -6591519.788 6                  -5136249.842 7       172.000          46.000          82.000                  
G20  20717074.475    20717072.926    20717073.552                   -21085132.538 9 -21085132.538 8                 -16429970.736 8       518.000         219.000         309.000                  
G29  20725396.190    20725395.722    20725395.691                   -22050836.257 9 -22050836.259 9                 -17182467.517 9       584.000         753.000        1418.000                  
G30  23797760.069    23797759.137    23797762.511                    -6436033.306 8  -6436033.318 7                  -5015091.367 8       145.000          61.000         311.000                  
> 2024 10 31 10 14  0.0000000  0  9
G05  19520252.106    19520251.846    19520251.675                   -23410991.117 9 -23410991.117 9                 -18242327.642 9       821.000        1629.000        2263.000                  
G07  25099197.796    25099197.331    25099196.798                    -1225574.091 8  -1225574.103 6                   -954993.384 7       127.000          36.000          69.000                  
G11  21547329.383    21547329.160    21547329.381                   -17959361.145 8 -17959361.144 8                 -13994301.841 8       444.000         245.000         233.000                  
G13  19542470.883    19542470.428    19542470.514                   -23971328.579 9 -23971328.581 8                 -18678950.487 9       797.000         380.000         664.000                  
G15  21109396.435    21109396.245    21109396.707                   -18934205.430 8 -18934205.429 8                 -14753916.882 9       451.000         463.000         703.000                  
G18  23851069.774    23851069.724    23851070.136                    -6782210.048 8  -6782210.060 6                  -5284839.614 7       172.000          44.000          68.000                  
G20  20687745.701    20687744.335    20687744.858                   -21239256.027 9 -21239256.029 8                 -16550066.948 8       540.000         242.000         324.000                  
G29  20735106.448    20735106.067    20735105.929                   -21999808.442 9 -21999808.444 9                 -17142705.557 9       585.000         762.000        1383.000                  
G30  23762708.753    23762707.867    23762710.982                    -6620229.414 8  -6620229.419 7                  -5158620.746 8       149.000          52.000         304.000                  
> 2024 10 31 10 14 10.0000000  0  9
G05  19496995.684    19496995.416    19496995.260                   -23533204.194 9 -23533204.194 9                 -18337558.602 9       821.000        1618.000        2257.000                  
G07  25038834.972    25038834.677    25038833.667                    -1542780.087 8  -1542780.076 6                  -1202166.841 7       136.000          47.000          66.000                  
G11  21565366.418    21565366.160    21565366.400                   -17864575.602 8 -17864575.604 8                 -13920442.922 8       441.000         243.000         224.000                  
G13  19566435.896    19566435.271    19566435.321                   -23845391.817 9 -23845391.818 8                 -18580817.892 9       788.000         370.000         639.000                  
G15  21156356.786    21156356.576    21156356.945                   -18687427.774 8 -18687427.775 8                 -14561622.571 9       435.000         428.000         690.000                  
G18  23815206.087    23815205.715    23815205.723                    -6970676.363 8  -6970676.378 6                  -5431696.482 7       170.000          45.000          66.000                  
G20  20659154.721    20659153.604    20659154.006                   -21389501.872 9 -21389501.874 8                 -16667141.591 8       557.000         254.000         338.000                  
G29  20745897.466    20745897.048    20745896.891                   -21943101.186 9 -21943101.187 9                 -17098518.073 9       583.000         761.000        1310.000                  
G30  23727857.768    23727857.137    23727859.812                    -6803373.069 8  -6803373.048 7                  -5301330.041 8       149.000          58.000         304.000                  
> 2024 10 31 10 14 20.0000000  0  9
G05  19474594.507    19474594.153    19474594.056                   -23650923.545 9 -23650923.545 9                 -18429287.959 9       823.000        1619.000        2400.000                  
G07  24978531.133    24978530.369    24978530.235                    -1859678.852 8  -1859678.853 6                  -1449100.915 7       138.000          46.000          81.000                  
G11  21584210.316    21584209.948    21584210.294                   -17765550.623 8 -17765550.624 8                 -13843280.558 8       433.000         224.000         242.000                  
G13  19591053.546    19591053.013    19591052.906                   -23716025.186 9 -23716025.186 8                 -18480012.621 9       779.000         359.000         632.000                  
G15  21203774.197    21203773.942    21203774.374                   -18438247.417 8 -18438247.418 8                 -14367456.022 9       421.000         404.000         693.000                  
G18  23779771.638    23779770.781    23779771.362                    -7156887.735 8  -7156887.737 6                  -5576796.232 7       168.000          38.000          73.000                  
G20  20631304.572    20631303.541    20631303.981                   -21535855.191 9 -21535855.191 8                 -16781183.103 8       602.000         294.000         346.000                  
G29  20757764.742    20757764.470    20757764.358                   -21880737.611 9 -21880737.612 9                 -17049923.059 9       589.000         767.000        1323.000                  
G30  23693208.729    23693208.481    23693211.421                    -6985452.246 8  -6985452.259 7                  -5443209.863 8       156.000          59.000         318.000                  
> 2024 10 31 10 14 30.0000000  0  9
G05  19453052.541    19453052.284    19453052.253                   -23764126.472 9 -23764126.472 9                 -18517498.026 9       821.000        1627.000        2560.000                  
G07  24918290.846    24918290.502    24918289.638                    -2176243.020 8  -2176243.036 7                  -1695774.246 7       142.000          53.000          88.000                  
G11  21603853.936    21603853.494    21603854.042                   -17662322.116 8 -17662322.116 8                 -13762842.704 8       423.000         218.000         246.000                  
G13  19616318.234    19616317.670    19616317.516                   -23583258.033 9 -23583258.034 8                 -18376557.640 9       766.000         351.000         617.000                  
G15  21251641.247    21251640.897    21251641.401                   -18186704.865 8 -18186704.867 8                 -14171448.813 9       413.000         392.000         681.000                  
G18  23744771.906    23744771.998    23744771.965                    -7340807.840 8  -7340807.834 6                  -5720110.581 7       169.000          46.000          70.000                  
G20  20604199.128    20604197.962    20604198.170                   -21678296.325 9 -21678296.327 8                 -16892176.181 8       637.000         335.000         355.000                  
G29  20770704.905    20770704.492    20770704.345                   -21812737.143 9 -21812737.143 9                 -16996935.669 9       586.000         767.000        1259.000                  
G30  23658766.156    23658765.745    23658768.672                    -7166449.500 8  -7166449.499 7                  -5584246.658 8       161.000          65.000         341.000                  
> 2024 10 31 10 14 40.0000000  0  9
G05  19432378.199    19432377.932    19432377.909                   -23872771.043 9 -23872771.043 9                 -18602156.132 9       828.000        1642.000        2677.000                  
G07  24858122.600    24858122.847    24858122.549                    -2492424.694 8  -2492424.689 7                  -1942149.536 7       146.000          53.000          92.000                  
G11  21624294.320    21624294.003    21624294.562                   -17554906.692 8 -17554906.692 8                 -13679142.343 8       416.000         211.000         235.000                  
G13  19642227.983    19642227.595    19642227.637                   -23447099.638 9 -23447099.637 8                 -18270460.140 9       745.000         323.000         595.000                  
G15  21299954.311    21299953.505    21299954.014                   -17932820.273 8 -17932820.271 8                 -13973616.642 9       405.000         371.000         657.000                  
G18  23710220.431    23710220.052    23710220.339                    -7522380.186 8  -7522380.189 6                  -5861595.509 7       167.000          37.000          70.000                  
G20  20577845.234    20577844.296    20577844.712                   -21816785.799 9 -21816785.801 8                 -17000090.030 8       636.000         331.000         364.000                  
G29  20784717.643    20784717.098    20784716.828                   -21739100.352 9 -21739100.354 9                 -16939556.340 9       591.000         777.000        1176.000                  
G30  23624536.953    23624535.868    23624539.310                    -7346326.755 8  -7346326.756 7                  -5724410.717 8       167.000          65.000         347.000                  
> 2024 10 31 10 14 50.0000000  0  9
G05  19412574.281    19412573.972    19412573.939                   -23976841.554 9 -23976841.554 9                 -18683250.030 9       839.000        1680.000        2851.000                  
G07  24798033.034    24798032.594    24798032.632                    -2808201.307 8  -2808201.313 7                  -2188209.202 8       152.000          56.000         102.000                  
G11  21645523.526    21645522.929    21645523.532                   -17443347.154 8 -17443347.157 8                 -13592212.824 8       408.000         206.000         238.000                  
G13  19668776.840    19668776.266    19668776.290                   -23307585.134 9 -23307585.135 8                 -18161747.508 9       732.000         328.000         593.000                  
G15  21348703.332    21348703.268    21348703.447                   -17676639.357 8 -17676639.356 8                 -13773995.144 9       397.000         358.000         631.000                  
G18  23676121.377    23676120.960    23676120.235                    -7701573.888 8  -7701573.891 6                  -6001226.935 7       174.000          43.000          65.000                  
G20  20552246.357    20552245.171    20552245.191                   -21951310.460 9 -21951310.459 8                 -17104914.418 8       644.000         341.000         359.000                  
G29  20799797.731    20799797.099    20799796.717                   -21659854.853 9 -21659854.854 9                 -16877806.591 9       601.000         798.000        1206.000                  
G30  23590522.659    23590522.063    23590525.250                    -7525071.465 8  -7525071.471 7                  -5863692.272 8       169.000          76.000         359.000                  
> 2024 10 31 10 15  0.0000000  0  9
G05  19393644.386    19393644.170    19393644.047                   -24076318.527 9 -24076318.527 9                 -18760764.551 9       847.000        1729.000        2882.000                  
G07  24738025.746    24738024.975    24738024.520                    -3123545.037 8  -3123545.040 7                  -2433931.544 8       158.000          60.000         110.000                  
G11  21667533.582    21667533.443    21667533.840                   -17327682.383 8 -17327682.382 8                 -13502084.406 8       405.000         202.000         227.000                  
G13  19695958.198    19695957.727    19695957.698                   -23164745.529 9 -23164745.528 8                 -18050443.924 9       729.000         316.000         555.000                  
G15  21397882.145    21397881.980    21397882.346                   -17418202.907 8 -17418202.908 8                 -13572616.077 9       387.000         334.000         587.000                  
G18  23642481.098    23642480.076    23642480.533                    -7878353.605 8  -7878353.584 6                  -6138977.346 7       177.000          46.000          64.000                  
G20  20527404.842    20527403.461    20527403.812                   -22081853.150 9 -22081853.150 8                 -17206635.977 8       638.000         329.000         342.000                  
G29  20815940.365    20815939.605    20815939.254                   -21575025.124 9 -21575025.125 9                 -16811705.497 9       608.000         813.000        1171.000                  
G30  23556727.951    23556726.818    23556730.090                    -7702666.287 8  -7702666.281 7                  -6002077.814 8       174.000          75.000         369.000                  
> 2024 10 31 10 15 10.0000000  0  9
G05  19375596.087    19375595.892    19375595.822                   -24171162.664 9 -24171162.664 9                 -18834669.075 9       856.000        1751.000        3018.000                  
G07  24678109.037    24678108.267    24678108.485                    -3438406.799 8  -3438406.789 7                  -2679278.354 8       163.000          67.000         126.000                  
G11  21690321.757    21690321.396    21690321.713                   -17207930.977 8 -17207930.980 8                 -13408771.602 8       405.000         200.000         226.000                  
G13  19723770.628    19723770.094    19723769.963                   -23018590.829 9 -23018590.829 8                 -17936557.118 9       715.000         313.000         543.000                  
G15  21447486.340    21447486.312    21447486.540                   -17157530.876 8 -17157530.876 8                 -13369494.977 9       373.000         309.000         550.000                  
G18  23609310.905    23609310.119    23609310.534                    -8052662.945 8  -8052662.933 6                  -6274802.797 7       176.000          44.000          63.000                  
G20  20503328.221    20503327.082    20503327.244                   -22208376.125 9 -22208376.127 8                 -17305225.311 8       638.000         326.000         338.000                  
G29  20833144.269    20833143.989    20833143.541                   -21484616.091 9 -21484616.092 9                 -16741256.887 9       608.000         821.000        1182.000                  
G30  23523158.565    23523157.811    23523161.191                    -7879072.598 8  -7879072.597 7                  -6139537.253 8       179.000          76.000         383.000                  
> 2024 10 31 10 15 20.0000000  0  9
G05  19358431.935    19358431.565    19358431.557                   -24261361.626 9 -24261361.626 9                 -18904953.968 9       868.000        1797.000        3114.000                  
G07  24618289.404    24618288.158    24618288.104                    -3752763.913 8  -3752763.906 7                  -2924231.918 8       175.000          71.000         129.000                  
G11  21713878.472    21713878.140    21713878.816                   -17084139.086 8 -17084139.085 8                 -13312310.372 8       397.000         194.000         214.000                  
G13  19752206.384    19752206.073    19752206.055                   -22869158.467 9 -22869158.466 8                 -17820116.313 9       711.000         303.000         515.000                  
G15  21497507.314    21497507.143    21497507.298                   -16894669.911 8 -16894669.912 8                 -13164668.234 9       360.000         292.000         502.000                  
G18  23576615.989    23576616.311    23576616.355                    -8224472.612 8  -8224472.609 6                  -6408680.450 7       187.000          44.000          62.000                  
G20  20480018.538    20480017.220    20480017.595                   -22330869.586 9 -22330869.585 8                 -17400674.753 8       636.000         329.000         366.000                  
G29  20851404.190    20851403.642    20851403.172                   -21388660.902 9 -21388660.904 9                 -16666486.600 9       607.000         822.000        1148.000                  
G30  23489818.227    23489817.389    23489820.392                    -8054278.487 8  -8054278.493 7                  -6276061.304 8       184.000          79.000         381.000                  
> 2024 10 31 10 15 30.0000000  0  9
G05  19342154.660    19342154.425    19342154.432                   -24346898.601 9 -24346898.601 9                 -18971606.146 9       886.000        1867.000        3205.000                  
G07  24558570.199    24558569.473    24558569.485                    -4066587.496 8  -4066587.494 7                  -3168769.754 8       184.000          76.000         137.000                  
G11  21738196.134    21738196.024    21738196.286                   -16956347.550 8 -16956347.550 8                 -13212732.515 8       388.000         190.000         204.000                  
G13  19781260.275    19781259.784    19781259.815                   -22716480.159 9 -22716480.158 8                 -17701146.215 8       717.000         308.000         488.000                  
G15  21547937.046    21547936.547    21547936.852                   -16629660.528 8 -16629660.528 8                 -12958167.391 8       343.000         271.000         470.000                  
G18  23544404.348    23544403.796    23544404.130                    -8393747.457 8  -8393747.449 6                  -6540582.901 7       191.000          48.000          64.000                  
G20  20457478.468    20457477.244    20457477.545                   -22449318.250 9 -22449318.252 8                 -17492972.406 8       627.000         317.000         374.000                  
G29  20870713.817    20870713.226    20870712.873                   -21287188.301 9 -21287188.302 9                 -16587417.025 9       603.000         803.000        1136.000                  
G30  23456709.337    23456708.435    23456711.601                    -8228265.952 8  -8228265.959 7                  -6411635.931 8       190.000          91.000         380.000                  
> 2024 10 31 10 15 40.0000000  0  9
G05  19326771.587    19326771.364    19326771.335                   -24427737.323 9 -24427737.323 9                 -19034597.356 9       909.000        1979.000        3220.000                  
G07  24498962.752    24498961.864    24498961.897                    -4379827.952 8  -4379827.957 7                  -3412853.202 8       193.000          85.000         139.000                  
G11  21763271.320    21763270.842    21763271.563                   -16824577.627 8 -16824577.630 8                 -13110054.635 8       382.000         187.000         199.000                  
G13  19810929.431    19810928.863    19810928.980                   -22560567.464 9 -22560567.463 8                 -17579655.790 8       710.000         300.000         446.000                  
G15  21598771.476    21598771.199    21598771.442                   -16362522.794 8 -16362522.793 8                 -12750008.073 8       318.000         238.000         438.000                  
G18  23512685.336    23512685.242    23512685.296                    -8560432.164 8  -8560432.161 7                  -6670467.066 7       195.000          56.000          67.000                  
G20  20435714.637    20435713.464    20435713.801                   -22563687.167 9 -22563687.168 8                 -17582091.039 8       616.000         314.000         377.000                  
G29  20891071.140    20891070.844    20891070.542                   -21180207.752 9 -21180207.753 9                 -16504055.550 9       593.000         786.000        1076.000                  
G30  23423839.402    23423839.078    23423841.936                    -8400996.536 8  -8400996.536 7                  -6546231.168 8       196.000          99.000         369.000                  
> 2024 10 31 10 15 50.0000000  0  9
G05  19312284.438    19312284.107    19312284.100                   -24503868.540 9 -24503868.540 9                 -19093920.378 9       932.000        2082.000        3384.000                  
G07  24439470.459    24439470.106    24439469.512                    -4692461.145 8  -4692461.149 7                  -3656463.452 8       201.000          97.000         147.000                  
G11  21789093.938    21789093.807    21789094.447                   -16688876.994 8 -16688876.997 8                 -13004313.875 8       378.000         173.000         203.000                  
G13  19841206.953    19841206.458    19841206.286                   -22401458.232 9 -22401458.232 8                 -17455674.561 8       712.000         297.000         439.000                  
G15  21650002.007    21650001.767    21650002.219                   -16093302.784 8 -16093302.786 8                 -12540226.218 8       298.000         201.000         431.000                  
G18  23481465.105    23481464.456    23481465.019                    -8724497.487 8  -8724497.473 7                  -6798310.152 7       201.000          53.000          73.000                  
G20  20414728.815    20414727.533    20414728.289                   -22673967.934 9 -22673967.936 8                 -17668024.105 8       594.000         287.000         409.000                  
G29  20912470.101    20912469.568    20912469.471                   -21067756.257 9 -21067756.257 9                 -16416430.986 9       585.000         767.000        1083.000                  
G30  23391211.633    23391210.766    23391214.091                    -8572457.416 8  -8572457.406 7                  -6679837.025 8       199.000          99.000         390.000                  
> 2024 10 31 10 16  0.0000000  0  9
G05  19298695.478    19298695.127    19298695.128                   -24575278.948 9 -24575278.948 9                 -19149564.843 9       953.000        2161.000        3408.000                  
G07  24380099.442    24380098.820    24380098.886                    -5004458.017 8  -5004458.014 8                  -3899577.868 8       208.000         107.000         161.000                  
G11  21815657.073    21815656.532    21815657.015                   -16549289.322 8 -16549289.320 8                 -12895544.224 8       373.000         169.000         205.000                  
G13  19872086.468    19872085.899    19872085.660                   -22239185.898 9 -22239185.899 8                 -17329228.572 8       718.000         309.000         416.000                  
G15  21701621.136    21701620.901    21701621.329                   -15822041.624 8 -15822041.623 8                 -12328853.849 8       280.000         175.000         416.000                  
G18  23450749.506    23450748.658    23450749.326                    -8885909.777 8  -8885909.770 7                  -6924085.936 7       212.000          57.000          73.000                  
G20  20394523.243    20394522.182    20394522.737                   -22780148.351 9 -22780148.353 8                 -17750762.077 8       616.000         313.000         416.000                  
G29  20934903.457    20934903.054    20934902.932                   -20949867.633 9 -20949867.635 9                 -16324569.712 9       582.000         755.000        1083.000                  
G30  23358828.786    23358827.933    23358831.165                    -8742631.196 8  -8742631.195 8                  -6812439.960 8       201.000         105.000         396.000                  
> 2024 10 31 10 16 10.0000000  0  9
G05  19286011.147    19286010.829    19286010.819                   -24641935.456 9 -24641935.456 9                 -19201504.975 9       976.000        2281.000        3496.000                  
G07  24320858.471    24320858.632    24320858.022                    -5315768.040 8  -5315768.040 8                  -4142157.083 8       216.000         104.000         163.000                  
G11  21842954.973    21842954.386    21842954.847                   -16405837.882 8 -16405837.881 8                 -12783763.872 8       368.000         159.000         192.000                  
G13  19903565.162    19903564.787    19903564.551                   -22073763.200 9 -22073763.200 8                 -17200327.735 8       722.000         311.000         408.000                  
G15  21753625.474    21753624.952    21753625.208                   -15548759.270 8 -15548759.270 8                 -12115906.516 8       267.000         159.000         404.000                  
G18  23420549.039    23420548.429    23420548.723                    -9044614.429 8  -9044614.420 7                  -7047751.883 7       214.000          70.000          79.000                  
G20  20375104.582    20375103.331    20375103.737                   -22882195.795 9 -22882195.795 8                 -17830279.564 8       643.000         333.000         421.000                  
G29  20958369.295    20958368.568    20958368.419                   -20826555.731 9 -20826555.733 9                 -16228482.505 9       584.000         745.000        1062.000                  
G30  23326698.410    23326697.498    23326700.311                    -8911479.025 8  -8911479.023 7                  -6944009.681 8       204.000          99.000         417.000                  
> 2024 10 31 10 16 20.0000000  0  9
G05  19274232.606    19274232.328    19274232.262                   -24703831.984 9 -24703831.984 9                 -19249736.030 9      1001.000        2408.000        3589.000                  
G07  24261754.074    24261753.569    24261752.851                    -5626366.539 8  -5626366.538 8                  -4384181.867 8       225.000         124.000         168.000                  
G11  21870978.620    21870978.004    21870978.566                   -16258572.616 8 -16258572.620 8                 -12669011.717 8       363.000         162.000         191.000                  
G13  19935636.280    19935635.784    19935635.444                   -21905229.203 9 -21905229.204 8                 -17069002.465 8       725.000         320.000         411.000                  
G15  21806004.564    21806004.600    21806004.921                   -15273501.864 8 -15273501.864 8                 -11901420.211 8       254.000         143.000         400.000                  
G18  23390868.780    23390868.164    23390868.586                    -9200583.332 8  -9200583.331 7                  -7169286.083 7       216.000          61.000          79.000                  
G20  20356472.984    20356471.872    20356472.342                   -22980104.659 9 -22980104.659 8                 -17906572.182 8       656.000         347.000         449.000                  
G29  20982858.827    20982858.243    20982857.860                   -20697862.036 9 -20697862.038 9                 -16128201.704 9       578.000         745.000        1019.000                  
G30  23294821.987    23294821.281    23294824.473                    -9078988.301 8  -9078988.301 8                  -7074536.374 8       214.000         113.000         416.000                  
> 2024 10 31 10 16 30.0000000  0  9
G05  19263361.797    19263361.535    19263361.445                   -24760958.412 9 -24760958.412 9                 -19294250.127 9      1023.000        2503.000        3637.000                  
G07  24202790.479    24202789.518    24202789.171                    -5936223.681 8  -5936223.683 8                  -4625628.978 8       229.000         119.000         178.000                  
G11  21899719.109    21899718.843    21899719.398                   -16107539.151 8 -16107539.155 8                 -12551323.300 8       359.000         159.000         188.000                  
G13  19968292.620    19968292.105    19968291.989                   -21733618.416 9 -21733618.418 8                 -16935279.775 8       717.000         311.000         407.000                  
G15  21858752.864    21858752.368    21858752.913                   -14996310.347 8 -14996310.351 8                 -11685426.795 8       244.000         136.000         399.000                  
G18  23361715.569    23361715.197    23361715.677                    -9353783.683 8  -9353783.686 7                  -7288662.972 7       222.000          62.000          78.000                  
G20  20338631.126    20338629.806    20338630.250                   -23073865.153 9 -23073865.153 8                 -17979632.305 8       667.000         363.000         448.000                  
G29  21008365.287    21008364.656    21008364.460                   -20563824.416 9 -20563824.417 9                 -16023756.803 9       572.000         725.000         980.000                  
G30  23263204.293    23263203.440    23263206.361                    -9245141.327 8  -9245141.331 8                  -7204006.247 8       217.000         115.000         429.000                  
> 2024 10 31 10 16 40.0000000  0  9
G05  19253404.496    19253404.123    19253403.958                   -24813285.135 9 -24813285.135 9                 -19335024.194 9      1035.000        2587.000        3642.000                  
G07  24143976.733    24143976.424    24143976.127                    -6245288.437 8  -6245288.438 8                  -4866458.648 8       237.000         126.000         196.000                  
G11  21929172.019    21929171.782    21929172.248                   -15952762.800 8 -15952762.805 8                 -12430718.347 8       350.000         152.000         191.000                  
G13  20001531.837    20001531.489    20001531.262                   -21558944.491 9 -21558944.492 8                 -16799170.197 8       694.000         288.000         404.000                  
G15  21911864.735    21911864.517    21911865.023                   -14717204.752 8 -14717204.745 8                 -11467941.882 8       238.000         134.000         408.000                  
G18  23333099.856    23333099.327    23333099.460                    -9504162.090 8  -9504162.087 7                  -7405840.951 7       223.000          72.000          84.000                  
G20  20321584.137    20321582.854    20321583.222                   -23163447.403 9 -23163447.402 8                 -18049436.656 8       666.000         361.000         467.000                  
G29  21034885.086    21034884.624    21034884.276                   -20424461.198 9 -20424461.200 9                 -15915162.090 9       560.000         703.000         960.000                  
G30  23231852.501    23231851.321    23231854.119                    -9409899.400 8  -9409899.402 8                  -7332389.143 8       229.000         129.000         447.000                  
> 2024 10 31 10 16 50.0000000  0  9
G05  19244360.774    19244360.532    19244360.291                   -24860809.441 9 -24860809.441 9                 -19372056.118 9      1049.000        2632.000        3637.000                  
G07  24085319.918    24085318.995    24085318.895                    -6553535.334 8  -6553535.330 8                  -5106651.019 8       239.000         127.000         210.000                  
G11  21959327.573    21959327.039    21959327.577                   -15794295.436 8 -15794295.442 8                 -12307237.284 8       341.000         146.000         197.000                  
G13  20035346.570    20035346.111    20035345.686                   -21381247.422 9 -21381247.420 8                 -16660704.930 8       684.000         279.000         409.000                  
G15  21965332.861    21965332.189    21965332.483                   -14436230.978 8 -14436230.980 8                 -11249001.261 8       237.000         127.000         417.000                  
G18  23305026.047    23305025.503    23305025.644                    -9651691.458 8  -9651691.470 7                  -7520798.902 7       231.000          73.000          92.000                  
G20  20305332.856    20305331.685    20305332.016                   -23248848.392 9 -23248848.392 8                 -18115982.877 8       670.000         361.000         476.000                  
G29  21062409.836    21062409.330    21062409.049                   -20279817.795 9 -20279817.795 9                 -15802452.946 9       565.000         708.000         953.000                  
G30  23200767.747    23200766.925    23200769.659                    -9573249.825 8  -9573249.831 8                  -7459675.178 8       232.000         129.000         470.000                  
> 2024 10 31 10 17  0.0000000  0  9
G05  19236232.290    19236232.116    19236231.869                   -24903524.877 9 -24903524.877 9                 -19405340.871 9      1059.000        2682.000        3613.000                  
G07  24026823.269    24026822.949    24026822.772                    -6860933.830 8  -6860933.824 8                  -5346182.304 8       243.000         139.000         220.000                  
G11  21990176.112    21990175.582    21990176.091                   -15632184.550 8 -15632184.549 8                 -12180917.091 8       339.000         136.000         184.000                  
G13  20069729.784    20069729.273    20069729.126                   -21200562.615 9 -21200562.614 8                 -16519911.570 8       676.000         278.000         408.000                  
G15  22019147.862    22019147.276    22019147.708                   -14153430.026 8 -14153430.027 8                 -11028636.854 8       233.000         126.000         404.000                  
G18  23277500.749    23277499.605    23277499.712                    -9796340.173 8  -9796340.162 7                  -7633512.187 7       228.000          73.000          88.000                  
G20  20289878.902    20289877.386    20289877.779                   -23330061.010 9 -23330061.010 8                 -18179265.429 8       666.000         362.000         474.000                  
G29  21090931.283    21090930.889    21090930.620                   -20129936.137 9 -20129936.138 9                 -15685662.048 9       559.000         696.000         959.000                  
G30  23169954.233    23169953.537    23169956.287                    -9735174.909 8  -9735174.908 8                  -7585850.557 8       240.000         143.000         481.000                  
> 2024 10 31 10 17 10.0000000  0  9
G05  19229023.932    19229023.723    19229023.490                   -24941404.977 9 -24941404.977 9                 -19434857.829 9      1056.000        2672.000        3613.000                  
G07  23968499.094    23968498.022    23968498.157                    -7167432.024 8  -7167432.027 8                  -5585012.059 8       246.000         148.000         230.000                  
G11  22021712.794    22021712.699    22021713.074                   -15466457.206 8 -15466457.206 8                 -12051778.887 8       338.000         137.000         186.000                  
G13  20104678.505    20104678.051    20104677.944                   -21016904.801 9 -21016904.802 8                 -16376801.581 8       656.000         258.000         404.000                  
G15  22073306.976    22073306.392    22073306.791                   -13868821.735 8 -13868821.736 8                 -10806864.138 8       228.000         123.000         406.000                  
G18  23250532.458    23250531.882    23250532.417                    -9938055.935 8  -9938055.940 7                  -7743940.057 7       226.000          65.000          95.000                  
G20  20275226.659    20275225.545    20275225.694                   -23407057.950 9 -23407057.950 8                 -18239263.043 8       673.000         370.000         450.000                  
G29  21120445.383    21120444.998    21120444.713                   -19974838.391 9 -19974838.393 9                 -15564806.660 9       551.000         677.000         951.000                  
G30  23139419.354    23139418.632    23139421.569                    -9895635.898 8  -9895635.897 8                  -7710885.082 9       242.000         145.000         504.000                  
> 2024 10 31 10 17 20.0000000  0  9
G05  19222735.783    19222735.366    19222735.164                   -24974450.313 9 -24974450.312 9                 -19460607.439 9      1048.000        2643.000        3507.000                  
G07  23910350.093    23910349.947    23910349.818                    -7473003.927 8  -7473003.924 8                  -5823120.024 8       249.000         142.000         240.000                  
G11  22053927.767    22053927.580    22053927.816                   -15297166.996 8 -15297166.993 8                 -11919864.458 8       334.000         141.000         189.000                  
G13  20140185.689    20140185.026    20140184.908                   -20830314.758 9 -20830314.758 8                 -16231406.740 8       645.000         257.000         392.000                  
G15  22127800.387    22127801.174    22127801.347                   -13582451.767 8 -13582451.770 8                 -10583718.699 8       229.000         124.000         380.000                  
G18  23224127.788    23224127.576    23224127.605                   -10076812.846 8 -10076812.853 7                  -7852062.320 7       226.000          65.000          95.000                  
G20  20261376.577    20261375.585    20261375.879                   -23479838.845 9 -23479838.845 8                 -18295975.436 8       652.000         344.000         436.000                  
G29  21150942.867    21150942.300    21150941.981                   -19814573.949 9 -19814573.950 9                 -15439925.274 9       548.000         668.000         919.000                  
G30  23109165.700    23109165.027    23109167.981                   -10054619.982 8 -10054619.985 8                  -7834768.776 9       249.000         141.000         512.000                  
> 2024 10 31 10 17 30.0000000  0  9
G05  19217367.932    19217367.616    19217367.402                   -25002658.059 9 -25002658.060 9                 -19482587.502 9      1039.000        2588.000        3449.000                  
G07  23852383.957    23852383.218    23852383.497                    -7777618.567 8  -7777618.568 8                  -6060482.070 8       254.000         152.000         245.000                  
G11  22086811.677    22086810.999    22086811.262                   -15124363.213 8 -15124363.215 8                 -11785212.175 8       329.000         134.000         189.000                  
G13  20176243.554    20176242.898    20176242.759                   -20640828.992 9 -20640828.992 8                 -16083755.492 8       642.000         244.000         391.000                  
G15  22182623.076    22182622.895    22182622.933                   -13294360.990 8 -13294360.990 8                 -10359232.359 8       224.000         114.000         381.000                  
G18  23198292.319    23198291.496    23198292.295                   -10212580.738 8 -10212580.730 7                  -7957855.486 7       232.000          70.000          98.000                  
G20  20248329.897    20248328.636    20248329.301                   -23548399.510 9 -23548399.511 8                 -18349399.338 8       621.000         313.000         438.000                  
G29  21182414.703    21182413.988    21182413.859                   -19649188.640 9 -19649188.641 9                 -15311053.610 9       537.000         641.000         927.000                  
G30  23079196.183    23079195.545    23079198.618                   -10212109.725 8 -10212109.724 8                  -7957488.047 9       245.000         156.000         536.000                  
> 2024 10 31 10 17 40.0000000  0  9
G05  19212925.032    19212924.720    19212924.596                   -25026005.361 9 -25026005.362 9                 -19500780.205 9      1024.000        2513.000        3276.000                  
G07  23794609.769    23794609.560    23794609.350                    -8081223.393 8  -8081223.390 8                  -6297057.249 8       263.000         163.000         256.000                  
G11  22120358.040    22120357.701    22120357.898                   -14948074.416 8 -14948074.413 8                 -11647844.280 8       324.000         125.000         195.000                  
G13  20212849.489    20212849.063    20212848.822                   -20448462.950 9 -20448462.948 8                 -15933859.885 8       634.000         236.000         375.000                  
G15  22237768.703    22237768.296    22237768.583                   -13004569.037 8 -13004569.038 8                 -10133420.440 8       227.000         116.000         351.000                  
G18  23173035.477    23173034.697    23173034.892                   -10345308.604 8 -10345308.609 7                  -8061279.796 7       231.000          70.000          94.000                  
G20  20236091.106    20236089.837    20236090.365                   -23612715.353 9 -23612715.354 8                 -18399515.580 8       629.000         320.000         422.000                  
G29  21214855.728    21214855.264    21214855.118                   -19478708.278 9 -19478708.280 9                 -15178211.772 9       525.000         615.000         862.000                  
G30  23049518.643    23049518.161    23049521.143                   -10368066.361 8 -10368066.357 8                  -8079012.696 9       243.000         147.000         531.000                  
> 2024 10 31 10 17 50.0000000  0  9
G05  19209406.216    19209405.993    19209405.818                   -25044496.367 9 -25044496.367 9                 -19515188.781 9      1008.000        2449.000        3225.000                  
G07  23737033.156    23737032.880    23737032.275                    -8383791.457 8  -8383791.458 8                  -6532824.567 8       270.000         171.000         263.000                  
G11  22154557.440    22154556.982    22154557.218                   -14768355.575 8 -14768355.572 8                 -11507803.625 8       317.000         122.000         205.000                  
G13  20249995.788    20249995.322    20249995.110                   -20253257.986 9 -20253257.985 8                 -15781752.120 8       632.000         237.000         384.000                  
G15  22293229.890    22293229.142    22293229.277                   -12713121.209 8 -12713121.209 8                  -9906318.226 8       225.000         118.000         365.000                  
G18  23148360.730    23148360.465    23148360.337                   -10474971.780 8 -10474971.779 7                  -8162316.041 8       229.000          70.000         101.000                  
G20  20224659.602    20224658.282    20224658.929                   -23672788.655 9 -23672788.655 8                 -18446325.946 8       639.000         327.000         458.000                  
G29  21248256.649    21248256.200    21248256.068                   -19303185.702 9 -19303185.702 9                 -15041440.936 9       513.000         579.000         850.000                  
G30  23020134.732    23020134.400    23020137.633                   -10522476.977 8 -10522476.980 8                  -8199332.651 9       243.000         149.000         550.000                  
> 2024 10 31 10 18  0.0000000  0  9
G05  19206811.548    19206811.239    19206811.147                   -25058131.810 9 -25058131.811 9                 -19525813.799 9       991.000        2362.000        3120.000                  
G07  23679659.582    23679659.229    23679659.037                    -8685291.210 8  -8685291.212 8                  -6767759.431 8       281.000         176.000         263.000                  
G11  22189399.725    22189399.225    22189399.726                   -14585257.494 8 -14585257.495 8                 -11365129.779 8       311.000         129.000         207.000                  
G13  20287675.155    20287674.656    20287674.559                   -20055251.310 9 -20055251.311 8                 -15627461.202 8       628.000         236.000         367.000                  
G15  22348997.285    22348997.274    22348997.361                   -12420058.280 8 -12420058.280 8                  -9677957.492 8       222.000         117.000         337.000                  
G18  23124274.891    23124274.466    23124275.275                   -10601541.512 8 -10601541.505 7                  -8260941.796 7       230.000          69.000          95.000                  
G20  20214035.648    20214034.495    20214034.926                   -23728618.005 9 -23728618.007 8                 -18489829.337 8       658.000         349.000         449.000                  
G29  21282607.393    21282607.036    21282606.888                   -19122670.326 8 -19122670.327 9                 -14900779.607 9       490.000         546.000         782.000                  
G30  22991049.760    22991048.631    22991051.761                   -10675324.218 8 -10675324.215 8                  -8318434.392 9       242.000         143.000         547.000                  
> 2024 10 31 10 18 10.0000000  0  9
G05  19205144.450    19205144.169    19205144.126                   -25066892.282 9 -25066892.282 9                 -19532640.137 9       984.000        2317.000        3198.000                  
G07  23622499.518    23622499.229    23622498.652                    -8985669.632 8  -8985669.633 8                  -7001820.533 8       284.000         177.000         284.000                  
G11  22224880.018    22224878.771    22224879.366                   -14398810.358 8 -14398810.365 8                 -11219846.297 8       302.000         107.000         206.000                  
G13  20325884.594    20325884.242    20325883.993                   -19854459.140 9 -19854459.141 8                 -15470999.776 8       624.000         237.000         346.000                  
G15  22405068.540    22405068.684    22405068.967                   -12125399.807 8 -12125399.801 8                  -9448353.493 8       219.000         110.000         333.000                  
G18  23100787.679    23100787.670    23100787.249                   -10724968.383 8 -10724968.377 7                  -8357118.583 8       235.000          66.000         103.000                  
G20  20204223.315    20204222.139    20204222.564                   -23780181.745 9 -23780181.743 8                 -18530008.876 8       672.000         363.000         456.000                  
G29  21317902.891    21317902.514    21317902.328                   -18937191.472 8 -18937191.475 9                 -14756250.639 9       478.000         503.000         748.000                  
G30  22962267.992    22962267.754    22962270.752                   -10826569.499 8 -10826569.497 8                  -8436287.853 9       245.000         142.000         557.000                  
> 2024 10 31 10 18 20.0000000  0  9
G05  19204403.531    19204403.269    19204403.199                   -25070785.641 9 -25070785.640 9                 -19535673.917 9       976.000        2283.000        3079.000                  
G07  23565558.253    23565557.430    23565557.249                    -9284899.309 8  -9284899.309 8                  -7234986.509 8       289.000         190.000         295.000                  
G11  22260985.260    22260985.284    22260986.111                   -14209070.577 8 -14209070.574 8                 -11071997.145 8       302.000         113.000         205.000                  
G13  20364616.048    20364615.823    20364615.327                   -19650923.721 9 -19650923.722 8                 -15312400.757 8       639.000         253.000         320.000                  
G15  22461436.010    22461435.471    22461435.580                   -11829191.040 8 -11829191.040 7                  -9217541.463 8       211.000          98.000         299.000                  
G18  23077902.551    23077902.618    23077902.828                   -10845229.328 8 -10845229.323 7                  -8450828.417 7       236.000          79.000          99.000                  
G20  20195221.901    20195220.704    20195221.146                   -23827485.017 9 -23827485.019 8                 -18566868.564 8       676.000         373.000         457.000                  
G29  21354132.245    21354131.858    21354131.524                   -18746805.397 8 -18746805.399 8                 -14607897.856 9       470.000         496.000         695.000                  
G30  22933794.444    22933793.886    22933796.872                   -10976200.178 8 -10976200.178 8                  -8552883.181 9       248.000         147.000         531.000                  
> 2024 10 31 10 18 30.0000000  0  9
G05  19204588.032    19204587.723    19204587.652                   -25069816.087 9 -25069816.086 9                 -19534918.417 9       968.000        2266.000        3177.000                  
G07  23508841.181    23508840.912    23508840.542                    -9582947.789 8  -9582947.786 8                  -7467232.078 8       292.000         198.000         320.000                  
G11  22297708.561    22297708.272    22297708.832                   -14016089.999 8 -14016089.998 8                 -10921622.687 8       302.000         114.000         211.000                  
G13  20403862.771    20403862.217    20403861.701                   -19444682.661 9 -19444682.660 8                 -15151693.442 8       673.000         273.000         311.000                  
G15  22518089.663    22518089.556    22518089.697                   -11531471.972 8 -11531471.972 7                  -8985552.574 8       202.000          99.000         297.000                  
G18  23055625.714    23055625.197    23055625.244                   -10962296.974 8 -10962296.973 7                  -8542049.955 8       231.000          70.000         108.000                  
G20  20187030.961    20187029.610    20187030.047                   -23870529.109 9 -23870529.110 8                 -18600409.409 8       684.000         384.000         477.000                  
G29  21391285.148    21391284.865    21391284.626                   -18551564.570 8 -18551564.571 8                 -14455762.141 9       455.000         467.000         710.000                  
G30  22905631.620    22905630.589    22905633.566                   -11124198.763 8 -11124198.765 8                  -8668206.747 9       251.000         158.000         565.000                  
> 2024 10 31 10 18 40.0000000  0 10
G05  19205701.027    19205700.672    19205700.643                   -25063967.175 9 -25063967.175 9                 -19530360.812 9       961.000        2221.000        3196.000                  
G07  23452359.840    23452358.932    23452358.855                    -9879761.067 8  -9879761.068 8                  -7698515.148 8       298.000         208.000         327.000                  
G11  22335042.376    22335042.053    22335042.612                   -13819899.454 8 -13819899.451 8                 -10768746.935 8       307.000         116.000         200.000                  
G13  20443620.757    20443620.237    20443619.924                   -19235752.417 9 -19235752.415 8                 -14988890.653 8       682.000         281.000         281.000                  
G15  22575028.170    22575027.573    22575027.301                   -11232261.319 8 -11232261.323 7                  -8752401.400 8       195.000          89.000         269.000                  
G16  24518566.264    24518564.781    24518579.252                     -540275.921 7   -540275.950 6                   -420997.628 6        93.000          24.000          16.000                  
G18  23033965.080    23033964.740    23033965.155                   -11076123.002 8 -11076122.992 7                  -8630745.559 8       226.000          66.000         106.000                  
G20  20179654.098    20179652.891    20179653.275                   -23909294.764 9 -23909294.768 8                 -18630616.403 8       705.000         401.000         471.000                  
G29  21429356.047    21429355.555    21429355.400                   -18351501.046 8 -18351501.047 8                 -14299868.475 9       443.000         432.000         675.000                  
G30  22877786.551    22877785.370    22877788.393                   -11270526.344 8 -11270526.347 8                  -8782228.221 9       253.000         152.000         560.000                  
> 2024 10 31 10 18 50.0000000  0 10
G05  19207740.190    19207739.809    19207739.795                   -25053251.303 9 -25053251.303 9                 -19522010.772 9       964.000        2259.000        3234.000                  
G07  23396118.106    23396117.661    23396117.198                   -10175312.088 8 -10175312.087 8                  -7928814.643 8       307.000         217.000         335.000                  
G11  22372975.878    22372975.536    22372975.997                   -13620557.441 8 -13620557.445 8                 -10613415.497 8       310.000         118.000         192.000                  
G13  20483882.222    20483881.864    20483881.207                   -19024176.634 9 -19024176.631 8                 -14824026.407 8       662.000         261.000         256.000                  
G15  22632241.033    22632240.551    22632240.302                   -10931604.872 8 -10931604.871 7                  -8518123.645 8       185.000          78.000         233.000                  
G16  24460439.840    24460438.008    24460455.993                     -845727.097 7   -845727.103 6                   -659010.658 6        96.000          27.000          15.000                  
G18  23012925.391    23012925.247    23012925.200                   -11186686.951 8 -11186686.953 7                  -8716899.292 8       233.000          66.000         107.000                  
G20  20173089.938    20173088.634    20173088.725                   -23943790.896 9 -23943790.895 8                 -18657496.492 8       725.000         425.000         493.000                  
G29  21468333.660    21468332.853    21468332.406                   -18146675.009 8 -18146675.010 8                 -14140263.754 9       442.000         438.000         689.000                  
G30  22850261.202    22850260.322    22850263.376                   -11415171.361 8 -11415171.359 8                  -8894938.607 9       252.000         150.000         565.000                  
> 2024 10 31 10 19  0.0000000  0 10
G05  19210704.132    19210703.789    19210703.703                   -25037675.676 9 -25037675.675 9                 -19509873.912 9       983.000        2341.000        3348.000                  
G07  23340123.011    23340122.761    23340122.433                   -10469567.444 8 -10469567.444 8                  -8158104.561 8       312.000         221.000         343.000                  
G11  22411499.202    22411498.842    22411499.267                   -13418116.462 8 -13418116.466 8                 -10455669.268 8       316.000         117.000         206.000                  
G13  20524639.941    20524639.597    20524639.027                   -18809992.933 9 -18809992.933 8                 -14657130.011 8       654.000         256.000         225.000                  
G15  22689721.268    22689720.828    22689720.862                   -10629542.062 8 -10629542.044 7                  -8282750.006 8       176.000          67.000         215.000                  
G16  24402650.124    24402648.303    24402682.097                    -1149412.457 7  -1149412.453 6                   -895650.485 6        95.000          24.000          17.000                  
G18  22992512.042    22992511.203    22992511.623                   -11293962.652 8 -11293962.654 7                  -8800490.767 8       237.000          70.000         123.000                  
G20  20167337.007    20167335.907    20167336.212                   -23974021.044 9 -23974021.044 8                 -18681052.427 9       712.000         401.000         520.000                  
G29  21508206.336    21508205.707    21508205.494                   -17937141.335 8 -17937141.337 8                 -13976990.740 9       435.000         423.000         724.000                  
G30  22823059.511    22823058.871    22823062.034                   -11558115.939 8 -11558115.934 8                  -9006323.968 9       247.000         153.000         585.000                  
> 2024 10 31 10 19 10.0000000  0 10
G05  19214595.218    19214594.878    19214594.783                   -25017228.248 9 -25017228.248 9                 -19493940.876 9      1021.000        2496.000        3560.000                  
G07  23284385.551    23284384.786    23284384.508                   -10762472.705 8 -10762472.705 8                  -8386342.466 8       317.000         231.000         356.000                  
G11  22450606.214    22450605.615    22450606.266                   -13212608.724 8 -13212608.726 8                 -10295533.385 8       317.000         130.000         198.000                  
G13  20565890.746    20565890.369    20565889.815                   -18593218.495 9 -18593218.494 8                 -14488214.859 8       642.000         254.000         216.000                  
G15  22747466.524    22747465.741    22747465.594                   -10326091.479 8 -10326091.469 7                  -8046294.998 8       165.000          63.000         196.000                  
G16  24345209.084    24345206.816    24345208.241                    -1451268.854 7  -1451268.842 6                  -1130860.905 6        99.000          20.000          23.000                  
G18  22972732.922    22972732.069    22972732.312                   -11397903.726 8 -11397903.719 7                  -8881483.833 8       238.000          80.000         126.000                  
G20  20162399.406    20162398.135    20162398.383                   -23999969.123 9 -23999969.122 8                 -18701271.707 9       697.000         393.000         521.000                  
G29  21548968.266    21548967.791    21548967.610                   -17722935.201 8 -17722935.202 8                 -13810076.865 9       418.000         385.000         773.000                  
G30  22796188.262    22796188.329    22796191.342                   -11699321.663 8 -11699321.661 8                  -9116354.372 9       255.000         163.000         599.000                  
> 2024 10 31 10 19 20.0000000  0 10
G05  19219410.540    19219410.211    19219410.036                   -24991924.060 9 -24991924.060 9                 -19474223.352 9      1054.000        2667.000        3456.000                  
G07  23228909.975    23228909.145    23228908.857                   -11053999.827 8 -11053999.826 8                  -8613506.491 8       318.000         235.000         354.000                  
G11  22490285.800    22490284.987    22490285.436                   -13004093.104 8 -13004093.106 8                 -10133053.671 8       324.000         123.000         199.000                  
G13  20607626.302    20607625.780    20607625.296                   -18373897.133 9 -18373897.135 8                 -14317315.095 8       617.000         226.000         194.000                  
G15  22805466.062    22805465.797    22805465.500                   -10021298.166 8 -10021298.184 7                  -7808793.713 8       156.000          58.000         177.000                  
G16  24288122.701    24288120.279    24288122.481                    -1751259.750 7  -1751259.752 6                  -1364620.105 6        93.000          20.000          16.000                  
G18  22953590.938    22953591.098    22953591.237                   -11498491.127 8 -11498491.130 7                  -8959863.658 8       243.000          81.000         126.000                  
G20  20158274.110    20158273.007    20158273.351                   -24021646.593 9 -24021646.595 8                 -18718163.258 9       684.000         380.000         503.000                  
G29  21590607.633    21590607.082    21590607.005                   -17504119.162 8 -17504119.167 8                 -13639570.887 9       402.000         361.000         767.000                  
G30  22769651.719    22769651.037    22769653.969                   -11838776.750 8 -11838776.751 8                  -9225020.670 9       263.000         170.000         559.000                  
> 2024 10 31 10 19 30.0000000  0 10
G05  19225147.252    19225146.947    19225146.672                   -24961777.561 9 -24961777.561 9                 -19450732.576 9      1080.000        2813.000        3612.000                  
G07  23173701.603    23173701.161    23173701.157                   -11344118.684 8 -11344118.684 8                  -8839573.173 8       321.000         239.000         385.000                  
G11  22530526.057    22530525.666    22530526.024                   -12792626.814 8 -12792626.814 8                  -9968274.693 8       326.000         126.000         203.000                  
G13  20649838.411    20649837.894    20649837.261                   -18152070.642 9 -18152070.644 8                 -14144463.295 8       588.000         204.000         188.000                  
G15  22863713.631    22863713.472    22863713.473                    -9715204.975 8  -9715204.960 6                  -7570279.543 8       149.000          50.000         169.000                  
G16  24231397.040    24231396.617    24231397.326                    -2049346.416 7  -2049346.414 6                  -1596895.428 6        97.000          26.000          18.000                  
G18  22935092.529    22935092.031    22935092.109                   -11595704.142 8 -11595704.141 7                  -9035614.071 8       253.000          88.000         134.000                  
G20  20154959.818    20154958.555    20154959.019                   -24039063.605 9 -24039063.606 8                 -18731734.976 9       676.000         371.000         510.000                  
G29  21633112.496    21633111.904    21633112.126                   -17280754.517 8 -17280754.518 8                 -13465520.543 9       385.000         335.000         854.000                  
G30  22743450.300    22743449.292    22743452.258                   -11976467.389 8 -11976467.392 8                  -9332312.083 9       267.000         173.000         571.000                  
> 2024 10 31 10 19 40.0000000  0 10
G05  19231808.992    19231808.700    19231808.388                   -24926770.110 9 -24926770.109 9                 -19423454.072 9      1101.000        2918.000        3587.000                  
G07  23118774.267    23118773.937    23118773.750                   -11632764.441 8 -11632764.445 8                  -9064491.984 8       324.000         243.000         398.000                  
G11  22571323.978    22571323.577    22571323.612                   -12578232.954 8 -12578232.954 8                  -9801214.536 8       328.000         130.000         198.000                  
G13  20692525.773    20692525.454    20692525.298                   -17927746.492 9 -17927746.493 8                 -13969665.268 8       571.000         187.000         177.000                  
G15  22922207.173    22922207.339    22922206.684                    -9407820.032 8  -9407820.027 7                  -7330758.809 8       143.000          53.000         154.000                  
G16  24175050.402    24175048.010    24175050.139                    -2345455.684 7  -2345455.690 6                  -1827629.904 6        98.000          18.000          20.000                  
G18  22917246.476    22917245.480    22917245.691                   -11689488.406 8 -11689488.403 7                  -9108692.751 8       255.000          91.000         138.000                  
G20  20152460.558    20152459.553    20152459.840                   -24052196.839 9 -24052196.840 8                 -18741968.701 8       678.000         374.000         477.000                  
G29  21676477.474    21676477.048    21676477.419                   -17052869.004 8 -17052869.005 8                 -13287947.450 9       381.000         318.000         885.000                  
G30  22717593.493    22717592.715    22717595.568                   -12112345.304 8 -12112345.303 8                  -9438191.010 9       276.000         184.000         536.000                  
> 2024 10 31 10 19 50.0000000  0 10
G05  19239388.357    19239387.997    19239387.771                   -24886940.770 9 -24886940.770 9                 -19392418.248 9      1113.000        2976.000        3723.000                  
G07  23064128.777    23064128.217    23064128.150                   -11919928.656 8 -11919928.653 8                  -9288256.353 8       326.000         237.000         405.000                  
G11  22612663.870    22612663.342    22612663.606                   -12360991.303 8 -12360991.303 8                  -9631935.366 8       322.000         129.000         194.000                  
G13  20735676.276    20735676.046    20735675.568                   -17700988.857 9 -17700988.856 8                 -13792971.015 8       557.000         180.000         171.000                  
G15  22980933.951    22980933.267    22980933.677                    -9099207.999 8  -9099208.017 6                  -7090281.908 8       141.000          47.000         140.000                  
G16  24119081.638    24119079.750    24119081.816                    -2639571.118 7  -2639571.106 6                  -2056810.753 6       100.000          24.000          25.000                  
G18  22900051.543    22900050.750    22900051.285                   -11779846.634 8 -11779846.634 7                  -9179101.786 8       264.000         100.000         142.000                  
G20  20150770.191    20150768.928    20150769.308                   -24061080.574 9 -24061080.575 8                 -18748891.144 8       681.000         373.000         479.000                  
G29  21720686.862    21720686.467    21720686.654                   -16820547.491 8 -16820547.493 8                 -13106917.723 9       367.000         303.000         879.000                  
G30  22692079.934    22692079.496    22692082.237                   -12246418.906 8 -12246418.905 8                  -9542663.998 9       284.000         195.000         524.000                  
> 2024 10 31 10 20  0.0000000  0 10
G05  19247889.218    19247889.004    19247888.832                   -24842267.725 9 -24842267.725 9                 -19357608.103 9      1109.000        2938.000        3768.000                  
G07  23009778.903    23009777.908    23009778.035                   -12205540.807 8 -12205540.806 8                  -9510811.308 8       327.000         243.000         401.000                  
G11  22654541.665    22654541.500    22654541.694                   -12140919.962 8 -12140919.963 8                  -9460451.245 8       319.000         120.000         196.000                  
G13  20779289.642    20779289.216    20779288.774                   -17471800.129 9 -17471800.129 8                 -13614382.424 8       540.000         175.000         173.000                  
G15  23039894.123    23039893.620    23039893.359                    -8789371.591 8  -8789371.570 6                  -6848850.961 8       133.000          50.000         129.000                  
G16  24063509.095    24063506.594    24063507.907                    -2931614.328 8  -2931614.313 6                  -2284376.936 6       104.000          25.000          26.000                  
G18  22883519.700    22883519.157    22883519.923                   -11866720.457 8 -11866720.455 8                  -9246795.724 8       272.000         103.000         148.000                  
G20  20149893.401    20149892.190    20149892.724                   -24065688.105 9 -24065688.105 8                 -18752481.477 8       678.000         379.000         467.000                  
G29  21765735.778    21765735.257    21765735.435                   -16583813.867 8 -16583813.870 8                 -12922449.952 9       357.000         292.000         848.000                  
G30  22666920.792    22666919.517    22666922.270                   -12378634.861 8 -12378634.861 8                  -9645689.477 8       287.000         203.000         498.000                  
> 2024 10 31 10 20 10.0000000  0 10
G05  19257304.706    19257304.402    19257304.281                   -24792789.299 9 -24792789.298 9                 -19319053.501 9      1097.000        2890.000        3795.000                  
G07  22955725.962    22955725.582    22955725.373                   -12489589.160 8 -12489589.159 8                  -9732147.701 8       323.000         238.000         404.000                  
G11  22696944.017    22696943.590    22696943.805                   -11918096.132 8 -11918096.128 8                  -9286822.340 8       315.000         123.000         202.000                  
G13  20823353.808    20823353.254    20823353.086                   -17240241.598 9 -17240241.601 8                 -13433947.231 8       522.000         165.000         165.000                  
G15  23099076.028    23099074.962    23099074.583                    -8478372.050 8  -8478372.044 6                  -6606513.689 8       137.000          47.000         123.000                  
G16  24008332.291    24008330.872    24008331.429                    -3221565.844 8  -3221565.852 6                  -2510313.219 6       109.000          17.000          29.000                  
G18  22867650.911    22867650.655    22867651.343                   -11950110.899 8 -11950110.899 8                  -9311775.321 8       283.000         109.000         147.000                  
G20  20149823.957    20149822.673    20149823.326                   -24066052.506 9 -24066052.509 8                 -18752765.466 8       682.000         378.000         468.000                  
G29  21811608.275    21811607.843    21811608.119                   -16342751.807 8 -16342751.807 8                 -12734609.395 9       351.000         274.000         840.000                  
G30  22642113.219    22642112.213    22642114.951                   -12508998.735 8 -12508998.736 8                  -9747271.774 8       297.000         210.000         486.000                  
> 2024 10 31 10 20 20.0000000  0 10
G05  19267636.275    19267635.973    19267635.904                   -24738496.492 9 -24738496.493 9                 -19276747.437 9      1084.000        2803.000        3750.000                  
G07  22901982.502    22901981.861    22901981.902                   -12772013.278 8 -12772013.278 8                  -9952218.439 8       318.000         236.000         408.000                  
G11  22739863.961    22739863.650    22739864.227                   -11692548.662 8 -11692548.666 8                  -9111071.102 8       308.000         114.000         182.000                  
G13  20867866.245    20867865.852    20867865.765                   -17006326.192 9 -17006326.192 8                 -13251675.510 8       508.000         162.000         172.000                  
G15  23158474.788    23158474.966    23158475.034                    -8166222.037 8  -8166222.043 6                  -6363279.935 8       132.000          39.000         117.000                  
G16  23953567.270    23953565.816    23953566.080                    -3509357.643 8  -3509357.675 6                  -2734566.576 6       114.000          22.000          25.000                  
G18  22852454.281    22852454.037    22852454.199                   -12029971.220 8 -12029971.220 8                  -9374004.174 8       291.000         119.000         151.000                  
G20  20150565.111    20150563.561    20150564.317                   -24062159.283 9 -24062159.284 8                 -18749731.802 8       706.000         404.000         459.000                  
G29  21858297.800    21858297.341    21858297.618                   -16097396.867 8 -16097396.869 8                 -12543423.753 9       355.000         284.000         834.000                  
G30  22617666.316    22617665.455    22617668.248                   -12637467.711 8 -12637467.706 8                  -9847377.511 8       300.000         222.000         476.000                  
> 2024 10 31 10 20 30.0000000  0 10
G05  19278879.522    19278879.271    19278879.212                   -24679412.796 9 -24679412.796 9                 -19230708.223 9      1063.000        2706.000        3707.000                  
G07  22848553.324    22848552.980    22848553.075                   -13052784.308 8 -13052784.310 8                 -10171001.093 8       327.000         238.000         432.000                  
G11  22783291.174    22783290.874    22783291.124                   -11464338.111 8 -11464338.107 8                  -8933244.711 8       302.000         108.000         187.000                  
G13  20912819.023    20912818.454    20912818.113                   -16770098.454 8 -16770098.454 8                 -13067601.963 8       484.000         135.000         161.000                  
G15  23218086.412    23218085.818    23218085.607                    -7852965.622 8  -7852965.611 6                  -6119184.041 8       136.000          43.000         111.000                  
G16  23899220.419    23899218.208    23899220.187                    -3794953.666 8  -3794953.653 6                  -2957108.979 6       119.000          27.000          30.000                  
G18  22837931.900    22837931.755    22837931.934                   -12106286.983 8 -12106286.980 8                  -9433471.041 8       300.000         114.000         144.000                  
G20  20152112.545    20152111.566    20152111.939                   -24054026.501 9 -24054026.502 8                 -18743394.579 8       720.000         414.000         448.000                  
G29  21905791.526    21905790.945    21905791.169                   -15847816.977 8 -15847816.978 8                 -12348945.975 9       359.000         297.000         824.000                  
G30  22593582.077    22593581.111    22593584.060                   -12764030.624 8 -12764030.623 8                  -9945998.003 8       310.000         226.000         477.000                  
> 2024 10 31 10 20 40.0000000  0 10
G05  19291030.896    19291030.633    19291030.602                   -24615556.934 9 -24615556.934 9                 -19180950.440 9      1043.000        2591.000        3618.000                  
G07  22795445.820    22795445.225    22795445.547                   -13331867.121 8 -13331867.123 8                 -10388468.256 8       338.000         256.000         453.000                  
G11  22827214.412    22827213.959    22827214.289                   -11233519.339 8 -11233519.339 8                  -8753385.938 8       297.000         112.000         180.000                  
G13  20958204.400    20958203.818    20958203.718                   -16531597.097 8 -16531597.097 8                 -12881756.773 8       451.000         120.000         158.000                  
G15  23277900.032    23277899.552    23277898.924                    -7538640.945 8  -7538640.952 6                  -5874255.759 7       132.000          40.000          99.000                  
G16  23845299.231    23845297.291    23845297.542                    -4078311.864 8  -4078311.856 6                  -3177907.531 6       126.000          19.000          29.000                  
G18  22824087.778    22824087.556    22824087.688                   -12179038.469 8 -12179038.464 8                  -9490160.551 8       303.000         118.000         143.000                  
G20  20154464.693    20154463.383    20154463.657                   -24041667.220 9 -24041667.221 8                 -18733763.992 8       725.000         428.000         430.000                  
G29  21954076.821    21954076.445    21954076.692                   -15594074.606 8 -15594074.604 8                 -12151224.697 9       363.000         296.000         817.000                  
G30  22569863.560    22569862.965    22569865.930                   -12888670.550 8 -12888670.551 8                 -10043120.062 8       308.000         226.000         469.000                  
> 2024 10 31 10 20 50.0000000  0 10
G05  19304090.479    19304090.126    19304090.139                   -24546928.927 9 -24546928.927 9                 -19127474.095 9      1033.000        2550.000        3592.000                  
G07  22742669.953    22742669.293    22742669.592                   -13609206.395 8 -13609206.396 8                 -10604576.810 8       337.000         261.000         470.000                  
G11  22871627.761    22871627.163    22871627.328                   -11000127.225 8 -11000127.223 7                  -8571521.983 8       294.000          99.000         177.000                  
G13  21004018.562    21004018.197    21004018.349                   -16290840.635 8 -16290840.639 8                 -12694154.367 8       427.000         107.000         163.000                  
G15  23337913.910    23337914.145    23337913.727                    -7223265.606 8  -7223265.623 6                  -5628508.762 7       134.000          41.000          96.000                  
G16  23791816.679    23791813.376    23791814.998                    -4359370.238 8  -4359370.268 6                  -3396914.074 6       134.000          26.000          28.000                  
G18  22810929.275    22810929.066    22810929.321                   -12248186.566 8 -12248186.566 8                  -9544042.216 8       303.000         123.000         147.000                  
G20  20157621.956    20157620.700    20157621.230                   -24025075.288 9 -24025075.290 8                 -18720835.247 8       724.000         424.000         440.000                  
G29  22003146.534    22003146.238    22003146.199                   -15336212.770 8 -15336212.770 8                 -11950293.434 9       370.000         315.000         822.000                  
G30  22546518.767    22546517.823    22546520.765                   -13011350.532 8 -13011350.531 8                 -10138714.908 8       309.000         231.000         478.000                  
> 2024 10 31 10 21  0.0000000  0 10
G05  19318053.081    19318052.686    19318052.768                   -24473555.327 9 -24473555.327 9                 -19070299.894 9      1024.000        2514.000        3566.000                  
G07  22690231.492    22690230.828    22690231.139                   -13884772.452 8 -13884772.453 8                 -10819303.627 8       337.000         258.000         467.000                  
G11  22916518.851    22916518.415    22916518.928                   -10764222.340 8 -10764222.338 8                  -8387700.047 8       288.000         104.000         172.000                  
G13  21050254.132    21050253.322    21050253.507                   -16047873.337 8 -16047873.338 8                 -12504829.231 8       419.000         101.000         159.000                  
G15  23398120.119    23398120.046    23398119.184                    -6906882.801 8  -6906882.790 6                  -5381976.735 7       130.000          41.000          99.000                  
G16  23738776.954    23738774.626    23738775.181                    -4638092.329 8  -4638092.338 6                  -3614100.111 6       139.000          28.000          23.000                  
G18  22798459.231    22798459.047    22798458.882                   -12313718.603 8 -12313718.595 8                  -9595106.169 8       302.000         118.000         134.000                  
G20  20161580.768    20161579.655    20161580.140                   -24004271.121 9 -24004271.122 8                 -18704624.242 8       720.000         427.000         457.000                  
G29  22052986.588    22052986.435    22052986.644                   -15074300.699 8 -15074300.700 8                 -11746206.149 9       378.000         326.000         867.000                  
G30  22523548.425    22523547.586    22523550.649                   -13132059.354 8 -13132059.354 8                 -10232773.778 8       309.000         237.000         473.000                  
> 2024 10 31 10 21 10.0000000  0 10
G05  19332914.334    19332914.120    19332914.093                   -24395458.213 9 -24395458.213 9                 -19009445.025 9      1022.000        2500.000        3424.000                  
G07  22638136.954    22638136.508    22638136.736                   -14158530.077 8 -14158530.079 8                 -11032621.266 8       339.000         259.000         480.000                  
G11  22961877.336    22961877.046    22961877.517                   -10525859.904 8 -10525859.906 7                  -8201963.121 8       280.000          95.000         168.000                  
G13  21096902.431    21096902.033    21096902.160                   -15802734.133 8 -15802734.140 8                 -12313811.708 8       407.000         112.000         165.000                  
G15  23458509.808    23458510.025    23458509.403                    -6589530.048 8  -6589530.056 6                  -5134688.919 7       127.000          38.000          97.000                  
G16  23686190.253    23686188.493    23686188.720                    -4914436.513 8  -4914436.519 6                  -3829433.195 6       146.000          22.000          27.000                  
G18  22786679.951    22786679.698    22786679.646                   -12375617.186 8 -12375617.185 8                  -9643338.855 8       302.000         116.000         136.000                  
G20  20166338.132    20166337.060    20166337.431                   -23979270.610 9 -23979270.611 8                 -18685143.347 8       725.000         425.000         474.000                  
G29  22103585.671    22103585.205    22103585.438                   -14808402.659 8 -14808402.660 8                 -11539012.905 9       382.000         335.000         897.000                  
G30  22500956.791    22500955.925    22500958.781                   -13250780.563 8 -13250780.563 8                 -10325283.854 8       310.000         236.000         480.000                  
> 2024 10 31 10 21 20.0000000  0 10
G05  19348674.058    19348673.786    19348673.700                   -24312640.676 9 -24312640.675 9                 -18944911.907 9      1008.000        2435.000        3226.000                  
G07  22586397.237    22586396.908    22586397.026                   -14430423.712 8 -14430423.712 8                 -11244486.466 8       351.000         287.000         475.000                  
G11  23007697.110    23007696.962    23007697.542                   -10285074.841 8 -10285074.835 7                  -8014338.399 8       278.000          97.000         179.000                  
G13  21143960.700    21143960.020    21143960.347                   -15555441.521 8 -15555441.518 7                 -12121116.208 8       387.000          93.000         150.000                  
G15  23519081.590    23519081.968    23519081.805                    -6271224.549 8  -6271224.531 6                  -4886658.717 7       121.000          38.000          93.000                  
G16  23634067.879    23634066.379    23634066.836                    -5188340.912 8  -5188340.926 6                  -4042865.230 6       149.000          29.000          27.000                  
G18  22775599.408    22775598.965    22775599.369                   -12433845.320 8 -12433845.319 8                  -9688711.434 8       300.000         118.000         139.000                  
G20  20171894.869    20171893.793    20171894.213                   -23950070.309 9 -23950070.311 8                 -18662389.909 8       729.000         436.000         486.000                  
G29  22154934.576    22154933.931    22154934.206                   -14538563.114 8 -14538563.116 8                 -11328748.364 9       380.000         324.000         922.000                  
G30  22478749.982    22478749.075    22478752.285                   -13367477.459 8 -13367477.461 8                 -10416216.532 8       314.000         240.000         488.000                  
> 2024 10 31 10 21 30.0000000  0 10
G05  19365326.227    19365325.951    19365325.865                   -24225132.975 9 -24225132.975 9                 -18876724.113 9       982.000        2316.000        3123.000                  
G07  22535018.119    22535017.592    22535017.812                   -14700423.579 8 -14700423.580 8                 -11454875.972 8       364.000         307.000         490.000                  
G11  23053966.704    23053966.340    23053966.890                   -10041928.538 8 -10041928.539 7                  -7824873.788 8       283.000          93.000         178.000                  
G13  21191420.262    21191419.471    21191419.560                   -15306040.238 8 -15306040.245 7                 -11926777.595 8       361.000          84.000         152.000                  
G15  23579827.217    23579826.465    23579825.964                    -5952009.428 8  -5952009.424 6                  -4637919.724 7       122.000          37.000          85.000                  
G16  23582416.849    23582415.456    23582415.847                    -5459770.046 8  -5459770.048 6                  -4254368.431 6       156.000          26.000          32.000                  
G18  22765219.415    22765219.232    22765219.469                   -12488393.025 8 -12488393.020 8                  -9731216.140 8       304.000         120.000         140.000                  
G20  20178246.316    20178245.076    20178245.550                   -23916693.785 9 -23916693.784 8                 -18636382.286 8       729.000         425.000         495.000                  
G29  22207019.791    22207019.217    22207019.505                   -14264853.197 8 -14264853.199 8                 -11115467.944 9       370.000         314.000         919.000                  
G30  22456930.526    22456929.737    22456932.773                   -13482139.775 8 -13482139.774 8                 -10505563.856 8       318.000         248.000         488.000                  
> 2024 10 31 10 21 40.0000000  0 10
G05  19382866.064    19382865.749    19382865.823                   -24132960.286 9 -24132960.286 9                 -18804901.254 9       957.000        2214.000        3034.000                  
G07  22484005.875    22484005.527    22484005.552                   -14968493.863 8 -14968493.864 8                 -11663761.898 8       369.000         304.000         485.000                  
G11  23100674.626    23100674.108    23100674.900                    -9796476.024 8  -9796476.021 8                  -7633612.141 8       286.000         109.000         176.000                  
G13  21239273.393    21239272.509    21239273.236                   -15054568.867 8 -15054568.871 7                 -11730825.920 8       354.000          76.000         158.000                  
G15  23640737.458    23640737.575    23640737.018                    -5631921.489 8  -5631921.472 6                  -4388500.628 7       112.000          30.000          88.000                  
G16  23531244.114    23531242.988    23531243.312                    -5728682.410 8  -5728682.421 6                  -4463910.529 6       163.000          28.000          33.000                  
G18  22755543.228    22755542.407    22755542.773                   -12539244.821 8 -12539244.817 8                  -9770840.904 8       305.000         122.000         146.000                  
G20  20185388.832    20185387.701    20185388.125                   -23879159.070 9 -23879159.072 8                 -18607134.503 8       712.000         410.000         484.000                  
G29  22259829.116    22259828.536    22259828.892                   -13987338.456 8 -13987338.454 8                 -10899222.790 9       362.000         293.000         901.000                  
G30  22435501.359    22435500.588    22435503.661                   -13594750.955 8 -13594750.953 8                 -10593312.870 8       321.000         252.000         498.000                  
> 2024 10 31 10 21 50.0000000  0 10
G05  19401292.504    19401292.170    19401292.240                   -24036128.635 9 -24036128.634 9                 -18729448.003 9       935.000        2115.000        2939.000                  
G07  22433371.572    22433371.082    22433371.311                   -15234578.758 8 -15234578.757 8                 -11871100.762 8       368.000         312.000         489.000                  
G11  23147815.280    23147815.067    23147815.206                    -9548752.526 8  -9548752.522 8                  -7440580.891 8       296.000         108.000         175.000                  
G13  21287517.171    21287516.626    21287516.936                   -14801046.195 8 -14801046.191 7                 -11533275.828 8       354.000          79.000         156.000                  
G15  23701810.102    23701811.303    23701810.482                    -5310977.322 8  -5310977.307 6                  -4138414.338 7       102.000          28.000          74.000                  
G16  23480562.977    23480561.793    23480560.827                    -5995016.829 8  -5995016.839 6                  -4671443.809 6       159.000          25.000          35.000                  
G18  22746576.015    22746575.622    22746575.939                   -12586366.301 8 -12586366.293 8                  -9807558.939 8       306.000         129.000         150.000                  
G20  20193322.867    20193321.656    20193322.412                   -23837465.422 9 -23837465.422 8                 -18574645.953 8       713.000         410.000         471.000                  
G29  22313353.708    22313353.104    22313353.664                   -13706064.385 8 -13706064.386 8                 -10680048.173 9       357.000         282.000         875.000                  
G30  22414469.561    22414468.601    22414471.577                   -13705274.944 8 -13705274.946 8                 -10679435.477 9       324.000         250.000         503.000                  
> 2024 10 31 10 22  0.0000000  0 10
G05  19420599.140    19420598.853    19420598.970                   -23934671.141 9 -23934671.141 9                 -18650390.195 9       917.000        2012.000        2892.000                  
G07  22383120.729    22383120.393    22383120.539                   -15498648.224 8 -15498648.224 8                 -12076869.179 9       375.000         330.000         510.000                  
G11  23195376.029    23195375.901    23195375.711                    -9298819.103 8  -9298819.097 8                  -7245827.601 8       301.000         112.000         176.000                  
G13  21336142.940    21336142.287    21336142.597                   -14545516.646 8 -14545516.640 7                 -11334161.927 8       352.000          74.000         168.000                  
G15  23763039.900    23763039.525    23763039.539                    -4989219.212 7  -4989219.192 6                  -3887693.795 7        97.000          30.000          75.000                  
G16  23430378.590    23430377.199    23430377.342                    -6258738.144 8  -6258738.135 6                  -4876940.913 6       164.000          28.000          44.000                  
G18  22738320.388    22738320.052    22738320.188                   -12629749.574 8 -12629749.570 8                  -9841364.093 8       312.000         130.000         157.000                  
G20  20202043.401    20202042.278    20202042.817                   -23791638.880 9 -23791638.880 8                 -18538936.967 8       718.000         418.000         464.000                  
G29  22367579.944    22367579.382    22367579.832                   -13421103.179 8 -13421103.179 8                 -10458000.424 9       356.000         279.000         831.000                  
G30  22393836.254    22393835.694    22393838.737                   -13813701.588 8 -13813701.588 8                 -10763923.768 9       330.000         261.000         501.000                  
> 2024 10 31 10 22 10.0000000  0 10
G05  19440780.694    19440780.363    19440780.448                   -23828616.719 9 -23828616.718 9                 -18567750.397 9       901.000        1954.000        2828.000                  
G07  22333260.595    22333259.985    22333260.133                   -15760666.549 8 -15760666.548 8                 -12281039.297 9       390.000         354.000         530.000                  
G11  23243346.710    23243346.383    23243346.857                    -9046731.548 8  -9046731.544 8                  -7049395.778 8       301.000         114.000         169.000                  
G13  21385143.067    21385142.236    21385142.637                   -14288019.337 8 -14288019.336 7                 -11133514.704 8       346.000          82.000         161.000                  
G15  23824417.187    23824416.498    23824416.286                    -4666684.040 7  -4666684.050 6                  -3636367.741 7        91.000          25.000          73.000                  
G16  23380697.615    23380697.244    23380697.649                    -6519806.066 8  -6519806.071 6                  -5080370.459 6       163.000          31.000          48.000                  
G18  22730778.617    22730778.168    22730778.509                   -12669382.218 8 -12669382.216 8                  -9872246.686 8       314.000         125.000         157.000                  
G20  20211546.354    20211545.235    20211545.625                   -23741700.964 9 -23741700.965 8                 -18500024.310 8       719.000         419.000         443.000                  
G29  22422494.885    22422494.764    22422494.908                   -13132522.140 8 -13132522.140 8                 -10233132.098 9       361.000         297.000         780.000                  
G30  22373605.355    22373604.638    22373607.716                   -13920015.631 8 -13920015.632 8                 -10846765.872 9       331.000         268.000         503.000                  
> 2024 10 31 10 22 20.0000000  0 10
G05  19461835.198    19461834.936    19461834.993                   -23717974.106 9 -23717974.106 9                 -18481535.374 9       887.000        1896.000        2683.000                  
G07  22283801.175    22283800.512    22283800.604                   -16020577.554 8 -16020577.555 8                 -12483567.360 9       412.000         388.000         572.000                  
G11  23291720.477    23291720.459    23291720.925                    -8792524.612 8  -8792524.608 8                  -6851312.510 8       294.000         106.000         163.000                  
G13  21434514.495    21434513.689    21434513.621                   -14028572.422 8 -14028572.422 7                 -10931348.314 8       341.000          67.000         159.000                  
G15  23885935.659    23885936.713    23885937.286                    -4343387.394 7  -4343387.382 6                  -3384448.328 7        81.000          25.000          68.000                  
G16  23331535.543    23331534.492    23331534.314                    -6778159.568 8  -6778159.556 6                  -5281684.889 7       163.000          31.000          56.000                  
G18  22723956.544    22723956.246    22723956.607                   -12705231.634 8 -12705231.630 8                  -9900181.310 8       315.000         134.000         173.000                  
G20  20221831.452    20221830.105    20221830.609                   -23687653.057 9 -23687653.059 8                 -18457909.066 8       721.000         423.000         444.000                  
G29  22478090.577    22478089.819    22478089.935                   -12840367.546 8 -12840367.546 8                 -10005479.187 9       365.000         300.000         718.000                  
G30  22353783.234    22353782.670    22353785.662                   -14024180.947 8 -14024180.945 8                 -10927933.651 9       336.000         279.000         511.000                  
> 2024 10 31 10 22 30.0000000  0 10
G05  19483755.913    19483755.707    19483755.664                   -23602780.049 9 -23602780.050 9                 -18391773.776 9       888.000        1904.000        2593.000                  
G07  22234748.331    22234747.951    22234748.035                   -16278351.604 8 -16278351.604 8                 -12684430.262 9       429.000         424.000         610.000                  
G11  23340486.451    23340485.614    23340486.473                    -8536259.876 8  -8536259.868 7                  -6651625.742 8       283.000          98.000         165.000                  
G13  21484247.858    21484247.412    21484247.080                   -13767220.953 8 -13767220.950 7                 -10727697.842 8       340.000          73.000         158.000                  
G15  23947594.372    23947594.813    23947596.011                    -4019371.616 7  -4019371.617 6                  -3131968.522 7        71.000          23.000          60.000                  
G16  23282894.869    23282893.649    23282894.089                    -7033764.616 8  -7033764.616 6                  -5480857.655 7       166.000          27.000          54.000                  
G18  22717855.624    22717855.479    22717855.536                   -12737292.974 8 -12737292.971 8                  -9925164.186 8       316.000         129.000         174.000                  
G20  20232892.854    20232891.692    20232892.179                   -23629524.264 9 -23629524.265 8                 -18412613.906 8       715.000         418.000         428.000                  
G29  22534351.750    22534351.009    22534351.160                   -12544713.107 8 -12544713.107 8                  -9775099.113 9       361.000         299.000         686.000                  
G30  22334372.084    22334371.509    22334374.376                   -14126188.583 8 -14126188.584 8                 -11007420.140 9       346.000         283.000         547.000                  
> 2024 10 31 10 22 40.0000000  0 10
G05  19506536.968    19506536.652    19506536.587                   -23483065.789 9 -23483065.789 9                 -18298489.973 9       898.000        1943.000        2490.000                  
G07  22186109.004    22186108.719    22186108.736                   -16533952.663 8 -16533952.663 8                 -12883599.919 9       440.000         444.000         636.000                  
G11  23389632.918    23389632.833    23389633.159                    -8277992.608 8  -8277992.602 7                  -6450378.558 8       277.000          86.000         164.000                  
G13  21534336.511    21534335.891    21534335.789                   -13504003.545 8 -13504003.548 7                 -10522593.399 8       332.000          60.000         151.000                  
G15  24009382.334    24009382.072    24009383.694                    -3694672.689 7  -3694672.707 6                  -2878956.395 7        63.000          24.000          55.000                  
G16  23234785.965    23234784.125    23234785.014                    -7286581.445 8  -7286581.449 6                  -5677857.774 7       168.000          27.000          67.000                  
G18  22712477.234    22712477.098    22712477.061                   -12765555.890 8 -12765555.882 8                  -9947187.236 8       316.000         130.000         180.000                  
G20  20244726.476    20244725.221    20244725.898                   -23567338.105 9 -23567338.104 8                 -18364157.173 8       707.000         404.000         404.000                  
G29  22591266.066    22591265.534    22591265.482                   -12245626.349 8 -12245626.348 8                  -9542044.497 9       364.000         294.000         658.000                  
G30  22315374.396    22315373.777    22315376.590                   -14226023.320 8 -14226023.318 8                 -11085213.462 9       349.000         300.000         583.000                  
> 2024 10 31 10 22 50.0000000  0 11
G05  19530175.888    19530175.526    19530175.507                   -23358842.629 9 -23358842.629 9                 -18201692.732 9       911.000        1984.000        2386.000                  
G07  22137894.121    22137893.748    22137893.759                   -16787324.000 8 -16787324.000 8                 -13081032.141 9       448.000         458.000         658.000                  
G09  24450263.259    24450261.515    24450277.968                     -453621.277 7   -453621.274 6                   -353475.155 6        91.000          30.000          29.000                  
G11  23439154.165    23439153.524    23439154.493                    -8017757.196 8  -8017757.189 7                  -6247597.765 8       265.000          89.000         152.000                  
G13  21584776.913    21584776.456    21584776.400                   -13238937.973 8 -13238937.983 7                 -10316048.841 8       320.000          64.000         146.000                  
G15  24071299.373    24071297.199    24071299.045                    -3369305.435 7  -3369305.426 6                  -2625423.527 6        61.000          20.000          47.000                  
G16  23187218.749    23187216.269    23187217.087                    -7536549.594 8  -7536549.577 6                  -5872638.157 7       176.000          34.000          75.000                  
G18  22707828.053    22707827.273    22707827.761                   -12789990.124 8 -12789990.115 8                  -9966226.917 8       316.000         129.000         171.000                  
G20  20257331.568    20257330.321    20257330.868                   -23501098.132 9 -23501098.133 8                 -18312541.636 8       710.000         406.000         387.000                  
G29  22648824.505    22648823.998    22648824.025                   -11943154.292 8 -11943154.293 8                  -9306352.017 9       363.000         295.000         619.000                  
G30  22296796.849    22296796.023    22296799.021                   -14323649.338 8 -14323649.337 8                 -11161285.705 9       359.000         311.000         619.000                  
> 2024 10 31 10 23  0.0000000  0 11
G05  19554665.113    19554664.816    19554664.730                   -23230150.713 9 -23230150.713 9                 -18101413.298 9       925.000        2054.000        2305.000                  
G07  22090109.241    22090108.565    22090108.716                   -17038436.479 8 -17038436.477 8                 -13276704.200 9       452.000         480.000         719.000                  
G09  24391083.151    24391081.991    24391085.009                     -764614.156 7   -764614.145 6                   -595805.281 7        92.000          33.000          82.000                  
G11  23489038.242    23489037.611    23489038.290                    -7755615.689 8  -7755615.686 7                  -6043331.700 8       255.000          78.000         150.000                  
G13  21635559.766    21635559.759    21635559.449                   -12972069.601 8 -12972069.593 7                 -10108099.501 8       306.000          60.000         148.000                  
G15  24133333.326    24133332.104    24133333.958                    -3043312.245 7  -3043312.234 6                  -2371402.903 7        60.000          24.000          51.000                  
G16  23140199.288    23140197.637    23140198.430                    -7783636.548 8  -7783636.547 6                  -6065173.421 7       182.000          26.000          78.000                  
G18  22703907.208    22703906.539    22703907.091                   -12810593.917 8 -12810593.908 8                  -9982281.822 8       315.000         123.000         184.000                  
G20  20270702.026    20270700.761    20270701.249                   -23430836.550 9 -23430836.551 8                 -18257792.372 8       722.000         422.000         375.000                  
G29  22707013.085    22707012.475    22707012.494                   -11637371.754 8 -11637371.754 8                  -9068079.892 9       357.000         277.000         601.000                  
G30  22278641.130    22278640.286    22278643.236                   -14419058.810 8 -14419058.806 8                 -11235630.764 9       361.000         319.000         660.000                  
> 2024 10 31 10 23 10.0000000  0 11
G05  19579997.761    19579997.446    19579997.350                   -23097026.858 9 -23097026.857 9                 -17997680.425 9       933.000        2090.000        2198.000                  
G07  22042760.251    22042759.725    22042759.897                   -17287256.911 8 -17287256.912 9                 -13470590.244 9       465.000         504.000         780.000                  
G09  24331976.399    24331976.508    24331979.529                    -1075215.249 7  -1075215.255 6                   -837832.053 7        95.000          37.000          89.000                  
G11  23539273.173    23539273.140    23539273.726                    -7491625.882 8  -7491625.881 7                  -5837625.403 8       243.000          68.000         152.000                  
G13  21686678.503    21686677.942    21686678.370                   -12703439.630 8 -12703439.623 7                  -9898777.480 8       308.000          57.000         151.000                  
G15  24195478.599    24195478.855    24195480.271                    -2716731.178 7  -2716731.203 6                  -2116924.170 6        55.000          18.000          37.000                  
G16  23093735.982    23093734.604    23093734.565                    -8027806.001 8  -8027806.013 6                  -6255435.333 7       192.000          27.000          79.000                  
G18  22700716.085    22700715.847    22700716.119                   -12827362.284 8 -12827362.278 8                  -9995348.086 8       312.000         124.000         185.000                  
G20  20284832.146    20284831.064    20284831.385                   -23356582.154 9 -23356582.156 8                 -18199931.823 8       721.000         411.000         364.000                  
G29  22765817.692    22765817.485    22765817.457                   -11328349.788 8 -11328349.789 8                  -8827283.586 9       341.000         273.000         599.000                  
G30  22260909.007    22260908.329    22260911.527                   -14512239.925 8 -14512239.924 8                 -11308239.433 9       361.000         314.000         680.000                  
> 2024 10 31 10 23 20.0000000  0 11
G05  19606172.008    19606171.720    19606171.631                   -22959480.204 9 -22959480.205 9                 -17890501.226 9       937.000        2130.000        2126.000                  
G07  21995859.156    21995858.723    21995858.781                   -17533723.459 8 -17533723.458 9                 -13662642.085 9       479.000         536.000         816.000                  
G09  24272956.085    24272954.741    24272957.522                    -1385376.734 7  -1385376.739 6                  -1079516.280 7       100.000          33.000          87.000                  
G11  23589854.962    23589854.950    23589855.685                    -7225816.851 8  -7225816.841 7                  -5630501.531 8       240.000          75.000         134.000                  
G13  21738130.144    21738129.572    21738129.738                   -12433060.624 8 -12433060.619 7                  -9688092.579 8       321.000          70.000         142.000                  
G15  24257736.159    24257735.262    24257736.801                    -2389570.986 7  -2389570.972 6                  -1861994.057 6        55.000          21.000          32.000                  
G16  23047839.509    23047838.240    23047838.638                    -8268993.395 8  -8268993.410 6                  -6443373.544 7       201.000          32.000          89.000                  
G18  22698260.907    22698260.891    22698261.403                   -12840262.513 8 -12840262.505 8                 -10005400.246 8       309.000         126.000         186.000                  
G20  20299721.805    20299720.621    20299721.332                   -23278335.794 9 -23278335.796 8                 -18138960.652 8       705.000         398.000         376.000                  
G29  22825231.205    22825230.630    22825230.814                   -11016130.720 8 -11016130.719 8                  -8583996.018 9       334.000         242.000         588.000                  
G30  22243609.122    22243608.455    22243611.339                   -14603152.454 8 -14603152.453 8                 -11379080.376 9       359.000         319.000         667.000                  
> 2024 10 31 10 23 30.0000000  0 11
G05  19633180.720    19633180.469    19633180.396                   -22817548.331 9 -22817548.331 9                 -17779904.974 9       947.000        2148.000        2097.000                  
G07  21949412.540    21949411.950    21949412.197                   -17777802.187 8 -17777802.187 9                 -13852833.293 9       473.000         504.000         799.000                  
G09  24214021.508    24214020.868    24214023.423                    -1695078.303 8  -1695078.292 6                  -1320842.143 7       102.000          36.000         100.000                  
G11  23640772.650    23640772.513    23640772.919                    -6958245.370 8  -6958245.367 7                  -5422004.333 8       234.000          67.000         131.000                  
G13  21789906.629    21789906.456    21789906.178                   -12160972.910 8 -12160972.910 7                  -9476076.208 8       333.000          70.000         147.000                  
G15  24320096.317    24320094.063    24320095.993                    -2061869.497 7  -2061869.514 6                  -1606642.281 6        52.000          21.000          33.000                  
G16  23002517.157    23002516.202    23002515.921                    -8507161.966 8  -8507161.976 6                  -6628959.457 7       208.000          33.000          84.000                  
G18  22696543.320    22696542.807    22696543.343                   -12849290.375 8 -12849290.367 8                 -10012434.943 8       305.000         121.000         177.000                  
G20  20315365.660    20315364.549    20315365.252                   -23196127.029 9 -23196127.029 8                 -18074901.887 8       698.000         392.000         398.000                  
G29  22885239.480    22885238.926    22885239.249                   -10700785.086 8 -10700785.086 8                  -8338272.180 9       321.000         235.000         585.000                  
G30  22226742.993    22226742.167    22226745.305                   -14691784.219 8 -14691784.219 8                 -11448144.100 9       361.000         317.000         666.000                  
> 2024 10 31 10 23 40.0000000  0 10
G05  19661013.906    19661013.613    19661013.540                   -22671284.181 9 -22671284.181 9                 -17665932.935 9       947.000        2164.000        2054.000                  
G07  21903423.996    21903423.269    21903423.697                   -18019473.335 8 -18019473.334 8                 -14041148.477 9       460.000         479.000         779.000                  
G09  24155175.130    24155174.733    24155177.872                    -2004313.653 8  -2004313.649 6                  -1561804.714 8       107.000          40.000         104.000                  
G11  23692011.578    23692011.009    23692012.148                    -6688982.331 8  -6688982.330 7                  -5212189.045 8       227.000          67.000         117.000                  
G13  21841998.030    21841998.079    21841997.997                   -11887230.884 8 -11887230.885 7                  -9262770.757 8       341.000          71.000         139.000                  
G16  22957773.795    22957772.810    22957772.720                    -8742290.188 8  -8742290.184 6                  -6812176.255 7       213.000          46.000          92.000                  
G18  22695560.111    22695559.761    22695560.352                   -12854456.990 8 -12854456.990 8                 -10016460.907 8       306.000         116.000         178.000                  
G20  20331755.107    20331753.996    20331754.459                   -23110000.356 9 -23110000.356 8                 -18007790.210 8       696.000         393.000         401.000                  
G29  22945826.449    22945826.165    22945826.521                   -10382397.681 8 -10382397.684 8                  -8090178.130 9       309.000         215.000         575.000                  
G30  22210310.263    22210309.761    22210312.832                   -14778137.439 8 -14778137.440 8                 -11515432.341 9       364.000         326.000         665.000                  
> 2024 10 31 10 23 50.0000000  0 10
G05  19689671.828    19689671.673    19689671.587                   -22520685.332 9 -22520685.331 9                 -17548583.193 9       949.000        2169.000        2052.000                  
G07  21857907.643    21857907.357    21857907.691                   -18258661.303 8 -18258661.305 8                 -14227528.726 9       467.000         491.000         752.000                  
G09  24096430.571    24096429.886    24096432.580                    -2313020.416 8  -2313020.405 6                  -1802355.405 8       106.000          40.000         111.000                  
G11  23743570.413    23743569.569    23743570.220                    -6418042.554 8  -6418042.556 7                  -5001067.204 8       223.000          61.000         111.000                  
G13  21894404.905    21894404.544    21894404.243                   -11611832.928 8 -11611832.928 7                  -9048174.978 8       342.000          71.000         144.000                  
G16  22913623.736    22913622.375    22913622.277                    -8974300.664 8  -8974300.669 6                  -6992963.619 7       219.000          41.000          90.000                  
G18  22695319.893    22695319.433    22695320.112                   -12855718.231 8 -12855718.227 8                 -10017443.690 8       303.000         119.000         163.000                  
G20  20348892.092    20348890.872    20348891.551                   -23019945.082 9 -23019945.082 8                 -17937617.293 8       693.000         382.000         395.000                  
G29  23006986.916    23006986.531    23006986.880                   -10060997.334 8 -10060997.334 8                  -7839736.329 9       303.000         210.000         545.000                  
G30  22194321.844    22194321.011    22194324.154                   -14862158.748 8 -14862158.748 8                 -11580903.517 9       370.000         330.000         656.000                  
> 2024 10 31 10 24  0.0000000  0 10
G05  19719142.292    19719142.007    19719141.983                   -22365817.546 9 -22365817.546 9                 -17427907.010 9       952.000        2167.000        2109.000                  
G07  21812866.044    21812865.520    21812865.831                   -18495357.777 8 -18495357.777 9                 -14411967.549 9       486.000         537.000         753.000                  
G09  24037784.771    24037784.659    24037787.171                    -2621203.274 8  -2621203.290 6                  -2042497.876 8       114.000          41.000         112.000                  
G11  23795431.623    23795431.537    23795431.797                    -6145508.028 8  -6145508.023 7                  -4788702.711 8       216.000          55.000         105.000                  
G13  21947114.272    21947113.427    21947113.632                   -11334844.575 8 -11334844.573 7                  -8832339.934 8       335.000          67.000         137.000                  
G16  22870068.713    22870067.642    22870067.880                    -9203183.614 8  -9203183.606 6                  -7171313.955 7       222.000          37.000         100.000                  
G18  22695818.506    22695818.176    22695818.710                   -12853098.257 8 -12853098.256 8                 -10015402.146 8       299.000         121.000         162.000                  
G20  20366765.807    20366764.555    20366765.180                   -22926018.497 9 -22926018.496 8                 -17864427.767 8       682.000         375.000         402.000                  
G29  23068702.837    23068701.991    23068702.514                    -9736680.116 8  -9736680.117 8                  -7587021.629 9       300.000         198.000         522.000                  
G30  22178774.099    22178773.476    22178776.477                   -14943862.141 8 -14943862.138 8                 -11644568.520 9       372.000         335.000         673.000                  
