     3.03           OBSERVATION DATA    M (MIXED)           RINEX VERSION / TYPE
BJPP                CNES                20241101 034226 UTC PGM / RUN BY / DATE 
MARKER                                                      MARKER NAME         
SPACECRAFT                                                  MARKER TYPE         
OBSERVER            CNES                                    OBSERVER / AGENCY   
RECNUM              BLACKJACK           RECVERS             REC # / TYPE / VERS 
ANTNUM              BLACKJACK                               ANT # / TYPE        
        0.0000        0.0000        0.0000                  ANTENNA: DELTA H/E/N
G   12 C1C C1W C2W C2X L1C L1W L2X L2W S1C S1W S2W S2X      SYS / # / OBS TYPES 
DBHZ                                                        SIGNAL STRENGTH UNIT
This rinex produced from the following file(s):             COMMENT             
/tmp/mesos_work/slaves/d197f515-9ebc-49f2-8adc-fe7a9d3e6458-COMMENT             
S58/frameworks/8c1b9f46-52ed-4aff-9edf-38d17bf6761e-3561/exeCOMMENT             
cutors/toil-16065/runs/720b52f6-b27c-40be-ae68-cbb14fdc2f42/COMMENT             
3ba98abcbf305d11969e329969bf2438/7bda/a3ca/tmpl2e0te28riy1owCOMMENT             
v1/stgcac20212-b215-45a8-80c3-72a5d1f51e01/SWOT_HBX_20241101COMMENT             
T025454_20241031T235329_20241101T002609_O_APID1280.PTM_0    COMMENT             
  2024    10    31    23    53   10.0000000                 TIME OF FIRST OBS   
G L1C                                                       SYS / PHASE SHIFT   
G L1W -0.25000                                              SYS / PHASE SHIFT   
G L2W                                                       SYS / PHASE SHIFT   
G L2X  0.25000                                              SYS / PHASE SHIFT   
                                                            END OF HEADER       
> 2024 10 31 23 53 10.0000000  0  9
G05  24460505.518    24460504.403    24460505.707                     -944294.762 7   -944294.774 6                   -735816.514 7        94.000          27.000          71.000                  
G10  23625254.224    23625253.461    23625257.369                    -8030201.501 8  -8030201.500 7                  -6257298.183 8       177.000          75.000         255.000                  
G13  22816905.553    22816904.721    22816905.896                    -6034408.708 8  -6034408.702 6                  -4702137.847 7       214.000          31.000          62.000                  
G15  19943075.374    19943075.101    19943075.454                   -21167888.794 9 -21167888.795 9                 -16494458.168 9       612.000         845.000        1125.000                  
G18  20179018.733    20179018.399    20179019.146                   -22683073.296 9 -22683073.292 8                 -17675120.393 9       584.000         434.000         636.000                  
G23  20768248.545    20768248.589    20768249.032                   -21606275.655 9 -21606275.651 8                 -16836056.350 8       505.000         325.000         380.000                  
G24  22838329.308    22838329.276    22838332.675                   -11032243.420 8 -11032243.423 7                  -8596554.913 8       194.000          94.000         349.000                  
G29  20970128.553    20970127.835    20970128.734                   -16750805.570 9 -16750805.572 9                 -13052576.926 9       534.000         640.000        1025.000                  
G32  25155121.346    25155121.230    25155122.909                     1887145.412 8   1887145.425 6                   1470501.631 6       104.000          35.000          28.000                  
> 2024 10 31 23 53 20.0000000  0  9
G05  24419534.170    24419533.771    24419535.060                    -1159598.945 7  -1159598.931 6                   -903585.950 7        95.000          28.000          76.000                  
G10  23635002.545    23635001.579    23635005.163                    -7978975.679 8  -7978975.679 7                  -6217381.940 8       173.000          79.000         251.000                  
G13  22764996.453    22764996.199    22764995.768                    -6307194.420 8  -6307194.434 6                  -4914698.091 7       218.000          38.000          67.000                  
G15  19911351.737    19911351.417    19911351.901                   -21334597.515 9 -21334597.515 9                 -16624361.032 9       608.000         831.000        1192.000                  
G18  20140819.967    20140819.693    20140820.352                   -22883809.002 9 -22883808.998 8                 -17831537.801 9       595.000         461.000         637.000                  
G23  20747542.043    20747541.281    20747542.021                   -21715091.074 9 -21715091.070 8                 -16920847.567 8       512.000         338.000         391.000                  
G24  22865955.461    22865955.403    22865958.660                   -10887068.390 8 -10887068.396 7                  -8483431.528 8       195.000          92.000         340.000                  
G29  21027043.668    21027042.931    21027043.862                   -16451714.719 8 -16451714.721 9                 -12819519.148 9       500.000         562.000         974.000                  
G32  25215121.456    25215120.237    25215123.011                     2202445.780 8   2202445.775 6                   1716190.179 6       105.000          33.000          30.000                  
> 2024 10 31 23 53 30.0000000  0  9
G05  24378865.996    24378865.853    24378866.463                    -1373309.754 8  -1373309.730 6                  -1070113.821 7       102.000          30.000          72.000                  
G10  23645078.667    23645077.065    23645081.197                    -7926026.221 8  -7926026.227 7                  -6176122.591 8       171.000          74.000         254.000                  
G13  22713319.519    22713319.252    22713318.956                    -6578758.682 8  -6578758.664 6                  -5126306.560 7       221.000          29.000          72.000                  
G15  19880240.642    19880240.556    19880241.038                   -21498086.250 9 -21498086.251 9                 -16751754.816 9       601.000         813.000        1284.000                  
G18  20103577.629    20103577.104    20103577.796                   -23079520.075 9 -23079520.070 8                 -17984039.912 9       609.000         468.000         629.000                  
G23  20727480.148    20727479.997    20727480.501                   -21820515.357 9 -21820515.352 8                 -17002996.344 8       509.000         339.000         380.000                  
G24  22893856.477    22893856.071    22893859.359                   -10740448.092 8 -10740448.086 7                  -8369181.962 8       189.000          91.000         328.000                  
G29  21084759.253    21084758.703    21084759.653                   -16148416.423 8 -16148416.424 8                 -12583182.849 9       460.000         478.000         928.000                  
G32  25275191.689    25275190.137    25275194.068                     2518114.233 8   2518114.224 6                   1962165.517 6       104.000          32.000          29.000                  
> 2024 10 31 23 53 40.0000000  0  9
G05  24338504.446    24338503.583    24338504.999                    -1585415.256 8  -1585415.252 6                  -1235390.793 7       101.000          35.000          86.000                  
G10  23655479.617    23655479.582    23655483.555                    -7871361.881 8  -7871361.886 7                  -6133526.969 8       167.000          78.000         259.000                  
G13  22661878.681    22661878.174    22661878.010                    -6849083.256 8  -6849083.251 6                  -5336949.033 7       225.000          36.000          73.000                  
G15  19849745.656    19849745.328    19849746.045                   -21658338.900 9 -21658338.901 9                 -16876626.977 9       586.000         779.000        1395.000                  
G18  20067298.992    20067298.765    20067299.427                   -23270163.985 9 -23270163.982 8                 -18132593.582 9       619.000         488.000         631.000                  
G23  20708066.984    20708066.732    20708067.335                   -21922532.720 9 -21922532.717 8                 -17082490.377 8       514.000         346.000         388.000                  
G24  22922026.666    22922026.104    22922029.593                   -10592412.651 8 -10592412.650 7                  -8253829.705 8       187.000          89.000         323.000                  
G29  21143259.366    21143258.956    21143259.908                   -15840995.223 8 -15840995.224 8                 -12343633.901 9       430.000         428.000         896.000                  
G32  25335323.367    25335323.169    25335326.011                     2834114.876 8   2834114.877 6                   2208399.722 6       101.000          35.000          39.000                  
> 2024 10 31 23 53 50.0000000  0  9
G05  24298453.706    24298452.182    24298454.224                    -1795883.417 8  -1795883.394 6                  -1399391.922 7       107.000          32.000          88.000                  
G10  23666210.648    23666210.440    23666214.344                    -7814971.338 8  -7814971.342 7                  -6089586.253 8       165.000          73.000         259.000                  
G13  22610680.106    22610679.894    22610680.364                    -7118129.749 8  -7118129.743 6                  -5546595.592 7       225.000          36.000          72.000                  
G15  19819872.895    19819872.791    19819873.600                   -21815319.456 9 -21815319.457 9                 -16998949.455 9       574.000         744.000        1482.000                  
G18  20031996.846    20031996.395    20031996.971                   -23455679.000 9 -23455678.995 9                 -18277150.711 9       631.000         507.000         626.000                  
G23  20689308.862    20689308.571    20689308.999                   -22021107.693 9 -22021107.689 8                 -17159302.023 8       518.000         345.000         381.000                  
G24  22950464.016    22950464.102    22950467.240                   -10442971.930 8 -10442971.944 7                  -8137382.427 8       184.000          84.000         312.000                  
G29  21202532.148    21202531.664    21202532.438                   -15529515.639 8 -15529515.641 8                 -12100922.583 9       405.000         376.000         877.000                  
G32  25395515.516    25395516.449    25395519.908                     3150432.231 8   3150432.228 6                   2454880.718 6       105.000          30.000          35.000                  
> 2024 10 31 23 54  0.0000000  0  9
G05  24258717.045    24258716.519    24258717.767                    -2004697.257 8  -2004697.254 6                  -1562103.979 7       105.000          36.000          87.000                  
G10  23677269.318    23677269.007    23677272.730                    -7756858.392 8  -7756858.394 7                  -6044303.419 8       171.000          73.000         255.000                  
G13  22559730.173    22559729.842    22559729.811                    -7385874.234 8  -7385874.235 6                  -5755227.616 7       235.000          40.000          78.000                  
G15  19790627.276    19790626.959    19790627.712                   -21969007.238 9 -21969007.239 9                 -17118706.139 9       576.000         753.000        1531.000                  
G18  19997679.070    19997678.785    19997679.346                   -23636019.248 9 -23636019.243 9                 -18417675.541 9       647.000         535.000         623.000                  
G23  20671209.389    20671208.977    20671209.674                   -22116220.234 9 -22116220.229 8                 -17233415.677 8       523.000         347.000         370.000                  
G24  22979165.114    22979164.333    22979167.555                   -10292150.663 8 -10292150.664 7                  -8019859.386 8       181.000          79.000         305.000                  
G29  21262561.589    21262561.273    21262562.267                   -15214057.279 8 -15214057.283 8                 -11855110.924 9       377.000         320.000         854.000                  
G32  25455765.257    25455764.368    25455767.400                     3467036.110 8   3467036.124 6                   2701584.963 6       103.000          35.000          36.000                  
> 2024 10 31 23 54 10.0000000  0  9
G05  24219301.791    24219300.547    24219302.087                    -2211828.169 8  -2211828.200 6                  -1723504.656 7       111.000          30.000          85.000                  
G10  23688657.138    23688656.496    23688660.345                    -7697015.164 8  -7697015.161 7                  -5997672.315 8       166.000          71.000         254.000                  
G13  22509035.053    22509034.440    22509034.583                    -7652281.089 8  -7652281.087 6                  -5962817.329 7       238.000          40.000          79.000                  
G15  19762013.637    19762013.760    19762014.584                   -22119370.482 9 -22119370.483 9                 -17235872.272 9       570.000         732.000        1587.000                  
G18  19964356.917    19964356.634    19964357.225                   -23811128.240 9 -23811128.234 9                 -18554124.081 9       655.000         540.000         612.000                  
G23  20653775.138    20653774.666    20653775.186                   -22207839.023 9 -22207839.019 8                 -17304806.937 8       525.000         348.000         374.000                  
G24  23008125.759    23008124.706    23008128.126                   -10139961.769 8 -10139961.782 7                  -7901270.659 8       180.000          82.000         299.000                  
G29  21323335.656    21323335.147    21323336.262                   -14894688.241 8 -14894688.243 8                 -11606251.979 9       353.000         280.000         887.000                  
G32  25516063.783    25516063.271    25516067.065                     3783908.285 8   3783908.292 6                   2948498.265 6       103.000          33.000          38.000                  
> 2024 10 31 23 54 20.0000000  0  9
G05  24180206.973    24180206.304    24180207.446                    -2417271.448 8  -2417271.438 6                  -1883590.285 7       112.000          40.000          95.000                  
G10  23700371.200    23700370.214    23700374.351                    -7635457.693 8  -7635457.686 7                  -5949705.443 8       168.000          68.000         248.000                  
G13  22458596.530    22458595.725    22458595.420                    -7917338.248 8  -7917338.254 6                  -6169355.340 7       240.000          42.000          81.000                  
G15  19734034.992    19734034.651    19734035.545                   -22266401.270 9 -22266401.272 9                 -17350441.681 9       569.000         731.000        1672.000                  
G18  19932036.227    19932036.028    19932036.583                   -23980974.204 9 -23980974.197 9                 -18686471.559 9       664.000         559.000         616.000                  
G23  20637006.778    20637006.424    20637006.952                   -22295957.023 9 -22295957.018 8                 -17373470.305 8       527.000         347.000         380.000                  
G24  23037338.905    23037339.107    23037342.059                    -9986441.989 8  -9986441.990 7                  -7781644.876 8       178.000          87.000         307.000                  
G29  21384836.307    21384835.756    21384836.979                   -14571500.486 8 -14571500.487 8                 -11354417.409 9       340.000         268.000         922.000                  
G32  25576405.723    25576405.330    25576408.678                     4101006.951 7   4101006.932 6                   3195588.062 6        97.000          34.000          44.000                  
> 2024 10 31 23 54 30.0000000  0  9
G05  24141444.149    24141441.995    24141443.139                    -2620979.500 8  -2620979.487 6                  -2042323.809 7       115.000          35.000          95.000                  
G10  23712416.615    23712415.988    23712419.640                    -7572159.161 8  -7572159.162 7                  -5900381.903 8       169.000          77.000         245.000                  
G13  22408425.273    22408424.037    22408424.511                    -8180990.497 8  -8180990.508 6                  -6374798.620 7       245.000          42.000          85.000                  
G15  19706699.916    19706699.451    19706700.176                   -22410049.075 9 -22410049.075 9                 -17462375.003 9       594.000         805.000        1657.000                  
G18  19900731.086    19900730.940    19900731.422                   -24145483.525 9 -24145483.518 9                 -18814660.616 9       667.000         576.000         611.000                  
G23  20620913.957    20620913.782    20620914.112                   -22380524.686 9 -22380524.679 8                 -17439367.162 8       529.000         359.000         380.000                  
G24  23066808.221    23066807.259    23066810.642                    -9831584.807 8  -9831584.808 7                  -7660976.966 8       181.000          79.000         304.000                  
G29  21447054.304    21447053.872    21447055.087                   -14244542.784 8 -14244542.788 8                 -11099645.218 9       335.000         251.000         961.000                  
G32  25636789.768    25636790.330    25636793.497                     4418333.569 7   4418333.571 6                   3442855.470 6        95.000          33.000          47.000                  
> 2024 10 31 23 54 40.0000000  0  9
G05  24103006.714    24103005.679    24103006.279                    -2822964.939 8  -2822964.930 6                  -2199715.023 7       122.000          42.000          94.000                  
G10  23724787.597    23724786.205    23724789.923                    -7507153.055 8  -7507153.062 7                  -5849727.781 8       171.000          76.000         235.000                  
G13  22358519.727    22358519.187    22358518.960                    -8443242.707 8  -8443242.716 6                  -6579150.932 7       250.000          41.000          91.000                  
G15  19680006.183    19680006.010    19680006.648                   -22550324.105 9 -22550324.107 9                 -17571680.194 9       625.000         881.000        1652.000                  
G18  19870443.909    19870443.686    19870444.280                   -24304643.920 9 -24304643.915 9                 -18938681.673 9       664.000         563.000         615.000                  
G23  20605494.797    20605494.362    20605494.953                   -22461553.293 9 -22461553.288 8                 -17502506.320 8       525.000         346.000         373.000                  
G24  23096519.861    23096520.053    23096523.241                    -9675444.001 8  -9675444.001 7                  -7539308.834 8       181.000          74.000         306.000                  
G29  21509968.872    21509968.575    21509969.589                   -13913924.400 8 -13913924.403 8                 -10842020.535 9       331.000         253.000         965.000                  
G32  25697208.536    25697207.424    25697211.593                     4735829.613 7   4735829.620 6                   3690254.910 6        93.000          33.000          46.000                  
> 2024 10 31 23 54 50.0000000  0  9
G05  24064907.038    24064906.950    24064907.973                    -3023173.838 8  -3023173.839 6                  -2355721.945 7       122.000          40.000          87.000                  
G10  23737488.638    23737487.914    23737491.249                    -7440406.388 8  -7440406.396 7                  -5797717.378 8       172.000          73.000         231.000                  
G13  22308893.337    22308892.657    22308892.382                    -8704033.094 8  -8704033.104 6                  -6782364.178 7       249.000          43.000          89.000                  
G15  19653965.417    19653965.145    19653965.630                   -22687170.299 9 -22687170.300 9                 -17678313.559 9       640.000         924.000        1675.000                  
G18  19841189.255    19841189.184    19841189.696                   -24458377.651 9 -24458377.643 9                 -19058474.166 9       666.000         559.000         641.000                  
G23  20590759.429    20590759.214    20590759.681                   -22538987.936 9 -22538987.930 8                 -17562844.985 8       525.000         353.000         387.000                  
G24  23126479.090    23126479.533    23126482.656                    -9518006.518 8  -9518006.521 7                  -7416630.312 8       182.000          81.000         306.000                  
G29  21573572.383    21573571.376    21573572.709                   -13579687.915 8 -13579687.915 8                 -10581576.548 9       325.000         245.000         954.000                  
G32  25757659.971    25757658.720    25757662.555                     5053503.388 7   5053503.402 6                   3937792.829 7        91.000          30.000          51.000                  
> 2024 10 31 23 55  0.0000000  0  9
G05  24027145.552    24027145.655    24027146.233                    -3221612.662 8  -3221612.656 6                  -2510349.554 7       129.000          37.000          89.000                  
G10  23750515.411    23750515.362    23750518.961                    -7371946.574 8  -7371946.569 7                  -5744372.055 8       168.000          74.000         226.000                  
G13  22259544.598    22259544.106    22259544.291                    -8963359.915 8  -8963359.903 6                  -6984436.986 7       255.000          45.000          97.000                  
G15  19628575.996    19628575.643    19628576.221                   -22820592.376 9 -22820592.378 9                 -17782278.780 9       645.000         938.000        1620.000                  
G18  19812970.552    19812970.286    19812970.918                   -24606668.407 9 -24606668.399 9                 -19174025.385 9       661.000         549.000         643.000                  
G23  20576706.644    20576706.523    20576706.978                   -22612834.558 9 -22612834.552 8                 -17620387.777 8       526.000         357.000         379.000                  
G24  23156676.841    23156676.888    23156679.716                    -9359319.595 8  -9359319.600 7                  -7292978.225 8       179.000          83.000         298.000                  
G29  21637844.193    21637843.661    21637844.821                   -13241936.089 8 -13241936.091 8                 -10318393.346 9       324.000         239.000         943.000                  
G32  25818135.119    25818133.958    25818137.920                     5371303.195 7   5371303.219 6                   4185428.955 6        82.000          27.000          50.000                  
> 2024 10 31 23 55 10.0000000  0  9
G05  23989728.365    23989727.471    23989728.065                    -3418245.280 8  -3418245.274 6                  -2663569.706 7       132.000          45.000          96.000                  
G10  23763872.070    23763871.651    23763874.994                    -7301758.440 8  -7301758.436 7                  -5689679.994 8       169.000          74.000         218.000                  
G13  22210483.199    22210482.743    22210483.193                    -9221178.552 8  -9221178.562 6                  -7185334.569 8       261.000          41.000         101.000                  
G15  19603845.299    19603845.007    19603845.561                   -22950552.694 9 -22950552.696 9                 -17883546.522 9       649.000         947.000        1570.000                  
G18  19785798.358    19785798.185    19785798.814                   -24749458.412 9 -24749458.404 9                 -19285290.294 9       663.000         552.000         661.000                  
G23  20563343.976    20563343.687    20563344.018                   -22683056.994 9 -22683056.989 8                 -17675106.534 8       528.000         351.000         374.000                  
G24  23187110.844    23187110.880    23187113.975                    -9199387.506 8  -9199387.512 7                  -7168355.865 8       179.000          81.000         291.000                  
G29  21702773.974    21702773.209    21702774.379                   -12900729.108 8 -12900729.111 8                 -10052517.833 9       328.000         238.000         943.000                  
G32  25878631.484    25878632.432    25878635.365                     5689220.208 7   5689220.220 6                   4433156.416 7        85.000          27.000          52.000                  
> 2024 10 31 23 55 20.0000000  0  9
G05  23952657.891    23952656.548    23952657.329                    -3613053.284 8  -3613053.284 6                  -2815368.109 7       130.000          47.000         100.000                  
G10  23777556.401    23777556.464    23777559.877                    -7229844.311 8  -7229844.318 7                  -5633643.010 8       165.000          73.000         202.000                  
G13  22161714.634    22161713.550    22161713.806                    -9477461.747 8  -9477461.757 7                  -7385035.700 7       262.000          51.000          95.000                  
G15  19579777.297    19579776.839    19579777.426                   -23077031.423 9 -23077031.426 9                 -17982101.336 9       650.000         961.000        1529.000                  
G18  19759680.575    19759680.316    19759680.977                   -24886708.545 9 -24886708.535 9                 -19392238.416 9       656.000         551.000         702.000                  
G23  20550674.172    20550673.799    20550674.215                   -22749636.928 9 -22749636.922 8                 -17726986.956 8       528.000         364.000         370.000                  
G24  23217778.383    23217777.596    23217780.847                    -9038231.858 8  -9038231.853 7                  -7042780.054 8       178.000          78.000         285.000                  
G29  21768346.346    21768345.505    21768346.850                   -12556144.355 8 -12556144.355 8                  -9784010.299 9       332.000         245.000         938.000                  
G32  25939147.591    25939147.116    25939151.470                     6007228.556 7   6007228.558 6                   4680955.014 7        78.000          23.000          61.000                  
> 2024 10 31 23 55 30.0000000  0  9
G05  23915934.808    23915934.238    23915934.950                    -3806029.783 8  -3806029.798 6                  -2965739.337 8       134.000          43.000         104.000                  
G10  23791567.938    23791566.980    23791570.384                    -7156218.448 8  -7156218.442 7                  -5576272.213 8       165.000          72.000         196.000                  
G13  22113240.209    22113239.945    22113239.600                    -9732193.905 8  -9732193.895 6                  -7583528.240 7       257.000          39.000          95.000                  
G15  19556372.957    19556372.696    19556373.178                   -23200020.996 9 -23200020.997 9                 -18077937.326 9       650.000         956.000        1456.000                  
G18  19734621.847    19734621.588    19734622.175                   -25018392.776 9 -25018392.767 9                 -19494849.473 9       656.000         555.000         716.000                  
G23  20538698.537    20538698.398    20538698.755                   -22812568.541 9 -22812568.535 8                 -17776024.539 8       531.000         369.000         359.000                  
G24  23248670.692    23248670.960    23248674.216                    -8875886.028 8  -8875886.028 7                  -6916276.818 8       175.000          76.000         272.000                  
G29  21834544.330    21834543.736    21834545.039                   -12208270.607 8 -12208270.607 8                  -9512939.924 9       324.000         242.000         886.000                  
G32  25999673.264    25999672.419    25999676.346                     6325290.731 7   6325290.735 6                   4928795.579 6        78.000          25.000          47.000                  
> 2024 10 31 23 55 40.0000000  0 10
G05  23879569.009    23879569.450    23879570.215                    -3997129.179 8  -3997129.172 6                  -3114647.887 8       134.000          44.000         116.000                  
G10  23805908.486    23805907.793    23805911.458                    -7080855.844 8  -7080855.849 7                  -5517548.109 8       163.000          70.000         195.000                  
G13  22065071.830    22065071.069    22065071.447                    -9985319.889 8  -9985319.903 6                  -7780769.201 7       257.000          42.000          96.000                  
G15  19533641.708    19533641.329    19533641.806                   -23319475.032 9 -23319475.034 9                 -18171018.353 9       651.000         968.000        1474.000                  
G18  19710634.472    19710634.278    19710634.813                   -25144447.072 9 -25144447.060 9                 -19593073.565 9       657.000         556.000         773.000                  
G23  20527426.020    20527425.534    20527425.784                   -22871807.173 9 -22871807.168 8                 -17822184.462 8       540.000         370.000         371.000                  
G24  23279791.987    23279791.814    23279795.208                    -8712343.953 8  -8712343.957 7                  -6788841.454 8       178.000          84.000         272.000                  
G27  24391237.450    24391231.388    24391247.176                     -317720.572 7   -317720.591 6                   -247577.263 7        60.000          21.000          64.000                  
G29  21901359.108    21901358.432    21901359.681                   -11857157.261 8 -11857157.260 8                  -9239345.180 9       322.000         228.000         861.000                  
G32  26060210.397    26060208.598    26060212.059                     6643408.827 7   6643408.830 6                   5176679.699 7        73.000          22.000          52.000                  
> 2024 10 31 23 55 50.0000000  0 10
G05  23843559.399    23843558.812    23843559.510                    -4186365.868 8  -4186365.872 6                  -3262104.984 8       138.000          49.000         126.000                  
G10  23820573.608    23820572.791    23820576.252                    -7003791.837 8  -7003791.827 7                  -5457498.238 8       158.000          65.000         192.000                  
G13  22017208.483    22017207.359    22017208.150                   -10236844.696 8 -10236844.704 6                  -7976762.515 7       257.000          40.000          95.000                  
G15  19511580.205    19511580.080    19511580.500                   -23435407.810 9 -23435407.812 9                 -18261355.545 9       662.000         986.000        1513.000                  
G18  19687718.895    19687718.630    19687719.314                   -25264868.897 9 -25264868.886 9                 -19686908.719 9       657.000         554.000         810.000                  
G23  20516853.021    20516852.518    20516852.837                   -22927368.949 9 -22927368.945 8                 -17865479.296 8       547.000         388.000         366.000                  
G24  23311130.691    23311130.541    23311133.883                    -8547659.532 8  -8547659.529 7                  -6660515.936 8       173.000          81.000         272.000                  
G27  24338667.007    24338665.238    24338672.856                     -593967.293 7   -593967.309 6                   -462833.302 8        66.000          27.000         131.000                  
G29  21968769.610    21968768.989    21968770.111                   -11502913.731 8 -11502913.731 8                  -8963311.315 9       323.000         224.000         822.000                  
G32  26120744.870    26120744.320    26120747.171                     6961525.014 7   6961525.009 6                   5424562.339 6        68.000          23.000          46.000                  
> 2024 10 31 23 56  0.0000000  0 10
G05  23807912.911    23807913.216    23807913.475                    -4373687.392 8  -4373687.372 6                  -3408069.751 8       143.000          50.000         135.000                  
G10  23835568.084    23835567.647    23835570.802                    -6924994.881 8  -6924994.879 7                  -5396098.024 8       155.000          68.000         198.000                  
G13  21969661.423    21969660.064    21969660.870                   -10486705.999 8 -10486705.992 6                  -8171459.561 7       256.000          44.000          96.000                  
G15  19490199.065    19490198.647    19490199.129                   -23547767.140 9 -23547767.143 9                 -18348908.230 9       650.000         950.000        1556.000                  
G18  19665888.052    19665887.860    19665888.626                   -25379590.158 9 -25379590.146 9                 -19776301.879 9       665.000         575.000         867.000                  
G23  20506988.852    20506988.661    20506988.939                   -22979203.627 9 -22979203.622 8                 -17905869.895 8       556.000         392.000         372.000                  
G24  23342688.682    23342688.660    23342692.004                    -8381819.515 8  -8381819.514 7                  -6531289.918 8       172.000          72.000         253.000                  
G27  24286475.886    24286472.912    24286478.275                     -868249.752 7   -868249.756 6                   -676559.932 8        69.000          23.000         132.000                  
G29  22036767.614    22036766.802    22036768.123                   -11145582.363 8 -11145582.365 8                  -8684871.334 9       327.000         240.000         790.000                  
G32  26181279.426    26181280.810    26181284.876                     7279648.687 7   7279648.723 6                   5672450.815 6        64.000          29.000          47.000                  
> 2024 10 31 23 56 10.0000000  0 10
G05  23772629.883    23772629.932    23772630.533                    -4559099.956 8  -4559099.950 7                  -3552547.022 8       144.000          53.000         141.000                  
G10  23850886.525    23850886.336    23850889.949                    -6844492.257 8  -6844492.260 7                  -5333368.710 8       150.000          58.000         200.000                  
G13  21922431.380    21922430.761    21922430.879                   -10734900.393 8 -10734900.385 6                  -8364857.734 7       259.000          43.000          96.000                  
G15  19469496.165    19469496.002    19469496.552                   -23656559.873 9 -23656559.874 9                 -18433681.748 9       642.000         943.000        1579.000                  
G18  19645143.788    19645143.452    19645144.182                   -25488602.851 9 -25488602.840 9                 -19861246.807 9       678.000         586.000         909.000                  
G23  20497832.524    20497832.336    20497832.558                   -23027320.318 9 -23027320.313 8                 -17943363.376 8       566.000         403.000         366.000                  
G24  23374458.992    23374458.347    23374461.422                    -8214869.505 8  -8214869.516 7                  -6401199.008 8       167.000          76.000         245.000                  
G27  24234660.393    24234659.214    24234662.844                    -1140538.860 7  -1140538.859 6                   -888733.186 8        74.000          23.000         137.000                  
G29  22105333.485    22105333.158    22105334.478                   -10785263.972 8 -10785263.973 8                  -8404103.789 9       325.000         241.000         759.000                  
G32  26241810.137    26241809.678    26241812.965                     7597730.749 7   7597730.741 6                   5920306.871 6        62.000          23.000          44.000                  
> 2024 10 31 23 56 20.0000000  0 10
G05  23737717.092    23737716.243    23737717.146                    -4742570.729 8  -4742570.735 6                  -3695511.216 8       144.000          49.000         148.000                  
G10  23866532.427    23866532.528    23866535.851                    -6762271.823 8  -6762271.821 7                  -5269300.844 8       145.000          55.000         185.000                  
G13  21875526.693    21875526.396    21875526.910                   -10981384.674 8 -10981384.680 6                  -8556923.372 8       259.000          46.000         107.000                  
G15  19449478.727    19449478.334    19449478.822                   -23761753.895 9 -23761753.896 9                 -18515651.077 9       666.000        1003.000        1606.000                  
G18  19625494.401    19625494.113    19625494.834                   -25591860.865 9 -25591860.853 9                 -19941707.561 9       691.000         612.000         929.000                  
G23  20489389.368    20489389.299    20489389.542                   -23071689.115 9 -23071689.110 8                 -17977936.421 8       568.000         409.000         360.000                  
G24  23406438.729    23406437.942    23406441.258                    -8046815.171 8  -8046815.175 7                  -6270247.593 8       166.000          67.000         241.000                  
G27  24183238.318    24183237.161    24183240.440                    -1410768.058 7  -1410768.051 6                  -1099301.335 8        81.000          30.000         127.000                  
G29  22174456.873    22174456.518    22174457.567                   -10422019.422 8 -10422019.424 8                  -8121056.114 9       317.000         225.000         706.000                  
G32  26302330.451    26302329.305    26302333.224                     7915761.936 7   7915761.949 6                   6168123.250 6        56.000          18.000          42.000                  
> 2024 10 31 23 56 30.0000000  0  9
G05  23703176.492    23703175.961    23703176.610                    -4924081.992 8  -4924082.003 7                  -3836948.513 8       144.000          51.000         151.000                  
G10  23882505.422    23882504.649    23882508.270                    -6678336.792 8  -6678336.798 7                  -5203896.914 8       142.000          61.000         188.000                  
G13  21828952.868    21828952.500    21828953.096                   -11226130.751 8 -11226130.744 6                  -8747634.543 8       259.000          43.000         109.000                  
G15  19430148.734    19430148.518    19430148.945                   -23863332.823 9 -23863332.824 9                 -18594803.449 9       678.000        1049.000        1719.000                  
G18  19606945.674    19606945.484    19606946.105                   -25689334.864 9 -25689334.853 9                 -20017661.297 9       705.000         646.000         977.000                  
G23  20481662.374    20481661.909    20481662.172                   -23112296.093 9 -23112296.087 8                 -18009578.191 8       564.000         400.000         382.000                  
G24  23438624.136    23438623.806    23438626.882                    -7877677.303 8  -7877677.307 7                  -6138451.830 8       163.000          71.000         230.000                  
G27  24132216.140    24132216.029    24132219.556                    -1678885.305 7  -1678885.291 6                  -1308223.802 8        85.000          30.000         135.000                  
G29  22244122.695    22244122.080    22244123.095                   -10055924.612 8 -10055924.614 8                  -7835787.453 9       305.000         216.000         685.000                  
> 2024 10 31 23 56 40.0000000  0  9
G05  23669009.061    23669009.257    23669009.741                    -5103629.302 8  -5103629.321 7                  -3976855.452 8       148.000          61.000         156.000                  
G10  23898800.755    23898800.170    23898803.642                    -6592703.643 8  -6592703.647 6                  -5137169.789 8       137.000          49.000         190.000                  
G13  21782712.928    21782712.140    21782712.859                   -11469123.616 8 -11469123.596 6                  -8936979.580 8       262.000          44.000         112.000                  
G15  19411507.421    19411507.181    19411507.553                   -23961293.902 9 -23961293.905 9                 -18671136.719 9       697.000        1097.000        1738.000                  
G18  19589500.234    19589500.156    19589500.845                   -25781010.008 9 -25781009.996 9                 -20089096.444 9       717.000         664.000         978.000                  
G23  20474650.849    20474650.576    20474650.907                   -23149140.920 9 -23149140.914 8                 -18038288.406 8       565.000         407.000         376.000                  
G24  23471009.767    23471009.552    23471012.825                    -7707489.831 8  -7707489.827 7                  -6005838.216 8       159.000          64.000         233.000                  
G27  24081605.030    24081603.744    24081607.181                    -1944851.726 7  -1944851.741 6                  -1515470.305 8        89.000          31.000         141.000                  
G29  22314313.379    22314312.909    22314314.088                    -9687068.175 8  -9687068.177 8                  -7548366.875 9       297.000         198.000         636.000                  
> 2024 10 31 23 56 50.0000000  0  9
G05  23635225.982    23635224.742    23635225.480                    -5281167.300 8  -5281167.300 7                  -4115196.715 8       147.000          52.000         163.000                  
G10  23915425.085    23915423.343    23915426.685                    -6505347.597 8  -6505347.601 6                  -5069100.126 8       135.000          47.000         187.000                  
G13  21736817.128    21736816.574    21736817.186                   -11710306.830 8 -11710306.832 6                  -9124914.501 8       274.000          45.000         103.000                  
G15  19393562.774    19393562.542    19393562.812                   -24055593.739 9 -24055593.741 9                 -18744617.070 9       704.000        1120.000        1757.000                  
G18  19573168.982    19573168.839    19573169.417                   -25866831.771 9 -25866831.759 9                 -20155970.509 9       725.000         682.000         981.000                  
G23  20468363.150    20468362.841    20468363.183                   -23182182.742 9 -23182182.737 8                 -18064035.244 8       561.000         397.000         378.000                  
G24  23503596.941    23503596.397    23503599.403                    -7536245.085 8  -7536245.095 7                  -5872400.741 8       154.000          64.000         218.000                  
G27  24031418.907    24031417.103    24031419.882                    -2208587.033 7  -2208587.035 6                  -1720978.284 8        93.000          31.000         144.000                  
G29  22385021.124    22385020.553    22385021.771                    -9315497.151 8  -9315497.152 8                  -7258831.037 9       296.000         195.000         616.000                  
> 2024 10 31 23 57  0.0000000  0  9
G05  23601820.280    23601819.547    23601820.240                    -5456712.123 8  -5456712.119 7                  -4251984.825 8       152.000          61.000         161.000                  
G10  23932368.353    23932367.330    23932371.060                    -6416305.588 8  -6416305.578 6                  -4999716.697 8       129.000          42.000         193.000                  
G13  21691264.783    21691264.180    21691264.918                   -11949685.446 8 -11949685.449 7                  -9311443.231 8       282.000          55.000         103.000                  
G15  19376311.224    19376310.946    19376311.309                   -24146251.003 9 -24146251.006 9                 -18815259.056 9       708.000        1120.000        1812.000                  
G18  19557949.853    19557949.648    19557950.295                   -25946808.769 9 -25946808.757 9                 -20218290.216 9       747.000         724.000         998.000                  
G23  20462795.160    20462794.807    20462795.062                   -23211442.930 9 -23211442.923 8                 -18086835.362 8       558.000         391.000         374.000                  
G24  23536373.911    23536373.852    23536377.343                    -7363996.986 8  -7363996.987 7                  -5738181.450 8       153.000          62.000         218.000                  
G27  23981658.471    23981658.353    23981660.927                    -2470072.698 7  -2470072.688 6                  -1924733.276 8        93.000          31.000         149.000                  
G29  22456224.188    22456224.005    22456225.501                    -8941319.871 8  -8941319.873 8                  -6967264.348 9       286.000         189.000         576.000                  
> 2024 10 31 23 57 10.0000000  0  9
G05  23568804.089    23568803.617    23568804.257                    -5630213.231 8  -5630213.248 7                  -4387180.436 8       155.000          57.000         174.000                  
G10  23949638.493    23949637.935    23949641.538                    -6325547.806 8  -6325547.807 6                  -4928996.319 8       129.000          49.000         189.000                  
G13  21646068.283    21646067.107    21646067.551                   -12187197.468 8 -12187197.480 7                  -9496517.481 8       285.000          51.000         113.000                  
G15  19359761.837    19359761.590    19359762.070                   -24233217.816 9 -24233217.817 9                 -18883025.363 9       702.000        1119.000        1832.000                  
G18  19543853.814    19543853.712    19543854.108                   -26020884.112 9 -26020884.101 9                 -20276011.230 9       773.000         766.000        1029.000                  
G23  20457955.399    20457954.991    20457955.309                   -23236876.421 9 -23236876.415 8                 -18106653.635 8       552.000         386.000         369.000                  
G24  23569345.176    23569345.059    23569348.488                    -7190732.157 8  -7190732.150 7                  -5603169.887 8       146.000          55.000         205.000                  
G27  23932344.576    23932343.439    23932346.087                    -2729222.993 7  -2729223.001 6                  -2126668.521 8        93.000          30.000         157.000                  
G29  22527916.110    22527916.074    22527917.257                    -8564577.385 8  -8564577.384 8                  -6673698.801 9       285.000         186.000         525.000                  
> 2024 10 31 23 57 20.0000000  0  9
G05  23536174.899    23536174.523    23536174.900                    -5801679.864 8  -5801679.869 7                  -4520790.739 8       157.000          66.000         186.000                  
G10  23967229.245    23967229.441    23967233.054                    -6233104.071 8  -6233104.048 6                  -4856962.210 8       127.000          41.000         189.000                  
G13  21601226.655    21601226.359    21601225.762                   -12422840.605 8 -12422840.610 7                  -9680135.462 8       288.000          54.000         105.000                  
G15  19343912.594    19343912.249    19343912.642                   -24316506.534 9 -24316506.535 9                 -18947925.620 9       703.000        1116.000        1796.000                  
G18  19530879.931    19530879.705    19530880.331                   -26089062.223 9 -26089062.211 9                 -20329137.003 9       791.000         808.000        1071.000                  
G23  20453840.535    20453840.385    20453840.674                   -23258498.512 9 -23258498.507 8                 -18123501.968 8       549.000         383.000         368.000                  
G24  23602501.003    23602500.764    23602504.345                    -7016496.829 8  -7016496.833 7                  -5467402.084 8       144.000          58.000         208.000                  
G27  23883478.201    23883477.801    23883480.963                    -2986011.995 7  -2986012.011 6                  -2326763.800 8        92.000          28.000         162.000                  
G29  22600077.330    22600076.826    22600077.880                    -8185369.849 8  -8185369.846 8                  -6378212.434 8       288.000         182.000         474.000                  
> 2024 10 31 23 57 30.0000000  0  9
G05  23503940.423    23503938.958    23503939.331                    -5971078.751 8  -5971078.745 7                  -4652789.831 8       158.000          58.000         199.000                  
G10  23985144.799    23985143.921    23985147.917                    -6138961.604 8  -6138961.603 6                  -4783604.392 8       128.000          41.000         180.000                  
G13  21556749.372    21556748.876    21556748.807                   -12656569.504 8 -12656569.502 7                  -9862261.823 8       287.000          59.000         106.000                  
G15  19328768.711    19328768.529    19328768.772                   -24396087.392 9 -24396087.394 9                 -19009936.642 9       708.000        1126.000        1707.000                  
G18  19519035.267    19519035.061    19519035.595                   -26151306.330 9 -26151306.317 9                 -20377638.877 9       809.000         852.000        1091.000                  
G23  20450456.342    20450456.060    20450456.378                   -23276282.477 9 -23276282.471 8                 -18137359.559 8       544.000         375.000         365.000                  
G24  23635841.273    23635841.079    23635844.308                    -6841294.295 8  -6841294.316 7                  -5330880.611 8       142.000          53.000         192.000                  
G27  23835076.015    23835074.684    23835078.153                    -3240370.999 7  -3240370.986 6                  -2524965.575 8        96.000          30.000         169.000                  
G29  22672696.563    22672696.032    22672696.972                    -7803754.337 8  -7803754.342 8                  -6080849.720 8       285.000         184.000         432.000                  
> 2024 10 31 23 57 40.0000000  0  9
G05  23472101.015    23472099.579    23472100.157                    -6138395.499 8  -6138395.497 7                  -4783166.429 8       154.000          61.000         219.000                  
G10  24003382.175    24003381.032    24003384.344                    -6043126.749 8  -6043126.744 6                  -4708927.831 8       135.000          47.000         186.000                  
G13  21512641.608    21512640.926    21512640.989                   -12888357.911 8 -12888357.920 7                 -10042876.115 8       294.000          55.000         116.000                  
G15  19314332.614    19314332.243    19314332.554                   -24471950.177 9 -24471950.180 9                 -19069050.464 9       692.000        1092.000        1686.000                  
G18  19508322.839    19508322.646    19508323.182                   -26207600.304 9 -26207600.291 9                 -20421504.282 9       821.000         880.000        1106.000                  
G23  20447803.903    20447803.707    20447803.980                   -23290221.239 9 -23290221.233 8                 -18148220.894 8       542.000         374.000         371.000                  
G24  23669360.549    23669360.529    23669364.076                    -6665146.747 8  -6665146.754 6                  -5193622.763 8       138.000          47.000         191.000                  
G27  23787145.033    23787143.541    23787146.848                    -3492250.374 7  -3492250.382 6                  -2721235.173 8       100.000          34.000         183.000                  
G29  22745759.287    22745758.839    22745759.993                    -7419806.036 8  -7419806.036 8                  -5781669.239 8       277.000         173.000         401.000                  
> 2024 10 31 23 57 50.0000000  0  9
G05  23440656.753    23440656.916    23440657.674                    -6303626.263 8  -6303626.263 7                  -4911917.610 8       151.000          59.000         227.000                  
G10  24021937.024    24021936.044    24021940.355                    -5945615.933 8  -5945615.948 6                  -4632945.321 8       134.000          46.000         184.000                  
G13  21468906.192    21468905.138    21468905.373                   -13118189.480 8 -13118189.478 7                 -10221965.603 8       307.000          59.000         121.000                  
G15  19300603.874    19300603.458    19300603.779                   -24544095.164 9 -24544095.166 9                 -19125267.303 9       690.000        1064.000        1691.000                  
G18  19498743.593    19498743.429    19498743.864                   -26257939.642 9 -26257939.628 9                 -20460729.716 9       835.000         904.000        1109.000                  
G23  20445882.500    20445882.337    20445882.524                   -23300318.330 9 -23300318.324 8                 -18156088.721 8       542.000         372.000         370.000                  
G24  23703053.403    23703053.784    23703057.387                    -6488086.103 8  -6488086.107 6                  -5055653.410 8       134.000          50.000         183.000                  
G27  23739691.825    23739691.778    23739695.287                    -3741610.535 8  -3741610.526 6                  -2915541.751 8       101.000          36.000         194.000                  
G29  22819250.029    22819249.414    22819250.592                    -7033610.206 8  -7033610.208 8                  -5480737.442 8       265.000         164.000         376.000                  
> 2024 10 31 23 58  0.0000000  0  9
G05  23409620.581    23409619.270    23409620.102                    -6466728.715 8  -6466728.720 7                  -5039010.367 8       152.000          62.000         244.000                  
G10  24040815.909    24040814.659    24040819.028                    -5846407.419 8  -5846407.402 7                  -4555639.923 8       131.000          51.000         178.000                  
G13  21425553.004    21425552.731    21425552.410                   -13346009.485 8 -13346009.491 7                 -10399487.645 8       315.000          64.000         125.000                  
G15  19287589.633    19287589.285    19287589.678                   -24612484.929 9 -24612484.931 9                 -19178557.993 9       693.000        1082.000        1733.000                  
G18  19490305.318    19490305.127    19490305.539                   -26302283.151 9 -26302283.138 9                 -20495283.058 9       836.000         911.000        1121.000                  
G23  20444698.731    20444698.355    20444698.564                   -23306539.689 9 -23306539.684 8                 -18160936.499 8       539.000         374.000         367.000                  
G24  23736922.811    23736922.610    23736926.054                    -6310105.957 8  -6310105.971 6                  -4916967.595 8       136.000          45.000         175.000                  
G27  23692736.177    23692734.407    23692737.820                    -3988373.627 8  -3988373.631 6                  -3107824.657 8       104.000          31.000         208.000                  
G29  22893159.632    22893158.841    22893160.107                    -6645213.302 8  -6645213.303 8                  -5178090.525 8       252.000         144.000         359.000                  
> 2024 10 31 23 58 10.0000000  0  9
G05  23378984.855    23378983.287    23378984.403                    -6627720.309 8  -6627720.313 7                  -5164458.304 8       156.000          62.000         255.000                  
G10  24060010.930    24060009.804    24060013.684                    -5745538.859 8  -5745538.860 7                  -4477040.970 8       137.000          53.000         172.000                  
G13  21382582.450    21382581.857    21382582.069                   -13571822.447 8 -13571822.449 7                 -10575445.755 8       324.000          61.000         136.000                  
G15  19275285.729    19275285.422    19275285.776                   -24677142.039 9 -24677142.041 9                 -19228940.120 9       695.000        1088.000        1756.000                  
G18  19483004.125    19483003.968    19483004.386                   -26340650.743 9 -26340650.730 9                 -20525179.860 9       833.000         902.000        1105.000                  
G23  20444247.358    20444247.031    20444247.107                   -23308911.280 9 -23308911.273 8                 -18162784.467 8       538.000         366.000         353.000                  
G24  23770955.825    23770956.394    23770959.465                    -6131258.867 8  -6131258.867 6                  -4777606.203 8       131.000          45.000         175.000                  
G27  23646275.242    23646274.705    23646278.063                    -4232521.292 8  -4232521.294 6                  -3298069.552 8       108.000          38.000         218.000                  
G29  22967467.886    22967467.317    22967468.488                    -6254720.593 8  -6254720.592 8                  -4873810.511 8       234.000         126.000         351.000                  
> 2024 10 31 23 58 20.0000000  0  9
G05  23348759.209    23348758.980    23348759.699                    -6786552.259 8  -6786552.265 7                  -5288223.405 8       156.000          62.000         271.000                  
G10  24079526.757    24079526.006    24079529.527                    -5642981.792 8  -5642981.798 6                  -4397126.310 8       144.000          45.000         162.000                  
G13  21340005.396    21340004.965    21340004.948                   -13795566.599 8 -13795566.604 7                 -10749791.811 8       331.000          71.000         138.000                  
G15  19263700.545    19263700.090    19263700.493                   -24738023.245 9 -24738023.247 9                 -19276379.989 9       704.000        1116.000        1819.000                  
G18  19476848.562    19476848.587    19476848.856                   -26372997.620 9 -26372997.608 9                 -20550385.192 9       827.000         886.000        1087.000                  
G23  20444536.047    20444535.818    20444535.985                   -23307393.449 9 -23307393.446 8                 -18161601.717 8       538.000         364.000         361.000                  
G24  23805157.760    23805157.682    23805160.524                    -5951531.139 8  -5951531.128 6                  -4637558.629 8       130.000          43.000         178.000                  
G27  23600330.105    23600328.961    23600331.629                    -4473968.962 8  -4473968.962 6                  -3486210.578 8       118.000          35.000         222.000                  
G29  23042167.624    23042167.335    23042168.542                    -5862170.462 8  -5862170.464 8                  -4567927.313 8       212.000         106.000         331.000                  
> 2024 10 31 23 58 30.0000000  0  9
G05  23318943.706    23318942.970    23318943.939                    -6943235.897 8  -6943235.897 7                  -5410314.489 8       160.000          68.000         282.000                  
G10  24099359.329    24099357.500    24099360.395                    -5538767.748 8  -5538767.753 7                  -4315920.510 8       146.000          57.000         159.000                  
G13  21297822.310    21297821.411    21297821.922                   -14017240.033 8 -14017240.026 7                 -10922524.323 8       337.000          69.000         149.000                  
G15  19252830.181    19252830.018    19252830.454                   -24795145.867 9 -24795145.868 9                 -19320891.086 9       711.000        1158.000        1849.000                  
G18  19471835.865    19471835.550    19471835.972                   -26399340.604 9 -26399340.592 9                 -20570912.162 9       816.000         862.000        1046.000                  
G23  20445561.363    20445560.864    20445561.013                   -23302007.141 9 -23302007.135 8                 -18157404.573 8       541.000         365.000         374.000                  
G24  23839517.744    23839517.165    23839520.056                    -5770968.685 8  -5770968.680 6                  -4496860.628 8       129.000          44.000         163.000                  
G27  23554902.258    23554901.621    23554904.384                    -4712692.105 8  -4712692.102 6                  -3672228.587 8       122.000          44.000         239.000                  
G29  23117240.635    23117239.846    23117241.232                    -5467660.758 8  -5467660.757 7                  -4260517.180 8       202.000          94.000         289.000                  
> 2024 10 31 23 58 40.0000000  0  9
G05  23289542.874    23289542.354    23289542.664                    -7097739.807 8  -7097739.812 7                  -5530707.104 8       169.000          74.000         291.000                  
G10  24119506.465    24119505.986    24119509.260                    -5432885.518 8  -5432885.516 7                  -4233414.832 8       150.000          58.000         152.000                  
G13  21256042.064    21256041.227    21256041.346                   -14236798.057 8 -14236798.067 7                 -11093608.480 8       345.000          77.000         164.000                  
G15  19242680.257    19242679.929    19242680.281                   -24848485.042 9 -24848485.045 9                 -19362454.047 9       720.000        1154.000        1836.000                  
G18  19467969.981    19467969.749    19467970.103                   -26419655.494 9 -26419655.483 9                 -20586741.944 9       810.000         852.000         992.000                  
G23  20447326.597    20447325.872    20447326.267                   -23292731.206 9 -23292731.201 8                 -18150176.550 8       537.000         369.000         372.000                  
G24  23874035.719    23874035.419    23874038.298                    -5589574.473 8  -5589574.471 6                  -4355514.507 8       127.000          45.000         160.000                  
G27  23510006.794    23510005.123    23510008.311                    -4948623.550 8  -4948623.531 6                  -3856071.254 8       131.000          47.000         244.000                  
G29  23192675.749    23192675.095    23192676.362                    -5071246.165 8  -5071246.166 7                  -3951622.719 8       201.000          87.000         250.000                  
> 2024 10 31 23 58 50.0000000  0  9
G05  23260558.767    23260558.191    23260558.702                    -7250051.120 8  -7250051.125 7                  -5649391.201 8       167.000          76.000         288.000                  
G10  24139970.526    24139971.062    24139974.100                    -5325342.085 8  -5325342.083 7                  -4149614.726 8       150.000          58.000         136.000                  
G13  21214668.600    21214668.308    21214668.486                   -14454213.878 8 -14454213.880 7                 -11263023.356 8       352.000          75.000         170.000                  
G15  19233251.022    19233250.852    19233251.266                   -24898034.525 9 -24898034.527 9                 -19401063.988 9       716.000        1163.000        1861.000                  
G18  19465252.112    19465251.891    19465252.278                   -26433937.652 9 -26433937.639 9                 -20597870.867 9       805.000         843.000         997.000                  
G23  20449831.975    20449831.666    20449831.989                   -23279563.237 9 -23279563.232 8                 -18139915.784 8       537.000         371.000         386.000                  
G24  23908708.639    23908708.092    23908710.839                    -5407369.356 8  -5407369.365 6                  -4213536.509 8       125.000          42.000         155.000                  
G27  23465649.613    23465649.732    23465652.594                    -5181714.322 8  -5181714.330 7                  -4037700.410 8       142.000          58.000         258.000                  
G29  23268459.219    23268459.171    23268460.302                    -4672998.559 8  -4672998.566 7                  -3641299.933 8       195.000          88.000         222.000                  
> 2024 10 31 23 59  0.0000000  0  9
G05  23231992.249    23231991.701    23231992.172                    -7400168.595 8  -7400168.604 7                  -5766365.811 8       169.000          67.000         287.000                  
G10  24160749.168    24160748.140    24160751.111                    -5216155.860 8  -5216155.855 7                  -4064534.527 8       152.000          57.000         134.000                  
G13  21173706.509    21173706.263    21173706.107                   -14669472.234 8 -14669472.231 7                 -11430757.107 8       362.000          83.000         178.000                  
G15  19224542.281    19224542.074    19224542.322                   -24943799.963 9 -24943799.966 9                 -19436725.320 9       742.000        1223.000        1935.000                  
G18  19463680.623    19463680.342    19463680.847                   -26442195.700 9 -26442195.687 9                 -20604305.681 9       801.000         841.000         995.000                  
G23  20453076.426    20453076.341    20453076.599                   -23262512.825 9 -23262512.818 8                 -18126629.726 8       537.000         365.000         391.000                  
G24  23943527.442    23943528.532    23943531.344                    -5224385.339 8  -5224385.343 6                  -4070951.596 8       126.000          42.000         146.000                  
G27  23421842.379    23421841.792    23421844.427                    -5411927.006 8  -5411927.006 7                  -4217086.900 8       147.000          65.000         268.000                  
G29  23344576.787    23344576.167    23344577.193                    -4273000.952 8  -4273000.947 7                  -3329613.504 8       186.000          78.000         193.000                  
> 2024 10 31 23 59 10.0000000  0  9
G05  23203850.933    23203850.170    23203850.761                    -7548052.025 8  -7548052.030 7                  -5881599.581 8       169.000          74.000         290.000                  
G10  24181842.669    24181842.392    24181845.086                    -5105306.451 8  -5105306.446 7                  -3978158.336 8       150.000          55.000         132.000                  
G13  21133165.312    21133164.839    21133164.573                   -14882518.733 8 -14882518.741 7                 -11596767.333 8       357.000          81.000         175.000                  
G15  19216559.510    19216559.416    19216559.700                   -24985748.818 9 -24985748.820 9                 -19469412.704 9       750.000        1277.000        1989.000                  
G18  19463260.908    19463260.709    19463261.152                   -26444400.979 9 -26444400.968 9                 -20606024.051 9       804.000         849.000         987.000                  
G23  20457065.245    20457065.076    20457065.401                   -23241551.405 9 -23241551.399 8                 -18110296.116 8       533.000         366.000         395.000                  
G24  23978498.664    23978498.762    23978502.128                    -5040615.425 8  -5040615.425 6                  -3927754.310 8       122.000          34.000         150.000                  
G27  23378596.424    23378595.735    23378598.636                    -5639185.467 8  -5639185.470 7                  -4394171.397 8       151.000          75.000         261.000                  
G29  23421018.403    23421017.815    23421019.065                    -3871296.697 8  -3871296.703 7                  -3016597.226 8       170.000          73.000         170.000                  
> 2024 10 31 23 59 20.0000000  0  9
G05  23176130.581    23176130.003    23176130.984                    -7693720.876 8  -7693720.871 7                  -5995107.731 8       168.000          65.000         297.000                  
G10  24203245.313    24203245.167    24203248.331                    -4992833.146 8  -4992833.147 7                  -3890516.773 8       149.000          54.000         122.000                  
G13  21093043.712    21093043.086    21093043.261                   -15093358.666 8 -15093358.675 7                 -11761058.141 8       350.000          75.000         175.000                  
G15  19209298.066    19209297.750    19209298.106                   -25023908.760 9 -25023908.762 9                 -19499147.698 9       751.000        1275.000        2034.000                  
G18  19463986.725    19463986.635    19463987.077                   -26440586.130 9 -26440586.118 9                 -20603051.417 9       812.000         860.000        1025.000                  
G23  20461792.228    20461792.023    20461792.382                   -23216710.685 9 -23216710.678 8                 -18090939.679 8       534.000         362.000         393.000                  
G24  24013609.453    24013608.764    24013611.905                    -4856111.775 8  -4856111.775 6                  -3783985.283 8       118.000          39.000         146.000                  
G27  23335916.185    23335914.824    23335918.129                    -5863473.349 8  -5863473.347 7                  -4568941.142 8       156.000          74.000         254.000                  
G29  23497765.879    23497764.644    23497766.082                    -3467988.286 8  -3467988.283 7                  -2702330.955 8       156.000          57.000         154.000                  
> 2024 10 31 23 59 30.0000000  0  9
G05  23148841.174    23148841.127    23148841.624                    -7837127.659 8  -7837127.671 7                  -6106853.248 8       164.000          65.000         300.000                  
G10  24224962.576    24224961.975    24224965.286                    -4878708.237 8  -4878708.226 7                  -3801588.269 8       149.000          63.000         118.000                  
G13  21053353.854    21053353.065    21053353.365                   -15301930.201 8 -15301930.201 7                 -11923581.380 8       354.000          76.000         170.000                  
G15  19202764.559    19202764.552    19202764.811                   -25058240.726 9 -25058240.729 9                 -19525899.836 9       748.000        1274.000        2015.000                  
G18  19465864.563    19465864.427    19465864.880                   -26430718.327 9 -26430718.316 9                 -20595362.182 9       820.000         877.000        1066.000                  
G23  20467264.297    20467263.908    20467264.184                   -23187955.902 9 -23187955.896 8                 -18068533.328 8       533.000         371.000         410.000                  
G24  24048860.757    24048861.070    24048864.451                    -4670859.422 8  -4670859.432 6                  -3639632.833 8       117.000          42.000         142.000                  
G27  23293816.307    23293815.831    23293818.281                    -6084707.404 8  -6084707.401 7                  -4741331.287 8       160.000          76.000         254.000                  
G29  23574811.979    23574810.442    23574811.852                    -3063110.308 8  -3063110.316 6                  -2386841.652 8       138.000          46.000         147.000                  
> 2024 10 31 23 59 40.0000000  0  9
G05  23121979.495    23121979.391    23121979.829                    -7978286.067 8  -7978286.066 7                  -6216846.736 8       167.000          70.000         296.000                  
G10  24246988.722    24246987.725    24246990.598                    -4762964.729 8  -4762964.724 7                  -3711398.532 8       146.000          53.000         118.000                  
G13  21014095.726    21014095.399    21014095.177                   -15508232.168 8 -15508232.162 7                 -12084336.121 8       362.000          85.000         164.000                  
G15  19196955.605    19196955.527    19196955.826                   -25088767.229 9 -25088767.232 9                 -19549686.690 9       747.000        1249.000        1898.000                  
G18  19468888.493    19468888.424    19468888.841                   -26414827.253 9 -26414827.241 9                 -20582979.482 9       831.000         890.000        1092.000                  
G23  20473475.519    20473475.339    20473475.727                   -23155313.699 9 -23155313.694 8                 -18043097.793 8       539.000         365.000         394.000                  
G24  24084247.702    24084247.417    24084250.725                    -4484903.874 8  -4484903.881 6                  -3494732.438 8       115.000          36.000         134.000                  
G27  23252303.028    23252301.586    23252304.186                    -6302865.437 8  -6302865.445 7                  -4911324.535 8       160.000          75.000         243.000                  
G29  23652137.892    23652136.891    23652138.496                    -2656757.689 8  -2656757.702 6                  -2070203.294 8       130.000          39.000         137.000                  
> 2024 10 31 23 59 50.0000000  0  9
G05  23095550.752    23095550.886    23095551.542                    -8117167.499 8  -8117167.499 7                  -6325065.978 8       169.000          69.000         313.000                  
G10  24269323.576    24269322.827    24269325.508                    -4645593.381 8  -4645593.379 7                  -3619940.355 8       142.000          51.000         121.000                  
G13  20975278.103    20975277.414    20975277.227                   -15712221.064 8 -15712221.058 7                 -12243288.491 8       367.000          81.000         162.000                  
G15  19191874.603    19191874.277    19191874.604                   -25115468.919 9 -25115468.922 9                 -19570493.174 9       743.000        1240.000        1942.000                  
G18  19473060.879    19473060.693    19473061.072                   -26392901.838 9 -26392901.826 9                 -20565894.708 9       848.000         939.000        1156.000                  
G23  20480429.961    20480429.631    20480429.837                   -23118769.034 9 -23118769.027 8                 -18014621.381 8       541.000         370.000         394.000                  
G24  24119766.018    24119767.071    24119770.030                    -4298248.039 8  -4298248.039 6                  -3349286.374 8       109.000          31.000         136.000                  
G27  23211385.589    23211385.081    23211387.785                    -6517882.970 8  -6517882.968 7                  -5078870.633 8       161.000          68.000         250.000                  
G29  23729734.357    23729733.764    23729735.432                    -2248982.324 8  -2248982.340 6                  -1752456.306 8       123.000          34.000         123.000                  
> 2024 11 01 00 00  0.0000000  0  9
G05  23069558.480    23069558.117    23069558.776                    -8253761.017 8  -8253761.012 7                  -6431502.435 8       170.000          62.000         318.000                  
G10  24291967.608    24291965.644    24291969.157                    -4526602.445 8  -4526602.444 6                  -3527220.179 8       139.000          50.000         115.000                  
G13  20936905.186    20936904.596    20936904.941                   -15913870.790 8 -15913870.791 7                 -12400418.136 8       376.000          83.000         164.000                  
G15  19187521.567    19187521.234    19187521.530                   -25138344.361 9 -25138344.363 9                 -19588318.141 9       743.000        1246.000        1945.000                  
G18  19478379.761    19478379.720    19478380.065                   -26364950.135 9 -26364950.123 9                 -20544114.112 9       867.000         969.000        1165.000                  
G23  20488126.082    20488125.794    20488126.085                   -23078325.051 9 -23078325.046 8                 -17983106.558 8       544.000         379.000         386.000                  
G24  24155415.324    24155415.550    24155419.217                    -4110912.071 8  -4110912.060 6                  -3203310.354 8       106.000          32.000         140.000                  
G27  23171075.999    23171075.317    23171077.706                    -6729713.406 8  -6729713.406 7                  -5243933.288 8       164.000          76.000         242.000                  
G29  23807589.845    23807588.778    23807590.417                    -1839852.833 8  -1839852.837 6                  -1433654.150 8       125.000          41.000         110.000                  
> 2024 11 01 00 00 10.0000000  0  9
G05  23044001.076    23044000.359    23044000.982                    -8388067.336 8  -8388067.331 7                  -6536156.669 8       174.000          73.000         326.000                  
G10  24314914.292    24314913.800    24314917.064                    -4406011.491 8  -4406011.501 6                  -3433253.220 8       134.000          48.000         119.000                  
G13  20898980.321    20898979.892    20898979.906                   -16113166.501 8 -16113166.500 7                 -12555713.450 8       383.000          83.000         155.000                  
G15  19183894.613    19183894.348    19183894.492                   -25157404.105 9 -25157404.108 9                 -19603169.837 9       740.000        1242.000        1950.000                  
G18  19484841.673    19484841.391    19484841.806                   -26330993.202 9 -26330993.189 9                 -20517654.122 9       875.000         988.000        1183.000                  
G23  20496561.446    20496561.158    20496561.352                   -23033996.707 9 -23033996.700 8                 -17948564.939 8       542.000         376.000         380.000                  
G24  24191188.829    24191187.969    24191191.349                    -3922927.152 8  -3922927.163 6                  -3056828.658 8       105.000          32.000         138.000                  
G27  23131379.609    23131378.496    23131380.830                    -6938321.661 8  -6938321.662 7                  -5406485.171 8       165.000          73.000         248.000                  
G29  23885687.881    23885686.664    23885687.482                    -1429448.518 8  -1429448.522 6                  -1113858.638 7       124.000          41.000          92.000                  
> 2024 11 01 00 00 20.0000000  0  9
G05  23018885.163    23018885.470    23018885.796                    -8520048.159 8  -8520048.160 7                  -6638998.792 8       180.000          81.000         328.000                  
G10  24338169.838    24338169.572    24338172.721                    -4283801.377 8  -4283801.379 6                  -3338024.549 8       127.000          41.000         120.000                  
G13  20861513.655    20861513.105    20861513.078                   -16310054.758 8 -16310054.766 7                 -12709132.828 8       399.000          96.000         156.000                  
G15  19180998.914    19180998.648    19180998.822                   -25172620.515 9 -25172620.517 9                 -19615026.700 9       722.000        1179.000        1949.000                  
G18  19492449.234    19492449.017    19492449.367                   -26291014.882 9 -26291014.869 9                 -20486502.127 9       886.000        1027.000        1191.000                  
G23  20505740.616    20505740.146    20505740.132                   -22985760.866 9 -22985760.860 8                 -17910978.498 8       547.000         383.000         360.000                  
G24  24227084.440    24227085.129    24227088.742                    -3734285.378 7  -3734285.386 6                  -2909835.116 8        98.000          37.000         139.000                  
G27  23092309.943    23092308.884    23092311.164                    -7143634.138 8  -7143634.142 7                  -5566468.914 8       170.000          82.000         249.000                  
G29  23964019.874    23964018.639    23964019.118                    -1017809.335 8  -1017809.336 6                   -793100.871 7       122.000          38.000          81.000                  
> 2024 11 01 00 00 30.0000000  0  9
G05  22994208.724    22994208.489    22994208.993                    -8649725.629 8  -8649725.632 7                  -6740046.109 8       191.000          89.000         320.000                  
G10  24361725.600    24361724.849    24361728.870                    -4160013.031 8  -4160013.033 6                  -3241566.090 8       124.000          40.000         121.000                  
G13  20824504.366    20824503.499    20824503.251                   -16504542.049 8 -16504542.055 7                 -12860681.336 8       413.000          98.000         151.000                  
G15  19178828.300    19178828.032    19178828.271                   -25184026.608 9 -25184026.610 9                 -19623914.488 9       723.000        1178.000        1964.000                  
G18  19501193.934    19501193.826    19501194.148                   -26245060.727 9 -26245060.714 9                 -20450693.639 9       886.000        1025.000        1221.000                  
G23  20515655.841    20515655.436    20515655.567                   -22933655.108 9 -22933655.103 8                 -17870376.541 8       552.000         386.000         357.000                  
G24  24263098.142    24263097.298    24263101.360                    -3545038.682 7  -3545038.701 6                  -2762370.220 8        97.000          32.000         133.000                  
G27  23053869.308    23053868.673    23053871.185                    -7345637.571 8  -7345637.563 7                  -5723874.182 8       172.000          78.000         259.000                  
G29  24042568.124    24042567.226    24042567.781                     -605034.491 8   -605034.520 6                   -471458.169 7       115.000          34.000          69.000                  
> 2024 11 01 00 00 40.0000000  0  9
G05  22969978.881    22969978.542    22969978.902                    -8777054.758 8  -8777054.753 7                  -6839263.545 8       191.000          94.000         332.000                  
G10  24385588.036    24385586.521    24385590.112                    -4034620.013 8  -4034619.998 6                  -3143857.194 8       121.000          41.000         119.000                  
G13  20787962.984    20787962.518    20787962.189                   -16696567.389 8 -16696567.383 8                 -13010311.443 8       436.000         114.000         142.000                  
G15  19177389.372    19177389.052    19177389.221                   -25191588.537 9 -25191588.540 9                 -19629806.858 9       728.000        1202.000        1946.000                  
G18  19511079.777    19511079.580    19511079.814                   -26193110.622 9 -26193110.609 9                 -20410213.011 9       877.000         998.000        1204.000                  
G23  20526313.066    20526312.793    20526312.939                   -22877650.316 9 -22877650.310 8                 -17826736.387 8       554.000         393.000         368.000                  
G24  24299228.328    24299228.591    24299232.110                    -3355171.433 7  -3355171.427 6                  -2614421.773 8        95.000          25.000         121.000                  
G27  23016074.636    23016073.503    23016076.089                    -7544251.712 8  -7544251.714 7                  -5878638.450 8       177.000          87.000         272.000                  
G29  24121326.580    24121325.696    24121326.067                     -191155.212 8   -191155.175 6                   -148954.863 7       105.000          27.000          53.000                  
> 2024 11 01 00 00 50.0000000  0  9
G05  22946192.914    22946192.298    22946192.782                    -8902051.637 8  -8902051.638 8                  -6936663.669 8       202.000         105.000         345.000                  
G10  24409748.081    24409746.699    24409750.584                    -3907656.706 8  -3907656.710 6                  -3044924.678 8       117.000          39.000         133.000                  
G13  20751890.312    20751889.816    20751889.340                   -16886130.607 8 -16886130.610 8                 -13158023.025 8       463.000         132.000         148.000                  
G15  19176676.621    19176676.346    19176676.471                   -25195333.711 9 -25195333.713 9                 -19632725.125 9       731.000        1212.000        1963.000                  
G18  19522098.465    19522098.278    19522098.570                   -26135206.595 9 -26135206.582 9                 -20365092.945 9       865.000         953.000        1205.000                  
G23  20537706.283    20537705.958    20537706.138                   -22817778.660 9 -22817778.656 8                 -17780083.095 8       555.000         392.000         375.000                  
G24  24335467.200    24335468.088    24335472.399                    -3164728.316 7  -3164728.333 6                  -2466024.582 8        92.000          22.000         121.000                  
G27  22978927.581    22978927.630    22978929.775                    -7739457.342 8  -7739457.347 7                  -6030746.734 8       182.000          91.000         288.000                  
G29  24200277.426    24200276.999    24200278.154                      223737.130 7    223737.146 6                    174337.839 6        94.000          30.000          45.000                  
> 2024 11 01 00 01  0.0000000  0  9
G05  22922855.993    22922854.730    22922855.458                    -9024689.556 8  -9024689.552 8                  -7032225.617 8       211.000         103.000         360.000                  
G10  24434208.138    24434207.530    24434211.157                    -3779115.016 8  -3779115.016 6                  -2944762.239 8       116.000          39.000         130.000                  
G13  20716294.392    20716293.899    20716293.381                   -17073189.008 8 -17073189.008 8                 -13303782.807 8       485.000         138.000         141.000                  
G15  19176693.007    19176692.729    19176692.800                   -25195247.608 9 -25195247.610 9                 -19632657.999 9       739.000        1230.000        1971.000                  
G18  19534249.915    19534249.754    19534250.058                   -26071349.879 9 -26071349.866 9                 -20315334.421 9       850.000         936.000        1167.000                  
G23  20549837.187    20549836.846    20549837.122                   -22754030.421 9 -22754030.415 8                 -17730409.097 8       556.000         389.000         378.000                  
G24  24371818.020    24371817.754    24371821.332                    -2973711.352 7  -2973711.352 6                  -2317180.206 8        91.000          27.000         114.000                  
G27  22942442.031    22942441.035    22942443.803                    -7931193.126 8  -7931193.127 7                  -6180151.244 8       187.000          93.000         295.000                  
G29  24279413.543    24279411.315    24279412.956                      639594.319 7    639594.342 6                    498382.361 6        83.000          21.000          37.000                  
> 2024 11 01 00 01 10.0000000  0  9
G05  22899968.834    22899968.498    22899968.689                    -9144960.461 8  -9144960.458 8                  -7125943.168 8       218.000         117.000         362.000                  
G10  24458968.646    24458967.157    24458970.337                    -3649005.086 8  -3649005.084 6                  -2843377.804 8       117.000          38.000         132.000                  
G13  20681179.589    20681179.139    20681178.497                   -17257718.254 9 -17257718.253 8                 -13447571.809 8       514.000         155.000         142.000                  
G15  19177437.506    19177437.323    19177437.492                   -25191334.479 9 -25191334.481 9                 -19629608.782 9       746.000        1252.000        2078.000                  
G18  19547530.223    19547530.037    19547530.196                   -26001561.450 9 -26001561.438 9                 -20260953.776 9       834.000         892.000        1147.000                  
G23  20562703.826    20562703.631    20562703.774                   -22686414.738 9 -22686414.731 8                 -17677721.516 8       554.000         389.000         374.000                  
G24  24408274.808    24408271.955    24408276.191                    -2782140.472 7  -2782140.463 6                  -2167904.207 8        92.000          31.000         106.000                  
G27  22906624.420    22906623.739    22906626.001                    -8119416.333 8  -8119416.337 8                  -6326818.698 8       191.000         105.000         310.000                  
G29  24358719.617    24358718.212    24358719.750                     1056350.924 7   1056350.889 6                    823127.691 6        80.000          18.000          34.000                  
> 2024 11 01 00 01 20.0000000  0  9
G05  22877531.502    22877531.666    22877531.792                    -9262867.072 8  -9262867.072 8                  -7217818.415 8       222.000         117.000         370.000                  
G10  24484020.492    24484020.501    24484023.936                    -3517347.789 8  -3517347.778 6                  -2740787.631 8       117.000          35.000         135.000                  
G13  20646548.932    20646548.261    20646547.665                   -17439704.571 9 -17439704.572 8                 -13589379.318 8       542.000         176.000         141.000                  
G15  19178907.546    19178907.265    19178907.440                   -25183610.015 9 -25183610.016 9                 -19623589.695 9       745.000        1262.000        2142.000                  
G18  19561932.916    19561932.794    19561933.021                   -25925874.631 9 -25925874.618 9                 -20201977.007 9       822.000         867.000        1131.000                  
G23  20576302.699    20576302.549    20576302.601                   -22614952.054 9 -22614952.050 8                 -17622036.261 8       547.000         380.000         373.000                  
G24  24444827.752    24444826.077    24444829.998                    -2590046.238 7  -2590046.235 6                  -2018220.430 8        89.000          26.000         118.000                  
G27  22871481.074    22871480.332    22871483.049                    -8304095.443 8  -8304095.444 8                  -6470724.570 8       194.000         106.000         323.000                  
G29  24438180.474    24438181.519    24438182.675                     1473931.368 7   1473931.383 6                   1148515.019 6        69.000          17.000          38.000                  
> 2024 11 01 00 01 30.0000000  0  9
G05  22855551.577    22855551.471    22855551.672                    -9378373.619 8  -9378373.620 8                  -7307823.488 8       227.000         131.000         371.000                  
G10  24509372.262    24509371.692    24509375.077                    -3384125.009 8  -3384125.001 6                  -2636977.605 8       115.000          44.000         129.000                  
G13  20612411.974    20612411.555    20612410.355                   -17619095.376 9 -17619095.379 8                 -13729164.359 8       546.000         174.000         141.000                  
G15  19181106.839    19181106.753    19181106.997                   -25172051.329 9 -25172051.331 9                 -19614582.910 9       756.000        1292.000        2117.000                  
G18  19577458.927    19577458.637    19577458.956                   -25844285.155 9 -25844285.141 9                 -20138400.744 9       817.000         849.000        1087.000                  
G23  20590636.958    20590636.858    20590636.933                   -22539624.533 9 -22539624.528 8                 -17563339.456 8       543.000         370.000         363.000                  
G24  24481482.738    24481482.151    24481485.868                    -2397419.690 7  -2397419.704 6                  -1868121.856 8        87.000          26.000         112.000                  
G27  22837025.442    22837024.852    22837027.375                    -8485160.219 8  -8485160.223 8                  -6611814.085 8       198.000         104.000         327.000                  
G29  24517795.984    24517793.473    24517795.071                     1892299.590 7   1892299.568 6                   1474516.191 6        62.000          20.000          32.000                  
> 2024 11 01 00 01 40.0000000  0  9
G05  22834023.604    22834023.193    22834023.510                    -9491504.290 8  -9491504.293 8                  -7395977.216 8       237.000         137.000         389.000                  
G10  24535013.634    24535012.280    24535016.561                    -3249378.694 8  -3249378.701 6                  -2531980.424 8       114.000          36.000         140.000                  
G13  20578767.291    20578767.007    20578766.404                   -17795898.067 9 -17795898.071 8                 -13866932.697 8       525.000         168.000         166.000                  
G15  19184029.086    19184028.807    19184028.873                   -25156696.043 9 -25156696.045 9                 -19602617.715 9       776.000        1351.000        2135.000                  
G18  19594097.154    19594096.956    19594097.197                   -25756850.406 9 -25756850.392 9                 -20070269.749 9       802.000         822.000        1050.000                  
G23  20605698.519    20605698.325    20605698.547                   -22460474.848 9 -22460474.843 8                 -17501664.346 8       542.000         370.000         371.000                  
G24  24518230.009    24518229.184    24518233.401                    -2204311.735 7  -2204311.718 6                  -1717648.153 8        86.000          29.000         106.000                  
G27  22803259.862    22803259.057    22803261.823                    -8662600.801 8  -8662600.803 8                  -6750079.485 8       196.000         107.000         340.000                  
G29  24597538.286    24597538.343    24597539.510                     2311360.349 7   2311360.335 6                   1801056.989 6        60.000          25.000          26.000                  
> 2024 11 01 00 01 50.0000000  0  9
G05  22812955.803    22812954.954    22812955.569                    -9602217.324 8  -9602217.323 8                  -7482247.083 8       242.000         143.000         399.000                  
G10  24560950.138    24560948.973    24560952.238                    -3113084.354 8  -3113084.355 6                  -2425777.021 8       113.000          34.000         143.000                  
G13  20545626.581    20545626.166    20545625.652                   -17970053.842 9 -17970053.842 8                 -14002638.505 8       525.000         165.000         191.000                  
G15  19187678.572    19187678.529    19187678.699                   -25137516.047 9 -25137516.049 9                 -19587672.243 9       771.000        1352.000        2194.000                  
G18  19611849.012    19611848.937    19611849.231                   -25663562.643 9 -25663562.632 9                 -19997577.952 9       786.000         787.000        1007.000                  
G23  20621492.138    20621491.793    20621492.031                   -22377479.841 9 -22377479.837 8                 -17436992.877 8       546.000         387.000         373.000                  
G24  24555071.967    24555071.946    24555075.041                    -2010706.546 7  -2010706.550 6                  -1566787.010 8        86.000          21.000         104.000                  
G27  22770198.355    22770197.177    22770199.785                    -8836341.714 8  -8836341.721 7                  -6885462.088 8       196.000          97.000         331.000                  
G29  24677413.045    24677409.952    24677410.768                     2731085.462 7   2731085.465 6                   2128115.491 6        57.000          25.000          33.000                  
> 2024 11 01 00 02  0.0000000  0  9
G05  22792344.570    22792344.069    22792344.111                    -9710531.017 8  -9710531.016 8                  -7566647.375 8       245.000         146.000         409.000                  
G10  24587173.009    24587173.088    24587175.987                    -2975277.685 8  -2975277.695 6                  -2318395.174 8       115.000          35.000         141.000                  
G13  20512989.471    20512988.761    20512988.535                   -18141563.938 9 -18141563.941 8                 -14136282.767 8       525.000         166.000         218.000                  
G15  19192049.907    19192049.906    19192050.141                   -25114543.976 9 -25114543.978 9                 -19569771.921 9       773.000        1351.000        2170.000                  
G18  19630704.662    19630704.441    19630704.847                   -25564476.059 9 -25564476.047 9                 -19920367.636 9       761.000         727.000         955.000                  
G23  20638010.204    20638009.792    20638009.856                   -22290677.262 9 -22290677.257 8                 -17369354.499 8       549.000         380.000         367.000                  
G24  24591999.245    24591999.912    24592002.755                    -1816648.220 7  -1816648.238 6                  -1415572.770 8        81.000          28.000         101.000                  
G27  22737842.969    22737842.166    22737844.947                    -9006367.878 8  -9006367.882 8                  -7017950.074 8       195.000         118.000         326.000                  
G29  24757392.453    24757391.333    24757392.395                     3151387.346 7   3151387.354 6                   2455623.368 6        56.000          19.000          28.000                  
> 2024 11 01 00 02 10.0000000  0  9
G05  22772194.503    22772193.722    22772193.994                    -9816421.133 8  -9816421.136 8                  -7649159.221 8       245.000         144.000         420.000                  
G10  24613686.315    24613685.964    24613688.846                    -2835951.627 8  -2835951.630 6                  -2209829.386 8       115.000          34.000         138.000                  
G13  20480863.270    20480862.767    20480862.397                   -18310386.944 9 -18310386.945 8                 -14267833.201 8       518.000         161.000         226.000                  
G15  19197145.042    19197144.882    19197145.042                   -25087770.273 9 -25087770.275 9                 -19548909.335 9       779.000        1372.000        2168.000                  
G18  19650661.314    19650661.099    19650661.400                   -25459603.300 9 -25459603.288 9                 -19838648.634 9       738.000         696.000         916.000                  
G23  20655253.463    20655253.308    20655253.213                   -22200062.623 9 -22200062.618 8                 -17298745.734 8       553.000         391.000         363.000                  
G24  24629014.042    24629013.212    24629017.417                    -1622137.892 7  -1622137.878 6                  -1264006.351 8        81.000          25.000         105.000                  
G27  22706206.155    22706205.087    22706207.948                    -9172622.073 8  -9172622.079 8                  -7147498.868 8       197.000         110.000         320.000                  
G29  24837472.861    24837472.686    24837474.258                     3572221.864 7   3572221.863 6                   2783546.316 6        55.000          27.000          24.000                  
> 2024 11 01 00 02 20.0000000  0  9
G05  22752506.406    22752505.900    22752506.145                    -9919881.239 8  -9919881.239 8                  -7729777.510 8       244.000         149.000         422.000                  
G10  24640485.847    24640485.573    24640488.753                    -2695116.980 8  -2695116.990 6                  -2100088.143 8       115.000          34.000         133.000                  
G13  20449253.257    20449252.689    20449252.610                   -18476499.191 9 -18476499.191 8                 -14397271.328 8       526.000         163.000         232.000                  
G15  19202961.849    19202961.559    19202961.770                   -25057203.382 9 -25057203.384 9                 -19525091.002 9       789.000        1401.000        2199.000                  
G18  19671712.998    19671712.753    19671713.017                   -25348976.043 9 -25348976.031 9                 -19752445.589 9       715.000         652.000         878.000                  
G23  20673219.986    20673219.547    20673219.498                   -22105649.519 9 -22105649.514 8                 -17225177.118 8       555.000         398.000         358.000                  
G24  24666109.985    24666110.592    24666113.916                    -1427193.771 7  -1427193.756 6                  -1112101.851 8        81.000          24.000         104.000                  
G27  22675293.930    22675293.347    22675296.077                    -9335065.093 8  -9335065.091 8                  -7274077.849 8       199.000         114.000         315.000                  
G29  24917644.933    24917644.478    24917645.818                     3993527.877 7   3993527.873 6                   3111836.658 6        58.000          19.000          26.000                  
> 2024 11 01 00 02 30.0000000  0  9
G05  22733279.866    22733279.446    22733279.792                   -10020917.173 8 -10020917.169 8                  -7808506.819 8       241.000         143.000         418.000                  
G10  24667569.674    24667567.784    24667571.991                    -2552796.218 8  -2552796.226 6                  -1989188.909 8       112.000          38.000         130.000                  
G13  20418160.957    20418160.632    20418160.544                   -18639889.109 9 -18639889.111 8                 -14524588.169 8       538.000         181.000         248.000                  
G15  19209496.346    19209496.081    19209496.300                   -25022864.377 9 -25022864.379 9                 -19498333.354 9       794.000        1425.000        2179.000                  
G18  19693851.025    19693850.836    19693851.218                   -25232639.418 9 -25232639.406 9                 -19661793.679 9       701.000         616.000         837.000                  
G23  20691903.673    20691903.491    20691903.596                   -22007464.121 9 -22007464.116 8                 -17148669.016 8       553.000         399.000         352.000                  
G24  24703283.523    24703284.351    24703287.196                    -1231846.217 7  -1231846.215 6                   -959883.022 8        78.000          25.000         101.000                  
G27  22645112.915    22645111.766    22645114.403                    -9493670.705 8  -9493670.703 8                  -7397666.734 8       198.000         108.000         289.000                  
G29  24997893.688    24997892.189    24997893.634                     4415233.163 7   4415233.152 6                   3440438.106 6        52.000          20.000          27.000                  
> 2024 11 01 00 02 40.0000000  0  9
G05  22714520.992    22714520.271    22714520.715                   -10119496.048 8 -10119496.047 8                  -7885321.503 8       240.000         130.000         426.000                  
G10  24694938.277    24694937.033    24694940.594                    -2408972.787 8  -2408972.800 6                  -1877118.678 8       107.000          34.000         134.000                  
G13  20387596.567    20387595.939    20387596.116                   -18800506.374 9 -18800506.373 8                 -14649744.541 8       542.000         173.000         263.000                  
G15  19216751.970    19216751.764    19216751.859                   -24984735.797 9 -24984735.799 9                 -19468622.763 9       799.000        1442.000        2163.000                  
G18  19717074.115    19717073.961    19717074.343                   -25110600.944 9 -25110600.933 9                 -19566698.771 9       694.000         600.000         814.000                  
G23  20711307.925    20711307.602    20711307.708                   -21905494.417 9 -21905494.413 8                 -17069212.140 8       551.000         388.000         352.000                  
G24  24740536.200    24740536.245    24740539.689                    -1036086.086 7  -1036086.064 6                   -807342.769 8        77.000          30.000         108.000                  
G27  22615673.681    22615672.634    22615675.393                    -9648373.757 8  -9648373.758 8                  -7518214.636 8       203.000         116.000         289.000                  
G29  25078210.019    25078209.748    25078212.895                     4837303.958 7   4837303.961 6                   3769324.168 6        56.000          21.000          25.000                  
> 2024 11 01 00 02 50.0000000  0  9
G05  22696223.715    22696223.256    22696223.781                   -10215647.052 8 -10215647.053 8                  -7960244.380 8       237.000         134.000         420.000                  
G10  24722583.594    24722583.274    24722586.322                    -2263692.462 8  -2263692.446 6                  -1763913.237 8       110.000          31.000         120.000                  
G13  20357558.033    20357557.311    20357557.040                   -18958362.376 9 -18958362.377 8                 -14772749.272 8       561.000         188.000         272.000                  
G15  19224720.128    19224719.864    19224720.037                   -24942862.817 9 -24942862.819 9                 -19435994.496 9       794.000        1427.000        2088.000                  
G18  19741369.026    19741368.768    19741369.147                   -24982931.356 9 -24982931.345 9                 -19467215.996 9       700.000         620.000         787.000                  
G23  20731422.698    20731422.478    20731422.568                   -21799790.651 9 -21799790.647 8                 -16986845.634 8       554.000         389.000         354.000                  
G24  24777856.741    24777856.696    24777860.093                     -839965.580 7   -839965.597 6                   -654521.613 8        79.000          22.000         101.000                  
G27  22586978.174    22586977.104    22586979.491                    -9799171.614 8  -9799171.616 8                  -7635719.428 8       208.000         123.000         300.000                  
G29  25158581.609    25158579.242    25158581.196                     5259647.845 7   5259647.834 6                   4098423.130 6        53.000          20.000          25.000                  
> 2024 11 01 00 03  0.0000000  0 10
G05  22678395.627    22678395.255    22678395.610                   -10309334.964 8 -10309334.964 8                  -8033248.014 8       238.000         142.000         405.000                  
G10  24750510.731    24750509.521    24750513.290                    -2116936.328 8  -2116936.355 6                  -1649558.002 8       113.000          29.000         118.000                  
G13  20328054.524    20328053.964    20328053.586                   -19113404.090 9 -19113404.093 8                 -14893561.066 8       576.000         199.000         290.000                  
G15  19233404.387    19233404.217    19233404.339                   -24897226.236 9 -24897226.239 9                 -19400433.573 9       789.000        1403.000        2043.000                  
G18  19766733.680    19766733.614    19766734.046                   -24849637.959 9 -24849637.948 9                 -19363351.047 9       708.000         635.000         778.000                  
G23  20752250.948    20752250.513    20752250.676                   -21690338.973 9 -21690338.970 8                 -16901558.721 8       551.000         387.000         362.000                  
G24  24815248.440    24815247.583    24815251.745                     -643472.450 7   -643472.467 6                   -501410.164 7        80.000          26.000          93.000                  
G27  22559037.345    22559037.108    22559039.531                    -9945998.022 8  -9945998.024 8                  -7750129.633 8       209.000         121.000         316.000                  
G29  25238997.472    25238995.284    25238997.805                     5682236.500 6   5682236.488 6                   4427712.860 6        50.000          23.000          24.000                  
G30  24067286.045    24067289.517    24067307.632                     -586472.774 7   -586472.774 6                   -456995.314 6        77.000          25.000          18.000                  
> 2024 11 01 00 03 10.0000000  0 10
G05  22661035.213    22661034.843    22661035.019                   -10400564.701 8 -10400564.699 8                  -8104336.207 8       238.000         132.000         413.000                  
G10  24778714.170    24778713.496    24778716.896                    -1968724.915 8  -1968724.908 6                  -1534068.775 8       109.000          28.000         108.000                  
G13  20299088.954    20299088.420    20299088.283                   -19265618.517 9 -19265618.521 8                 -15012169.714 8       584.000         208.000         307.000                  
G15  19242800.894    19242800.836    19242800.928                   -24847847.563 9 -24847847.565 9                 -19361956.777 9       795.000        1435.000        2073.000                  
G18  19793159.776    19793159.594    19793159.932                   -24710769.546 9 -24710769.535 9                 -19255142.024 9       718.000         652.000         735.000                  
G23  20773787.023    20773786.732    20773786.841                   -21577165.931 9 -21577165.927 8                 -16813371.997 8       541.000         385.000         361.000                  
G24  24852707.054    24852705.344    24852709.004                     -446633.994 7   -446634.013 6                   -348029.680 7        79.000          26.000          97.000                  
G27  22531857.833    22531857.179    22531860.187                   -10088827.048 8 -10088827.048 8                  -7861424.974 8       214.000         120.000         333.000                  
G29  25319446.323    25319444.757    25319447.310                     6105001.619 7   6105001.612 6                   4757140.121 6        52.000          20.000          23.000                  
G30  24000763.469    24000763.324    24000766.402                     -936059.958 7   -936059.982 6                   -729397.431 8        81.000          21.000         106.000                  
> 2024 11 01 00 03 20.0000000  0  9
G05  22644143.190    22644142.810    22644143.288                   -10489332.923 8 -10489332.926 8                  -8173506.356 8       232.000         129.000         401.000                  
G10  24807192.199    24807192.038    24807194.703                    -1819070.196 8  -1819070.191 6                  -1417454.716 8       103.000          31.000         102.000                  
G13  20270665.647    20270665.079    20270664.857                   -19414984.411 9 -19414984.412 8                 -15128558.672 8       625.000         234.000         317.000                  
G15  19252907.196    19252906.870    19252907.018                   -24794740.039 9 -24794740.041 9                 -19320574.334 9       800.000        1436.000        2114.000                  
G18  19820638.841    19820638.555    19820638.805                   -24566367.132 9 -24566367.122 9                 -19142620.746 9       730.000         660.000         692.000                  
G23  20796027.745    20796027.478    20796027.597                   -21460290.178 9 -21460290.175 8                 -16722299.995 8       538.000         369.000         355.000                  
G24  24890224.827    24890224.975    24890228.218                     -249468.387 7   -249468.385 6                   -194394.247 7        75.000          27.000          86.000                  
G27  22505445.294    22505444.959    22505447.775                   -10227624.994 8 -10227624.998 8                  -7969579.257 8       214.000         129.000         350.000                  
G30  23934405.703    23934403.220    23934406.951                    -1284781.235 7  -1284781.195 6                  -1001128.304 8        85.000          23.000         125.000                  
> 2024 11 01 00 03 30.0000000  0  9
G05  22627722.773    22627722.466    22627722.962                   -10575622.589 8 -10575622.594 8                  -8240745.092 8       239.000         124.000         416.000                  
G10  24835945.896    24835945.008    24835948.041                    -1667971.411 7  -1667971.409 6                  -1299715.422 7       100.000          30.000         100.000                  
G13  20242791.032    20242790.639    20242790.005                   -19561467.188 9 -19561467.188 8                 -15242701.065 8       673.000         272.000         328.000                  
G15  19263722.545    19263722.467    19263722.520                   -24737903.976 9 -24737903.979 9                 -19276286.491 9       791.000        1413.000        2129.000                  
G18  19849165.271    19849165.011    19849165.330                   -24416459.533 9 -24416459.524 9                 -19025809.568 9       734.000         686.000         667.000                  
G23  20818972.007    20818971.726    20818971.860                   -21339717.406 9 -21339717.402 8                 -16628347.144 8       542.000         377.000         349.000                  
G24  24927806.253    24927805.556    24927809.172                      -51980.350 7    -51980.352 6                    -40507.559 7        74.000          29.000          97.000                  
G27  22479809.171    22479808.615    22479811.575                   -10362345.163 8 -10362345.165 8                  -8074556.016 8       217.000         137.000         371.000                  
G30  23868218.793    23868218.421    23868221.967                    -1632585.501 7  -1632585.515 6                  -1272144.601 8        92.000          26.000         141.000                  
> 2024 11 01 00 03 40.0000000  0  9
G05  22611771.494    22611770.700    22611771.268                   -10659449.623 8 -10659449.623 8                  -8306064.867 8       235.000         140.000         423.000                  
G10  24864966.661    24864967.385    24864970.470                    -1515459.786 7  -1515459.773 6                  -1180875.299 7        97.000          26.000          83.000                  
G13  20215465.274    20215464.792    20215464.376                   -19705064.732 9 -19705064.731 8                 -15354595.257 8       684.000         279.000         339.000                  
G15  19275241.430    19275241.159    19275241.212                   -24677372.658 9 -24677372.660 9                 -19229119.219 9       792.000        1408.000        2136.000                  
G18  19878727.344    19878727.146    19878727.438                   -24261109.630 9 -24261109.621 9                 -18904757.708 9       737.000         664.000         655.000                  
G23  20842612.189    20842612.083    20842612.156                   -21215486.280 9 -21215486.277 8                 -16531543.667 8       536.000         367.000         339.000                  
G24  24965439.785    24965440.779    24965444.557                      145793.559 7    145793.547 6                    113601.925 7        73.000          20.000          89.000                  
G27  22454950.914    22454950.895    22454953.552                   -10492973.952 8 -10492973.950 8                  -8176344.662 8       218.000         131.000         391.000                  
G30  23802210.686    23802211.521    23802215.233                    -1979453.308 7  -1979453.296 6                  -1542431.259 8        90.000          34.000         157.000                  
> 2024 11 01 00 03 50.0000000  0  9
G05  22596295.244    22596294.520    22596295.139                   -10740776.617 8 -10740776.619 8                  -8369436.574 8       238.000         138.000         403.000                  
G10  24894262.316    24894262.035    24894265.424                    -1361512.592 7  -1361512.575 6                  -1060916.490 7        98.000          34.000          77.000                  
G13  20188699.324    20188698.761    20188698.435                   -19845721.274 9 -19845721.273 8                 -15464197.746 8       677.000         271.000         352.000                  
G15  19287467.155    19287466.833    19287466.973                   -24613126.176 9 -24613126.179 9                 -19179057.033 9       783.000        1380.000        2131.000                  
G18  19909323.088    19909323.076    19909323.267                   -24100327.264 9 -24100327.255 9                 -18779472.722 9       733.000         671.000         645.000                  
G23  20866951.761    20866951.387    20866951.597                   -21087582.136 9 -21087582.133 8                 -16431878.072 8       535.000         372.000         332.000                  
G24  25003134.466    25003133.061    25003137.491                      343870.455 7    343870.456 6                    267947.458 7        73.000          23.000          80.000                  
G27  22430884.809    22430884.436    22430887.090                   -10619445.244 8 -10619445.245 8                  -8274893.806 8       227.000         148.000         388.000                  
G30  23736398.296    23736397.050    23736400.904                    -2325310.978 7  -2325310.981 6                  -1811930.763 8        93.000          29.000         169.000                  
> 2024 11 01 00 04  0.0000000  0  9
G05  22581288.674    22581288.342    22581288.665                   -10819636.524 8 -10819636.521 8                  -8430885.853 8       244.000         146.000         393.000                  
G10  24923822.784    24923820.919    24923824.478                    -1206177.331 7  -1206177.314 6                   -939875.864 7        94.000          29.000          73.000                  
G13  20162489.764    20162489.451    20162488.940                   -19983451.727 9 -19983451.727 8                 -15571520.180 8       674.000         270.000         361.000                  
G15  19300390.027    19300389.713    19300389.989                   -24545215.417 9 -24545215.419 9                 -19126139.564 9       776.000        1372.000        2174.000                  
G18  19940937.280    19940937.150    19940937.435                   -23934193.953 9 -23934193.946 9                 -18650018.196 9       724.000         662.000         654.000                  
G23  20891979.392    20891979.025    20891978.990                   -20956061.207 9 -20956061.203 8                 -16329394.196 8       534.000         366.000         311.000                  
G24  25040874.201    25040874.027    25040878.061                      542198.146 7    542198.146 6                    422488.567 7        72.000          23.000          81.000                  
G27  22407608.145    22407607.899    22407610.740                   -10741763.343 8 -10741763.347 8                  -8370206.708 8       230.000         144.000         396.000                  
G30  23670777.468    23670774.738    23670779.344                    -2670154.850 7  -2670154.825 6                  -2080640.257 8        99.000          27.000         180.000                  
> 2024 11 01 00 04 10.0000000  0  9
G05  22566757.143    22566756.617    22566757.164                   -10895999.636 8 -10895999.636 8                  -8490389.530 8       249.000         146.000         381.000                  
G10  24953647.867    24953647.530    24953650.850                    -1049439.353 7  -1049439.342 6                   -817742.114 7        94.000          31.000          69.000                  
G13  20136846.479    20136846.083    20136845.922                   -20118208.349 9 -20118208.349 8                 -15676525.357 8       667.000         262.000         351.000                  
G15  19314012.525    19314012.218    19314012.427                   -24473629.028 9 -24473629.030 9                 -19070357.971 9       781.000        1384.000        2188.000                  
G18  19973566.033    19973565.658    19973566.049                   -23762729.420 9 -23762729.414 9                 -18516409.474 9       722.000         651.000         672.000                  
G23  20917696.164    20917695.888    20917695.776                   -20820917.446 9 -20820917.443 8                 -16224087.321 8       528.000         361.000         291.000                  
G24  25078662.666    25078664.339    25078668.278                      740785.769 7    740785.794 6                    577232.095 7        74.000          22.000          76.000                  
G27  22385133.228    22385132.751    22385135.745                   -10859870.921 8 -10859870.923 8                  -8462238.693 8       229.000         148.000         388.000                  
G30  23605360.482    23605359.469    23605363.315                    -3013918.274 8  -3013918.249 6                  -2348507.903 8       106.000          37.000         188.000                  
> 2024 11 01 00 04 20.0000000  0 10
G05  22552698.966    22552699.136    22552699.381                   -10969873.671 8 -10969873.674 8                  -8547953.772 8       258.000         160.000         360.000                  
G08  24182822.351    24182821.122    24182833.822                     -348865.419 8   -348865.423 6                   -271846.667 6       110.000          37.000          46.000                  
G10  24983736.487    24983736.478    24983739.434                     -891321.074 7   -891321.077 6                   -694532.986 7        92.000          26.000          64.000                  
G13  20111771.103    20111770.788    20111770.050                   -20249980.295 9 -20249980.295 8                 -15779204.764 8       676.000         273.000         350.000                  
G15  19328329.499    19328329.223    19328329.428                   -24398392.845 9 -24398392.846 9                 -19011732.375 9       792.000        1419.000        2203.000                  
G18  20007198.009    20007197.956    20007198.126                   -23585991.065 9 -23585991.057 9                 -18378691.206 9       721.000         649.000         683.000                  
G23  20944096.703    20944096.291    20944096.401                   -20682182.112 9 -20682182.111 8                 -16115981.837 8       526.000         352.000         272.000                  
G24  25116497.318    25116498.923    25116502.384                      939607.534 7    939607.550 6                    732158.039 7        70.000          22.000          75.000                  
G27  22363462.976    22363462.838    22363465.720                   -10973747.876 8 -10973747.879 8                  -8550973.982 8       234.000         154.000         375.000                  
G30  23540156.118    23540155.119    23540159.084                    -3356570.696 8  -3356570.686 6                  -2615509.843 8       121.000          43.000         201.000                  
> 2024 11 01 00 04 30.0000000  0 10
G05  22539115.354    22539114.822    22539114.954                   -11041260.581 8 -11041260.583 8                  -8603579.948 8       268.000         177.000         353.000                  
G08  24125711.090    24125710.042    24125713.408                     -648987.707 8   -648987.712 6                   -505708.766 7       114.000          32.000         100.000                  
G10  25014085.674    25014084.895    25014087.717                     -731839.177 7   -731839.177 6                   -570261.634 7        90.000          31.000          61.000                  
G13  20087266.612    20087266.171    20087266.072                   -20378751.851 9 -20378751.849 8                 -15879546.280 8       677.000         270.000         372.000                  
G15  19343337.126    19343336.795    19343337.059                   -24319527.791 9 -24319527.793 9                 -18950279.109 9       790.000        1409.000        2268.000                  
G18  20041823.565    20041823.495    20041823.825                   -23404032.492 9 -23404032.486 9                 -18236905.388 9       712.000         636.000         698.000                  
G23  20971175.351    20971175.282    20971175.173                   -20539881.575 9 -20539881.573 8                 -16005098.333 8       521.000         356.000         269.000                  
G24  25154373.168    25154374.096    25154377.739                     1138642.923 7   1138642.910 6                    887250.424 7        70.000          24.000          66.000                  
G27  22342603.200    22342602.640    22342605.401                   -11083370.458 8 -11083370.457 8                  -8636394.403 8       240.000         159.000         368.000                  
G30  23475169.980    23475168.757    23475172.598                    -3698075.780 8  -3698075.762 6                  -2881617.697 8       137.000          44.000         213.000                  
> 2024 11 01 00 04 40.0000000  0 10
G05  22526007.274    22526006.950    22526007.000                   -11110142.355 8 -11110142.356 8                  -8657254.028 8       277.000         185.000         345.000                  
G08  24068997.598    24068996.173    24069000.027                     -947021.516 8   -947021.537 6                   -737943.069 8       110.000          36.000         114.000                  
G10  25044695.343    25044693.655    25044696.229                     -570988.709 7   -570988.722 6                   -444923.746 7        89.000          27.000          52.000                  
G13  20063340.234    20063339.751    20063339.545                   -20504486.339 9 -20504486.339 8                 -15977521.176 8       675.000         267.000         388.000                  
G15  19359035.100    19359034.647    19359035.094                   -24237034.628 9 -24237034.630 9                 -18885998.756 9       784.000        1384.000        2287.000                  
G18  20077436.263    20077436.098    20077436.443                   -23216886.708 9 -23216886.703 9                 -18091077.474 9       702.000         624.000         709.000                  
G23  20998931.930    20998931.452    20998931.433                   -20394021.879 9 -20394021.877 8                 -15891441.482 8       517.000         345.000         259.000                  
G24  25192290.377    25192289.687    25192294.119                     1337892.227 7   1337892.220 6                   1042509.517 7        65.000          22.000          67.000                  
G27  22322560.975    22322560.383    22322562.915                   -11188693.604 8 -11188693.604 8                  -8718464.434 8       243.000         165.000         368.000                  
G30  23410412.297    23410412.046    23410415.369                    -4038376.582 8  -4038376.587 7                  -3146787.222 8       151.000          63.000         219.000                  
> 2024 11 01 00 04 50.0000000  0 10
G05  22513374.828    22513374.316    22513374.382                   -11176527.204 8 -11176527.204 8                  -8708982.421 8       284.000         205.000         335.000                  
G08  24012688.353    24012687.503    24012691.372                    -1242921.847 8  -1242921.874 6                   -968514.608 8       114.000          34.000         134.000                  
G10  25075558.629    25075559.139    25075562.033                     -408791.797 7   -408791.808 6                   -318536.684 6        87.000          29.000          48.000                  
G13  20039993.399    20039993.045    20039992.889                   -20627174.064 9 -20627174.062 8                 -16073121.970 8       682.000         277.000         401.000                  
G15  19375418.046    19375417.873    19375418.170                   -24150940.610 9 -24150940.612 9                 -18818912.487 9       790.000        1412.000        2248.000                  
G18  20114024.266    20114024.245    20114024.649                   -23024614.534 9 -23024614.530 9                 -17941254.962 9       688.000         602.000         707.000                  
G23  21027359.092    21027358.640    21027358.713                   -20244635.725 9 -20244635.721 8                 -15775036.741 8       503.000         324.000         254.000                  
G24  25230240.962    25230241.403    25230245.371                     1537329.925 7   1537329.936 6                   1197915.395 7        68.000          24.000          67.000                  
G27  22303340.130    22303339.351    22303341.984                   -11289700.523 8 -11289700.525 8                  -8797171.214 8       239.000         158.000         350.000                  
G30  23345890.588    23345890.005    23345893.723                    -4377441.659 8  -4377441.659 7                  -3410993.913 8       165.000          73.000         242.000                  
> 2024 11 01 00 05  0.0000000  0 10
G05  22501216.460    22501216.048    22501215.945                   -11240418.940 8 -11240418.941 8                  -8758768.124 8       292.000         210.000         337.000                  
G08  23956795.406    23956795.006    23956798.695                    -1536640.053 8  -1536640.050 6                  -1197385.901 8       107.000          36.000         153.000                  
G10  25106678.214    25106676.730    25106679.906                     -245265.718 7   -245265.714 6                   -191113.972 7        88.000          28.000          51.000                  
G13  20017229.237    20017228.778    20017228.694                   -20746800.494 9 -20746800.494 8                 -16166337.357 8       671.000         270.000         418.000                  
G15  19392481.997    19392481.759    19392482.077                   -24061268.879 9 -24061268.881 9                 -18749038.425 9       787.000        1396.000        2129.000                  
G18  20151577.480    20151577.097    20151577.435                   -22827272.650 9 -22827272.644 9                 -17787482.054 9       679.000         576.000         703.000                  
G23  21056451.950    21056451.659    21056451.558                   -20091751.443 8 -20091751.439 8                 -15655906.205 8       498.000         311.000         256.000                  
G24  25268225.705    25268225.323    25268229.254                     1736935.594 7   1736935.552 6                   1353452.215 7        70.000          28.000          55.000                  
G27  22284944.517    22284943.904    22284946.661                   -11386370.149 8 -11386370.152 8                  -8872498.392 8       243.000         165.000         356.000                  
G30  23281611.494    23281610.395    23281614.013                    -4715234.031 8  -4715234.030 7                  -3674208.822 8       178.000          78.000         253.000                  
> 2024 11 01 00 05 10.0000000  0 10
G05  22489536.129    22489535.515    22489535.577                   -11301800.649 8 -11301800.648 8                  -8806598.040 8       298.000         208.000         337.000                  
G08  23901331.635    23901331.032    23901334.830                    -1828105.517 8  -1828105.527 6                  -1424501.805 8       108.000          38.000         172.000                  
G10  25138048.888    25138048.915    25138052.188                      -80406.632 7    -80406.623 6                    -62652.523 6        87.000          27.000          43.000                  
G13  19995054.080    19995053.633    19995053.853                   -20863330.816 9 -20863330.817 8                 -16257140.332 8       653.000         260.000         433.000                  
G15  19410226.285    19410226.046    19410226.283                   -23968021.950 9 -23968021.951 9                 -18676378.482 9       788.000        1397.000        2036.000                  
G18  20190088.178    20190087.895    20190088.115                   -22624897.766 9 -22624897.763 9                 -17629787.373 9       671.000         567.000         704.000                  
G23  21086209.207    21086208.915    21086208.797                   -19935377.119 9 -19935377.116 8                 -15534056.264 8       502.000         319.000         250.000                  
G24  25306241.195    25306241.897    25306245.067                     1936709.784 7   1936709.772 6                   1509120.301 7        67.000          24.000          58.000                  
G27  22267382.117    22267381.554    22267384.564                   -11478660.992 8 -11478660.994 8                  -8944413.531 8       243.000         162.000         369.000                  
G30  23217584.126    23217584.214    23217587.480                    -5051695.889 8  -5051695.891 7                  -3936386.917 8       184.000          81.000         291.000                  
> 2024 11 01 00 05 20.0000000  0 10
G05  22478331.133    22478330.891    22478331.064                   -11360681.751 8 -11360681.751 8                  -8852479.486 8       298.000         222.000         339.000                  
G08  23846304.479    23846303.934    23846308.107                    -2117273.707 8  -2117273.721 6                  -1649827.571 8       109.000          36.000         195.000                  
G10  25169671.987    25169669.458    25169673.859                       85763.435 7     85763.445 6                     66830.631 6        91.000          29.000          38.000                  
G13  19973470.362    19973469.995    19973469.853                   -20976755.784 9 -20976755.783 8                 -16345523.499 8       697.000         290.000         444.000                  
G15  19428645.349    19428645.218    19428645.466                   -23871228.966 9 -23871228.968 9                 -18600955.416 9       791.000        1422.000        2034.000                  
G18  20229544.435    20229544.181    20229544.711                   -22417553.554 9 -22417553.549 9                 -17468220.573 9       671.000         566.000         699.000                  
G23  21116623.935    21116623.779    21116623.963                   -19775546.744 8 -19775546.741 8                 -15409513.182 8       499.000         312.000         272.000                  
G24  25344283.563    25344284.078    25344288.731                     2136627.213 7   2136627.186 6                   1664899.903 7        68.000          20.000          59.000                  
G27  22250655.814    22250654.925    22250658.278                   -11566558.931 8 -11566558.929 8                  -9012905.635 8       241.000         161.000         381.000                  
G30  23153817.195    23153816.448    23153820.222                    -5386795.095 8  -5386795.094 7                  -4197503.174 8       192.000          83.000         317.000                  
> 2024 11 01 00 05 30.0000000  0 10
G05  22467601.176    22467601.087    22467601.198                   -11417067.211 8 -11417067.213 8                  -8896416.287 8       302.000         218.000         326.000                  
G08  23791724.130    23791723.885    23791727.470                    -2404095.483 8  -2404095.504 6                  -1873324.975 8       116.000          33.000         211.000                  
G10  25201537.785    25201537.421    25201539.902                      253226.176 7    253226.167 6                    197320.945 6        93.000          29.000          43.000                  
G13  19952479.840    19952479.459    19952479.340                   -21087062.111 9 -21087062.113 8                 -16431476.511 8       729.000         320.000         450.000                  
G15  19447734.487    19447734.312    19447734.621                   -23770914.574 9 -23770914.575 9                 -18522788.319 9       782.000        1399.000        1955.000                  
G18  20269935.016    20269934.802    20269935.350                   -22205299.420 9 -22205299.416 9                 -17302827.807 9       666.000         564.000         679.000                  
G23  21147690.472    21147690.149    21147690.616                   -19612290.642 8 -19612290.639 8                 -15282300.680 8       494.000         313.000         271.000                  
G24  25382349.828    25382350.992    25382354.784                     2336668.014 7   2336668.002 6                   1820775.753 7        69.000          23.000          64.000                  
G27  22234768.688    22234768.181    22234771.143                   -11650044.939 8 -11650044.939 8                  -9077959.390 8       238.000         153.000         405.000                  
G30  23090316.426    23090315.736    23090319.290                    -5720494.523 8  -5720494.524 7                  -4457528.695 8       199.000          97.000         344.000                  
> 2024 11 01 00 05 40.0000000  0 10
G05  22457349.748    22457349.401    22457349.588                   -11470940.734 8 -11470940.735 8                  -8938395.766 8       302.000         214.000         330.000                  
G08  23737604.682    23737603.046    23737607.104                    -2688500.595 8  -2688500.608 6                  -2094939.442 8       123.000          36.000         237.000                  
G10  25233652.218    25233651.264    25233654.047                      421985.535 7    421985.542 6                    328821.624 6        96.000          28.000          33.000                  
G13  19932089.301    19932088.799    19932088.787                   -21194215.653 9 -21194215.651 8                 -16514972.822 8       742.000         326.000         459.000                  
G15  19467493.008    19467492.877    19467493.130                   -23667082.868 9 -23667082.869 9                 -18441880.521 9       777.000        1367.000        1867.000                  
G18  20311252.661    20311252.374    20311252.911                   -21988174.473 9 -21988174.469 9                 -17133639.582 9       676.000         577.000         646.000                  
G23  21179407.222    21179407.020    21179407.102                   -19445617.925 8 -19445617.923 8                 -15152425.844 8       487.000         304.000         275.000                  
G24  25420441.900    25420441.124    25420445.308                     2536833.546 7   2536833.538 6                   1976748.793 7        67.000          24.000          55.000                  
G27  22219728.192    22219727.981    22219731.108                   -11729082.583 8 -11729082.587 8                  -9139547.386 8       235.000         162.000         436.000                  
G30  23027093.079    23027092.278    23027095.944                    -6052735.195 8  -6052735.197 8                  -4716417.493 8       210.000         116.000         381.000                  
> 2024 11 01 00 05 50.0000000  0 10
G05  22447573.544    22447573.688    22447573.836                   -11522313.306 8 -11522313.306 8                  -8978426.422 8       300.000         218.000         332.000                  
G08  23683951.030    23683950.882    23683955.011                    -2970444.650 8  -2970444.652 6                  -2314636.038 8       126.000          43.000         248.000                  
G10  25266008.118    25266006.525    25266010.752                      592018.295 7    592018.312 6                    461314.627 6        94.000          27.000          35.000                  
G13  19912300.026    19912299.517    19912299.388                   -21298209.408 9 -21298209.409 8                 -16596006.958 8       752.000         339.000         471.000                  
G15  19487915.064    19487914.831    19487915.102                   -23559765.145 9 -23559765.147 9                 -18358256.407 9       781.000        1379.000        1833.000                  
G18  20353484.205    20353484.085    20353484.593                   -21766245.639 9 -21766245.636 9                 -16960708.106 9       690.000         600.000         602.000                  
G23  21211767.146    21211766.970    21211767.210                   -19275565.256 8 -19275565.252 8                 -15019917.271 8       475.000         288.000         280.000                  
G24  25458550.449    25458550.746    25458555.482                     2737098.420 7   2737098.418 6                   2132799.287 7        68.000          21.000          56.000                  
G27  22205536.412    22205536.068    22205539.549                   -11803659.993 8 -11803659.995 8                  -9197659.680 8       236.000         153.000         475.000                  
G30  22964153.663    22964152.690    22964156.245                    -6383484.881 8  -6383484.882 8                  -4974144.469 8       231.000         129.000         410.000                  
> 2024 11 01 00 06  0.0000000  0 10
G05  22438272.992    22438272.532    22438272.759                   -11571190.558 8 -11571190.558 8                  -9016512.606 8       299.000         214.000         344.000                  
G08  23630776.605    23630776.483    23630780.407                    -3249878.630 8  -3249878.652 6                  -2532376.811 8       133.000          47.000         269.000                  
G10  25298602.101    25298602.063    25298606.552                      763306.363 7    763306.357 6                    594785.590 6        89.000          28.000          39.000                  
G13  19893114.384    19893113.817    19893113.637                   -21399030.809 9 -21399030.809 8                 -16674569.081 8       755.000         335.000         479.000                  
G15  19508995.304    19508995.203    19508995.512                   -23448987.112 9 -23448987.114 9                 -18271935.896 9       789.000        1415.000        1817.000                  
G18  20396618.436    20396618.243    20396618.647                   -21539574.514 9 -21539574.511 9                 -16784081.305 9       697.000         617.000         580.000                  
G23  21244764.376    21244764.260    21244764.401                   -19102163.879 8 -19102163.876 8                 -14884799.321 8       463.000         274.000         292.000                  
G24  25496675.647    25496675.111    25496679.255                     2937443.255 7   2937443.238 6                   2288912.015 6        64.000          23.000          47.000                  
G27  22192197.114    22192196.303    22192199.690                   -11873762.473 8 -11873762.471 8                  -9252285.106 8       239.000         155.000         489.000                  
G30  22901504.708    22901504.108    22901507.794                    -6712705.387 8  -6712705.387 8                  -5230679.909 8       243.000         146.000         444.000                  
> 2024 11 01 00 06 10.0000000  0 11
G05  22429449.546    22429449.078    22429449.549                   -11617557.636 8 -11617557.633 8                  -9052642.798 8       293.000         210.000         341.000                  
G07  24875044.885    24875044.903    24875069.896                     -438412.405 7   -438412.391 6                   -341622.354 6        83.000          23.000          17.000                  
G08  23578094.160    23578092.971    23578096.845                    -3526731.993 8  -3526732.001 7                  -2748106.544 8       143.000          51.000         278.000                  
G10  25331438.146    25331436.827    25331440.661                      935853.311 7    935853.308 6                    729237.578 6        93.000          28.000          42.000                  
G13  19874538.417    19874538.029    19874537.920                   -21496647.176 9 -21496647.176 8                 -16750633.752 9       751.000         331.000         506.000                  
G15  19530733.242    19530732.992    19530733.231                   -23334754.600 9 -23334754.601 9                 -18182923.586 9       800.000        1445.000        1775.000                  
G18  20440647.098    20440646.811    20440647.269                   -21308202.943 9 -21308202.939 9                 -16603791.793 9       703.000         620.000         552.000                  
G23  21278396.765    21278396.548    21278396.753                   -18925424.801 8 -18925424.796 8                 -14747080.569 8       456.000         267.000         286.000                  
G24  25534815.939    25534815.311    25534818.918                     3137869.534 7   3137869.518 6                   2445088.153 6        66.000          22.000          49.000                  
G27  22179714.895    22179714.457    22179717.651                   -11939354.148 8 -11939354.150 8                  -9303395.188 9       248.000         170.000         525.000                  
G30  22839158.625    22839158.043    22839161.547                    -7040337.570 8  -7040337.568 8                  -5485977.767 8       256.000         169.000         453.000                  
> 2024 11 01 00 06 20.0000000  0 11
G05  22421100.972    22421100.935    22421101.084                   -11661427.980 8 -11661427.980 8                  -9086827.468 8       291.000         209.000         333.000                  
G07  24813891.779    24813891.995    24813901.993                     -759770.381 7   -759770.390 6                   -592028.649 6        87.000          27.000          20.000                  
G08  23525909.666    23525908.530    23525912.469                    -3800962.973 8  -3800962.982 7                  -2961792.979 8       149.000          56.000         283.000                  
G10  25364507.105    25364506.652    25364510.908                     1109633.811 7   1109633.818 6                    864650.574 6        95.000          29.000          42.000                  
G13  19856573.485    19856572.997    19856573.057                   -21591054.108 9 -21591054.109 8                 -16824197.606 9       744.000         331.000         519.000                  
G15  19553121.739    19553121.692    19553121.898                   -23217101.481 9 -23217101.482 9                 -18091245.863 9       802.000        1441.000        1685.000                  
G18  20485556.812    20485556.596    20485556.985                   -21072201.090 9 -21072201.086 9                 -16419894.271 9       699.000         620.000         513.000                  
G23  21312656.998    21312656.492    21312656.991                   -18745387.312 8 -18745387.312 8                 -14606791.749 8       440.000         254.000         272.000                  
G24  25572966.116    25572965.846    25572969.688                     3338351.294 7   3338351.313 6                   2601307.479 7        63.000          23.000          56.000                  
G27  22168092.704    22168092.065    22168095.123                   -12000430.228 8 -12000430.230 8                  -9350986.890 9       252.000         177.000         518.000                  
G30  22777120.516    22777120.131    22777123.572                    -7366349.254 8  -7366349.253 8                  -5740012.811 8       271.000         181.000         492.000                  
> 2024 11 01 00 06 30.0000000  0 11
G05  22413228.659    22413228.216    22413228.568                   -11702798.515 8 -11702798.515 8                  -9119064.272 8       287.000         201.000         326.000                  
G07  24752925.234    24752923.418    24752948.195                    -1080159.590 7  -1080159.582 6                   -841685.027 6        90.000          25.000          16.000                  
G08  23474235.143    23474234.339    23474238.185                    -4072512.460 8  -4072512.469 7                  -3173389.939 8       156.000          62.000         293.000                  
G10  25397810.392    25397809.975    25397813.344                     1284639.919 7   1284639.933 6                   1001018.486 6        98.000          32.000          34.000                  
G13  19839222.990    19839222.594    19839222.689                   -21682230.584 9 -21682230.583 8                 -16895244.218 9       738.000         322.000         518.000                  
G15  19576158.098    19576157.920    19576158.111                   -23096045.414 9 -23096045.414 9                 -17996916.486 9       802.000        1454.000        1691.000                  
G18  20531337.124    20531337.105    20531337.432                   -20831623.137 9 -20831623.134 9                 -16232430.959 8       697.000         609.000         481.000                  
G23  21347540.194    21347539.945    21347540.460                   -18562074.272 8 -18562074.271 8                 -14463950.640 8       429.000         235.000         272.000                  
G24  25611126.166    25611125.124    25611129.393                     3538879.673 7   3538879.679 6                   2757563.242 6        69.000          30.000          44.000                  
G27  22157333.356    22157332.949    22157336.052                   -12056968.014 8 -12056968.015 8                  -9395042.005 9       256.000         180.000         523.000                  
G30  22715400.219    22715399.468    22715403.146                    -7690692.024 8  -7690692.023 8                  -5992747.403 9       277.000         183.000         508.000                  
> 2024 11 01 00 06 40.0000000  0 11
G05  22405830.026    22405829.440    22405829.879                   -11741678.426 8 -11741678.425 8                  -9149360.256 8       284.000         199.000         330.000                  
G07  24692145.495    24692144.955    24692146.409                    -1399553.454 7  -1399553.455 6                  -1090560.224 6        95.000          28.000          44.000                  
G08  23423080.294    23423079.784    23423083.274                    -4341333.955 8  -4341333.963 7                  -3382861.233 8       164.000          68.000         304.000                  
G10  25431342.219    25431341.930    25431346.943                     1460850.508 8   1460850.503 6                   1138324.514 6       101.000          34.000          39.000                  
G13  19822489.053    19822488.736    19822488.606                   -21770168.263 9 -21770168.264 8                 -16963767.075 9       751.000         330.000         509.000                  
G15  19599836.169    19599835.948    19599836.218                   -22971616.704 9 -22971616.705 9                 -17899959.081 9       804.000        1466.000        1709.000                  
G18  20577975.604    20577975.509    20577975.939                   -20586536.048 9 -20586536.045 9                 -16041454.045 8       688.000         590.000         445.000                  
G23  21383040.291    21383039.743    21383040.592                   -18375520.777 8 -18375520.774 8                 -14318584.396 8       416.000         225.000         262.000                  
G24  25649292.347    25649289.199    25649294.144                     3739433.243 7   3739433.219 6                   2913838.488 6        60.000          17.000          46.000                  
G27  22147439.697    22147439.291    22147442.254                   -12108960.074 8 -12108960.074 8                  -9435555.232 9       264.000         190.000         538.000                  
G30  22654004.020    22654003.599    22654007.304                    -8013329.371 8  -8013329.374 8                  -6244153.226 9       275.000         186.000         541.000                  
> 2024 11 01 00 06 50.0000000  0 11
G05  22398909.133    22398908.690    22398909.129                   -11778048.043 8 -11778048.042 8                  -9177700.210 8       284.000         198.000         330.000                  
G07  24631567.094    24631567.619    24631567.930                    -1717894.171 7  -1717894.179 6                  -1338617.795 6        97.000          27.000          50.000                  
G08  23372458.900    23372458.011    23372461.791                    -4607351.543 8  -4607351.545 7                  -3590147.704 8       168.000          70.000         295.000                  
G10  25465106.481    25465105.002    25465109.739                     1638275.635 8   1638275.612 6                   1276577.039 6       102.000          33.000          40.000                  
G13  19806378.500    19806377.977    19806378.109                   -21854829.733 9 -21854829.734 8                 -17029737.002 8       737.000         317.000         496.000                  
G15  19624155.863    19624155.523    19624155.782                   -22843816.441 9 -22843816.441 9                 -17800374.410 9       805.000        1465.000        1709.000                  
G18  20625465.238    20625464.906    20625465.221                   -20336977.796 9 -20336977.793 9                 -15846993.055 8       688.000         591.000         397.000                  
G23  21419155.705    21419155.360    21419156.104                   -18185733.685 8 -18185733.682 8                 -14170698.595 8       417.000         215.000         248.000                  
G24  25687462.405    25687460.209    25687463.481                     3940019.895 7   3940019.889 6                   3070139.486 6        60.000          21.000          36.000                  
G27  22138417.712    22138417.793    22138420.620                   -12156369.262 8 -12156369.262 8                  -9472497.483 9       272.000         205.000         523.000                  
G30  22592945.667    22592944.867    22592948.745                    -8334194.475 8  -8334194.475 8                  -6494177.978 9       280.000         188.000         550.000                  
> 2024 11 01 00 07  0.0000000  0 12
G05  22392458.654    22392458.105    22392458.722                   -11811945.066 8 -11811945.064 8                  -9204113.463 8       288.000         201.000         331.000                  
G07  24571190.125    24571188.547    24571189.530                    -2035182.904 8  -2035182.914 6                  -1585855.652 7       102.000          31.000          54.000                  
G08  23322374.396    23322373.850    23322377.231                    -4870546.294 8  -4870546.300 7                  -3795234.413 8       168.000          67.000         295.000                  
G10  25499091.588    25499090.853    25499095.503                     1816865.456 8   1816865.462 6                   1415736.401 6       107.000          33.000          32.000                  
G13  19790887.314    19790886.925    19790887.214                   -21936235.424 9 -21936235.425 8                 -17093170.011 8       719.000         317.000         489.000                  
G14  24711245.015    24711242.946    24711260.252                     -529176.213 8   -529176.222 6                   -412348.866 6       116.000          19.000          12.000                  
G15  19649105.572    19649105.398    19649105.778                   -22712703.590 9 -22712703.591 9                 -17698208.531 9       812.000        1479.000        1733.000                  
G18  20673786.971    20673786.815    20673787.079                   -20083044.160 9 -20083044.157 9                 -15649122.626 8       688.000         587.000         372.000                  
G23  21455874.615    21455874.056    21455874.877                   -17992776.477 8 -17992776.475 8                 -14020342.448 8       412.000         219.000         243.000                  
G24  25725629.610    25725628.921    25725632.315                     4140592.891 7   4140592.887 6                   3226429.994 6        56.000          21.000          41.000                  
G27  22130264.338    22130264.108    22130267.067                   -12199217.244 8 -12199217.243 8                  -9505885.686 9       282.000         212.000         502.000                  
G30  22532225.823    22532225.458    22532229.097                    -8653278.198 8  -8653278.199 8                  -6742814.704 9       288.000         203.000         585.000                  
> 2024 11 01 00 07 10.0000000  0 12
G05  22386484.408    22386483.811    22386484.363                   -11843340.598 8 -11843340.596 8                  -9228577.522 8       292.000         213.000         353.000                  
G07  24511023.913    24511023.101    24511024.167                    -2351352.655 8  -2351352.648 6                  -1832221.438 7       106.000          31.000          60.000                  
G08  23272843.005    23272842.697    23272846.468                    -5130833.187 8  -5130833.188 7                  -3998055.428 8       174.000          78.000         308.000                  
G10  25533302.345    25533302.788    25533308.155                     1996641.656 8   1996641.644 6                   1555820.974 6       108.000          34.000          36.000                  
G13  19776024.936    19776024.485    19776024.445                   -22014338.829 9 -22014338.828 8                 -17154029.837 8       746.000         329.000         496.000                  
G14  24642950.618    24642949.625    24642950.725                     -888063.785 8   -888063.787 6                   -692000.766 6       124.000          34.000          29.000                  
G15  19674687.424    19674687.252    19674687.606                   -22578270.075 9 -22578270.076 9                 -17593455.097 9       806.000        1469.000        1775.000                  
G18  20722936.000    20722935.804    20722935.985                   -19824764.495 9 -19824764.493 9                 -15447865.755 8       683.000         579.000         369.000                  
G23  21493196.624    21493196.388    21493197.069                   -17796646.578 8 -17796646.575 8                 -13867514.077 8       410.000         217.000         246.000                  
G24  25763796.914    25763797.355    25763800.430                     4341170.958 7   4341170.980 6                   3382724.586 6        52.000          21.000          34.000                  
G27  22122987.794    22122987.085    22122989.952                   -12237458.758 8 -12237458.759 8                  -9535684.284 9       287.000         227.000         503.000                  
G30  22471859.645    22471859.424    22471863.119                    -8970503.600 8  -8970503.600 8                  -6990003.395 9       294.000         205.000         625.000                  
> 2024 11 01 00 07 20.0000000  0 12
G05  22380979.326    22380979.236    22380979.684                   -11872267.962 8 -11872267.960 8                  -9251118.386 8       301.000         221.000         353.000                  
G07  24451073.051    24451071.378    24451072.958                    -2666399.218 8  -2666399.217 6                  -2077712.135 7       114.000          34.000          76.000                  
G08  23223870.188    23223869.505    23223873.403                    -5388188.514 8  -5388188.514 7                  -4198592.028 8       178.000          75.000         328.000                  
G10  25567730.205    25567730.672    25567735.504                     2177560.383 8   2177560.382 6                   1696796.284 6       106.000          34.000          35.000                  
G13  19761787.782    19761787.202    19761787.253                   -22089155.923 9 -22089155.923 8                 -17212328.868 9       778.000         356.000         502.000                  
G14  24574720.270    24574720.980    24574722.297                    -1246610.164 8  -1246610.171 6                   -971387.605 6       127.000          30.000          25.000                  
G15  19700890.656    19700890.516    19700890.953                   -22440570.621 9 -22440570.622 9                 -17486156.838 9       792.000        1419.000        1768.000                  
G18  20772894.607    20772894.421    20772894.674                   -19562230.444 9 -19562230.441 9                 -15243293.816 8       667.000         559.000         362.000                  
G23  21531111.725    21531111.227    21531112.044                   -17597404.167 8 -17597404.167 8                 -13712260.651 8       409.000         213.000         254.000                  
G24  25801955.866    25801958.344    25801961.841                     4541709.441 6   4541709.437 6                   3538988.286 6        50.000          19.000          39.000                  
G27  22116583.541    22116582.743    22116585.934                   -12271112.768 8 -12271112.770 8                  -9561908.140 9       288.000         232.000         506.000                  
G30  22411850.814    22411850.027    22411853.800                    -9285855.949 8  -9285855.949 8                  -7235732.652 9       306.000         228.000         670.000                  
> 2024 11 01 00 07 30.0000000  0 11
G05  22375946.864    22375946.489    22375946.876                   -11898715.985 8 -11898715.985 8                  -9271727.268 8       306.000         232.000         350.000                  
G07  24391344.057    24391342.987    24391345.439                    -2980272.202 8  -2980272.194 6                  -2322288.197 7       124.000          38.000          87.000                  
G08  23175468.492    23175467.058    23175470.918                    -5642544.307 8  -5642544.311 7                  -4396791.188 8       178.000          72.000         350.000                  
G10  25602376.712    25602376.351    25602381.197                     2359622.128 8   2359622.132 6                   1838662.257 6       110.000          24.000          33.000                  
G13  19748181.410    19748180.850    19748180.857                   -22160658.631 9 -22160658.631 8                 -17268045.290 9       804.000         384.000         518.000                  
G14  24506568.888    24506569.116    24506570.264                    -1604751.952 8  -1604751.942 6                  -1250459.184 6       136.000          33.000          34.000                  
G15  19727713.639    19727713.474    19727713.990                   -22299615.534 9 -22299615.534 9                 -17376321.828 9       775.000        1356.000        1804.000                  
G18  20823653.789    20823653.565    20823653.834                   -19295489.207 9 -19295489.204 9                 -15035443.473 8       650.000         531.000         361.000                  
G23  21569615.721    21569615.685    21569616.780                   -17395063.878 8 -17395063.877 8                 -13554593.254 8       408.000         208.000         261.000                  
G27  22111056.956    22111056.255    22111059.291                   -12300154.499 8 -12300154.502 8                  -9584538.040 8       287.000         225.000         493.000                  
G30  22352208.587    22352208.299    22352212.209                    -9599275.014 8  -9599275.010 8                  -7479955.331 9       312.000         236.000         718.000                  
> 2024 11 01 00 07 40.0000000  0 11
G05  22371386.314    22371386.119    22371386.323                   -11922681.334 8 -11922681.333 8                  -9290401.494 8       319.000         235.000         349.000                  
G07  24331847.817    24331847.158    24331847.784                    -3292929.725 8  -3292929.725 6                  -2565917.316 7       125.000          44.000          91.000                  
G08  23127647.836    23127647.293    23127650.712                    -5893840.746 8  -5893840.749 7                  -4592606.475 8       182.000          81.000         364.000                  
G10  25637237.909    25637237.493    25637241.909                     2542821.768 8   2542821.797 6                   1981415.423 6       108.000          29.000          24.000                  
G13  19735209.497    19735209.082    19735208.997                   -22228826.832 9 -22228826.832 8                 -17321163.546 9       829.000         400.000         515.000                  
G14  24438504.355    24438503.802    24438505.296                    -1962432.623 8  -1962432.617 6                  -1529171.311 6       138.000          30.000          32.000                  
G15  19755152.768    19755152.441    19755153.032                   -22155422.386 9 -22155422.386 9                 -17263963.536 9       747.000        1249.000        1760.000                  
G18  20875202.916    20875202.813    20875203.069                   -19024596.157 9 -19024596.154 9                 -14824357.980 8       636.000         520.000         356.000                  
G23  21608705.405    21608705.127    21608706.379                   -17189648.968 8 -17189648.968 8                 -13394530.132 8       408.000         209.000         268.000                  
G27  22106411.302    22106410.784    22106413.567                   -12324567.251 8 -12324567.252 8                  -9603560.854 8       290.000         233.000         477.000                  
G30  22292944.991    22292944.427    22292948.272                    -9910708.275 8  -9910708.276 8                  -7722630.580 9       318.000         240.000         733.000                  
> 2024 11 01 00 07 50.0000000  0 11
G05  22367294.286    22367293.946    22367294.253                   -11944185.749 8 -11944185.748 8                  -9307158.296 8       324.000         252.000         358.000                  
G07  24272586.063    24272584.919    24272585.819                    -3604353.558 8  -3604353.565 6                  -2808585.202 7       134.000          47.000          95.000                  
G08  23080416.232    23080415.606    23080419.281                    -6142042.228 8  -6142042.241 7                  -4786010.076 8       185.000          80.000         388.000                  
G10  25672311.220    25672309.641    25672314.549                     2727127.125 7   2727127.104 6                   2125029.976 6       100.000          27.000          32.000                  
G13  19722871.163    19722870.783    19722870.821                   -22293664.507 9 -22293664.507 8                 -17371686.440 9       848.000         420.000         519.000                  
G14  24370533.096    24370533.475    24370534.654                    -2319620.368 8  -2319620.370 6                  -1807499.413 6       147.000          38.000          37.000                  
G15  19783199.765    19783199.481    19783200.063                   -22008033.868 9 -22008033.868 9                 -17149115.306 9       730.000        1212.000        1731.000                  
G18  20927527.426    20927526.923    20927527.155                   -18749631.495 9 -18749631.490 8                 -14610099.905 8       623.000         491.000         371.000                  
G23  21648370.641    21648370.501    21648371.778                   -16981206.396 8 -16981206.397 8                 -13232107.474 8       402.000         203.000         276.000                  
G27  22102644.762    22102644.131    22102646.915                   -12344360.486 8 -12344360.485 8                  -9618984.060 8       288.000         227.000         499.000                  
G30  22234064.291    22234063.934    22234067.771                   -10220127.732 8 -10220127.731 8                  -7963736.708 9       323.000         253.000         759.000                  
> 2024 11 01 00 08  0.0000000  0 11
G05  22363671.389    22363671.087    22363671.411                   -11963223.212 8 -11963223.213 8                  -9321992.668 8       331.000         268.000         351.000                  
G07  24213568.154    24213566.234    24213567.107                    -3914498.568 8  -3914498.579 7                  -3050256.790 8       145.000          52.000         106.000                  
G08  23033785.749    23033784.968    23033788.781                    -6387086.607 8  -6387086.608 7                  -4976953.603 8       189.000          89.000         411.000                  
G10  25707591.545    25707591.617    25707597.072                     2912532.481 7   2912532.488 6                   2269500.361 6        99.000          35.000          28.000                  
G13  19711170.959    19711170.540    19711170.598                   -22355150.059 9 -22355150.059 8                 -17419597.310 9       857.000         432.000         519.000                  
G14  24302668.691    24302667.636    24302669.607                    -2676255.444 8  -2676255.423 6                  -2085396.970 6       155.000          45.000          43.000                  
G15  19811851.957    19811851.728    19811852.211                   -21857466.450 9 -21857466.451 9                 -17031790.223 9       744.000        1245.000        1642.000                  
G18  20980615.905    20980615.770    20980616.028                   -18470648.238 9 -18470648.234 8                 -14392710.416 8       604.000         461.000         370.000                  
G23  21688608.593    21688607.845    21688609.076                   -16769757.630 8 -16769757.630 8                 -13067342.246 8       398.000         208.000         279.000                  
G27  22099760.264    22099759.612    22099762.646                   -12359517.593 8 -12359517.598 8                  -9630794.781 9       290.000         235.000         503.000                  
G30  22175577.842    22175577.293    22175581.116                   -10527477.735 8 -10527477.734 8                  -8203230.312 9       338.000         285.000         821.000                  
> 2024 11 01 00 08 10.0000000  0 11
G05  22360517.714    22360517.576    22360518.061                   -11979795.337 8 -11979795.337 8                  -9334906.110 8       335.000         268.000         355.000                  
G07  24154799.809    24154799.263    24154799.867                    -4223324.871 8  -4223324.875 6                  -3290900.801 8       146.000          50.000         113.000                  
G08  22987767.073    22987765.778    22987769.628                    -6628918.090 8  -6628918.099 7                  -5165393.659 8       193.000          99.000         426.000                  
G10  25743082.244    25743082.263    25743086.865                     3099035.461 7   3099035.460 6                   2414828.452 6        99.000          30.000          29.000                  
G13  19700111.516    19700111.028    19700111.183                   -22413267.947 9 -22413267.948 8                 -17464884.074 9       852.000         431.000         513.000                  
G14  24234918.202    24234918.086    24234919.149                    -3032283.255 8  -3032283.248 6                  -2362821.281 6       161.000          43.000          49.000                  
G15  19841104.854    19841104.535    19841105.027                   -21703741.952 9 -21703741.953 9                 -16912004.926 9       748.000        1262.000        1592.000                  
G18  21034457.907    21034457.828    21034458.061                   -18187706.118 9 -18187706.115 8                 -14172236.104 8       582.000         434.000         366.000                  
G23  21729412.508    21729412.149    21729413.273                   -16555330.267 8 -16555330.270 8                 -12900256.052 8       388.000         190.000         282.000                  
G27  22097759.861    22097759.509    22097762.456                   -12370028.994 8 -12370028.996 8                  -9638985.507 9       294.000         233.000         526.000                  
G30  22117494.667    22117493.804    22117497.709                   -10832708.546 8 -10832708.547 8                  -8441072.605 9       359.000         310.000         864.000                  
> 2024 11 01 00 08 20.0000000  0 11
G05  22357829.509    22357829.382    22357829.620                   -11993923.095 8 -11993923.095 8                  -9345914.893 8       339.000         273.000         359.000                  
G07  24096286.660    24096286.083    24096287.034                    -4530812.910 8  -4530812.909 7                  -3530502.081 8       157.000          59.000         121.000                  
G08  22942365.674    22942365.296    22942369.023                    -6867501.190 8  -6867501.197 7                  -5351302.699 8       201.000          93.000         454.000                  
G10  25778774.210    25778773.675    25778778.093                     3286600.739 7   3286600.732 6                   2560983.800 6        98.000          28.000          30.000                  
G13  19689692.247    19689691.781    19689691.641                   -22468023.070 9 -22468023.068 8                 -17507550.572 8       858.000         440.000         498.000                  
G14  24167290.579    24167290.996    24167292.532                    -3387669.195 8  -3387669.181 6                  -2639745.440 7       171.000          43.000          56.000                  
G15  19870950.254    19870950.005    19870950.536                   -21546903.711 9 -21546903.712 9                 -16789793.559 9       752.000        1277.000        1530.000                  
G18  21089038.410    21089038.124    21089038.522                   -17900885.029 9 -17900885.026 8                 -13948739.266 8       565.000         410.000         379.000                  
G23  21770774.526    21770774.206    21770775.492                   -16337972.017 8 -16337972.020 8                 -12730886.179 8       372.000         170.000         278.000                  
G27  22096641.659    22096640.909    22096644.088                   -12375906.072 8 -12375906.073 8                  -9643565.040 9       293.000         236.000         555.000                  
G30  22059820.298    22059819.409    22059823.207                   -11135790.086 8 -11135790.085 8                  -8677240.049 9       370.000         324.000         873.000                  
> 2024 11 01 00 08 30.0000000  0 11
G05  22355607.249    22355606.989    22355607.347                   -12005601.671 8 -12005601.671 8                  -9355015.139 8       340.000         288.000         356.000                  
G07  24038037.147    24038036.575    24038037.353                    -4836916.069 8  -4836916.074 7                  -3769023.966 8       158.000          60.000         122.000                  
G08  22897595.085    22897594.114    22897598.052                    -7102773.334 8  -7102773.339 8                  -5534631.463 8       208.000         111.000         470.000                  
G10  25814667.097    25814667.757    25814671.408                     3475225.969 7   3475225.968 6                   2707965.237 6        98.000          30.000          26.000                  
G13  19679916.650    19679916.127    19679916.238                   -22519394.366 9 -22519394.365 8                 -17547580.295 9       873.000         448.000         523.000                  
G14  24099797.160    24099796.944    24099798.420                    -3742351.908 8  -3742351.893 6                  -2916121.692 7       182.000          48.000          58.000                  
G15  19901385.326    19901385.044    19901385.449                   -21386967.556 9 -21386967.556 9                 -16665168.066 9       775.000        1349.000        1420.000                  
G18  21144346.832    21144346.467    21144346.807                   -17610239.171 9 -17610239.169 8                 -13722262.313 8       547.000         380.000         373.000                  
G23  21812689.857    21812689.625    21812691.217                   -16117703.981 8 -16117703.980 8                 -12559248.811 8       367.000         166.000         271.000                  
G27  22096407.447    22096406.982    22096409.974                   -12377135.176 8 -12377135.175 8                  -9644522.658 9       294.000         242.000         572.000                  
G30  22002565.517    22002564.502    22002568.245                   -11436665.836 8 -11436665.836 8                  -8911688.485 9       387.000         363.000         918.000                  
> 2024 11 01 00 08 40.0000000  0 11
G05  22353851.032    22353851.093    22353851.328                   -12014829.914 8 -12014829.915 8                  -9362206.016 8       345.000         283.000         353.000                  
G07  23980059.453    23980058.943    23980059.382                    -5141591.655 8  -5141591.660 7                  -4006433.317 8       161.000          60.000         124.000                  
G08  22853465.499    22853464.328    22853468.091                    -7334677.117 8  -7334677.125 8                  -5715335.559 8       219.000         111.000         473.000                  
G10  25850761.648    25850761.792    25850766.418                     3664902.902 7   3664902.905 6                   2855765.480 6        95.000          29.000          26.000                  
G13  19670788.156    19670787.803    19670787.930                   -22567364.519 9 -22567364.519 8                 -17584959.703 9       857.000         437.000         536.000                  
G14  24032448.690    24032448.423    24032449.307                    -4096272.417 8  -4096272.405 7                  -3191903.925 7       191.000          52.000          61.000                  
G15  19932405.638    19932405.585    19932406.013                   -21223954.147 9 -21223954.148 9                 -16538144.805 9       789.000        1405.000        1326.000                  
G18  21200371.925    21200371.712    21200372.168                   -17315824.742 9 -17315824.739 8                 -13492848.519 8       527.000         347.000         369.000                  
G23  21855154.913    21855154.222    21855155.840                   -15894551.317 8 -15894551.317 8                 -12385363.622 8       363.000         170.000         256.000                  
G27  22097060.346    22097059.315    22097062.225                   -12373707.261 8 -12373707.263 8                  -9641851.422 9       299.000         243.000         602.000                  
G30  21945740.107    21945739.548    21945743.184                   -11735283.252 8 -11735283.253 8                  -9144377.276 9       394.000         370.000         948.000                  
> 2024 11 01 00 08 50.0000000  0 11
G05  22352555.460    22352555.016    22352555.528                   -12021640.155 8 -12021640.158 8                  -9367512.765 8       346.000         288.000         369.000                  
G07  23922354.996    23922354.407    23922354.943                    -5444830.682 8  -5444830.693 7                  -4242723.564 8       168.000          66.000         135.000                  
G08  22809980.808    22809980.432    22809983.834                    -7563188.291 8  -7563188.297 8                  -5893396.164 8       232.000         136.000         484.000                  
G10  25887048.946    25887049.105    25887052.778                     3855592.971 7   3855592.979 6                   3004355.213 6        91.000          28.000          26.000                  
G13  19662303.919    19662303.470    19662303.767                   -22611950.348 9 -22611950.347 8                 -17619702.053 9       855.000         424.000         567.000                  
G14  23965249.523    23965249.611    23965250.384                    -4449404.971 8  -4449404.980 7                  -3467072.190 7       198.000          55.000          66.000                  
G15  19964001.642    19964001.488    19964001.849                   -21057916.567 9 -21057916.567 9                 -16408764.856 9       798.000        1426.000        1315.000                  
G18  21257096.785    21257096.593    21257097.094                   -17017732.845 9 -17017732.843 8                 -13260569.122 8       506.000         329.000         370.000                  
G23  21898156.989    21898156.445    21898157.708                   -15668572.006 8 -15668572.001 8                 -12209275.495 8       361.000         165.000         251.000                  
G27  22098593.475    22098592.799    22098595.797                   -12365647.614 8 -12365647.613 8                  -9635571.053 9       303.000         253.000         629.000                  
G30  21889349.116    21889347.887    21889351.856                   -12031622.441 8 -12031622.442 8                  -9375291.016 9       415.000         406.000        1073.000                  
> 2024 11 01 00 09  0.0000000  0 11
G05  22351724.193    22351723.696    22351724.236                   -12026009.241 8 -12026009.241 8                  -9370917.380 8       344.000         296.000         368.000                  
G07  23864936.140    23864935.787    23864936.248                    -5746566.576 8  -5746566.572 7                  -4477842.377 8       170.000          78.000         132.000                  
G08  22767157.858    22767156.971    22767160.516                    -7788227.051 8  -7788227.050 8                  -6068751.111 8       240.000         141.000         493.000                  
G10  25923530.899    25923531.695    25923534.991                     4047312.405 7   4047312.402 6                   3153747.436 6        91.000          29.000          25.000                  
G13  19654470.914    19654470.750    19654470.952                   -22653113.188 9 -22653113.189 8                 -17651777.245 9       865.000         442.000         576.000                  
G14  23898216.025    23898216.283    23898217.007                    -4801667.311 8  -4801667.304 7                  -3741562.267 7       207.000          59.000          73.000                  
G15  19996173.542    19996173.145    19996173.510                   -20888853.483 9 -20888853.482 9                 -16277027.430 9       810.000        1457.000        1243.000                  
G18  21314515.098    21314514.929    21314515.326                   -16715998.878 8 -16715998.878 8                 -13025451.887 8       489.000         305.000         367.000                  
G23  21941696.150    21941695.849    21941697.001                   -15439770.083 8 -15439770.082 8                 -12030988.124 8       361.000         164.000         235.000                  
G27  22101013.830    22101013.526    22101016.252                   -12352926.785 8 -12352926.786 8                  -9625658.558 9       306.000         259.000         633.000                  
G30  21833405.490    21833404.735    21833408.450                   -12325606.751 8 -12325606.752 8                  -9604369.632 9       426.000         434.000        1121.000                  
> 2024 11 01 00 09 10.0000000  0 11
G05  22351349.592    22351349.450    22351349.998                   -12027976.904 8 -12027976.904 8                  -9372450.803 8       349.000         291.000         364.000                  
G07  23807804.270    23807803.325    23807804.581                    -6046796.019 8  -6046796.019 7                  -4711787.259 8       171.000          69.000         143.000                  
G08  22724998.442    22724997.349    22725000.980                    -8009775.675 8  -8009775.678 8                  -6241386.243 8       243.000         144.000         488.000                  
G10  25960199.550    25960200.257    25960205.099                     4240014.448 7   4240014.460 6                   3303905.520 6        87.000          31.000          23.000                  
G13  19647285.204    19647284.771    19647285.183                   -22690877.530 9 -22690877.530 8                 -17681204.563 9       869.000         441.000         578.000                  
G14  23831351.744    23831352.111    23831353.395                    -5153038.954 8  -5153038.953 7                  -4015358.120 7       217.000          63.000          74.000                  
G15  20028909.196    20028909.118    20028909.588                   -20716826.069 9 -20716826.071 9                 -16142980.412 9       808.000        1476.000        1177.000                  
G18  21372607.825    21372607.564    21372608.158                   -16410720.334 8 -16410720.332 8                 -12787572.798 8       467.000         280.000         356.000                  
G23  21985760.798    21985760.270    21985761.278                   -15208211.140 8 -15208211.139 8                 -11850552.697 8       365.000         160.000         226.000                  
G27  22104314.766    22104314.660    22104317.380                   -12335578.821 8 -12335578.825 8                  -9612140.478 9       310.000         265.000         636.000                  
G30  21777912.754    21777911.931    21777915.582                   -12617222.427 8 -12617222.428 8                  -9831602.364 9       425.000         442.000        1114.000                  
> 2024 11 01 00 09 20.0000000  0 11
G05  22351435.540    22351435.202    22351435.689                   -12027526.363 8 -12027526.364 8                  -9372099.630 8       348.000         291.000         366.000                  
G07  23750970.339    23750969.928    23750970.377                    -6345459.965 8  -6345459.968 7                  -4944512.269 8       172.000          71.000         145.000                  
G08  22683516.448    22683516.135    22683519.434                    -8227762.682 8  -8227762.686 8                  -6411246.236 8       249.000         148.000         472.000                  
G10  25997058.950    25997058.708    25997062.379                     4433707.641 7   4433707.642 6                   3454836.011 6        88.000          32.000          21.000                  
G13  19640751.858    19640751.430    19640751.675                   -22725210.083 9 -22725210.083 8                 -17707956.960 9       878.000         459.000         565.000                  
G14  23764672.290    23764671.965    23764673.557                    -5503444.097 8  -5503444.093 7                  -4288400.911 7       225.000          75.000          71.000                  
G15  20062208.628    20062208.302    20062208.788                   -20541839.211 9 -20541839.211 9                 -16006627.357 9       816.000        1503.000        1167.000                  
G18  21431367.285    21431366.892    21431367.648                   -16101938.610 8 -16101938.608 8                 -12546963.852 8       457.000         271.000         371.000                  
G23  22030347.322    22030347.429    22030348.007                   -14973903.600 8 -14973903.602 8                 -11667974.860 8       361.000         165.000         216.000                  
G27  22108500.525    22108500.117    22108502.924                   -12313583.753 8 -12313583.753 8                  -9595001.432 9       311.000         266.000         648.000                  
G30  21722883.660    21722882.864    21722886.625                   -12906400.638 8 -12906400.638 8                 -10056935.883 9       426.000         441.000        1189.000                  
> 2024 11 01 00 09 30.0000000  0 11
G05  22351977.742    22351977.443    22351978.136                   -12024675.321 8 -12024675.320 8                  -9369877.885 8       342.000         280.000         380.000                  
G07  23694438.398    23694438.560    23694439.369                    -6642532.066 8  -6642532.069 7                  -5175996.929 8       173.000          72.000         143.000                  
G08  22642720.108    22642719.420    22642722.810                    -8442148.571 8  -8442148.571 8                  -6578299.956 8       247.000         150.000         462.000                  
G10  26034100.537    26034101.142    26034105.396                     4628367.064 7   4628367.060 6                   3606518.983 6        83.000          28.000          22.000                  
G13  19634870.485    19634870.001    19634870.242                   -22756114.421 9 -22756114.421 8                 -17732037.795 9       892.000         474.000         571.000                  
G14  23698184.213    23698184.049    23698185.378                    -5852838.477 8  -5852838.464 7                  -4560655.913 7       235.000          74.000          73.000                  
G15  20096063.636    20096063.270    20096063.786                   -20363930.988 9 -20363930.990 9                 -15867997.718 9       818.000        1495.000        1183.000                  
G18  21490778.944    21490778.647    21490779.367                   -15789728.906 8 -15789728.902 8                 -12303683.782 8       447.000         258.000         362.000                  
G23  22075449.080    22075448.785    22075449.448                   -14736892.597 8 -14736892.596 8                 -11483290.747 8       358.000         172.000         210.000                  
G27  22113568.006    22113567.400    22113570.169                   -12286955.176 8 -12286955.179 8                  -9574251.959 9       308.000         257.000         637.000                  
G30  21668325.621    21668324.937    21668328.658                   -13193104.945 8 -13193104.944 8                 -10280341.841 9       424.000         430.000        1232.000                  
> 2024 11 01 00 09 40.0000000  0 11
G05  22352977.292    22352977.153    22352977.556                   -12019421.289 8 -12019421.289 8                  -9365783.609 8       343.000         282.000         359.000                  
G07  23638219.946    23638218.889    23638219.852                    -6937966.045 8  -6937966.046 7                  -5406205.252 8       183.000          79.000         159.000                  
G08  22602619.931    22602619.079    22602622.965                    -8652875.837 8  -8652875.836 8                  -6742503.084 8       244.000         145.000         449.000                  
G10  26071327.194    26071326.793    26071330.950                     4823990.496 7   4823990.519 6                   3758953.591 6        80.000          26.000          23.000                  
G13  19629644.816    19629644.440    19629644.454                   -22783573.862 9 -22783573.861 9                 -17753434.276 9       920.000         501.000         582.000                  
G14  23631900.968    23631901.066    23631902.228                    -6201158.804 8  -6201158.793 7                  -4832074.321 7       241.000          83.000          91.000                  
G15  20130470.709    20130470.368    20130470.930                   -20183119.995 9 -20183119.996 9                 -15727105.995 9       787.000        1389.000        1190.000                  
G18  21550832.439    21550832.143    21550832.968                   -15474145.566 8 -15474145.562 8                 -12057774.668 8       437.000         237.000         376.000                  
G23  22121060.876    22121060.385    22121061.379                   -14497200.848 8 -14497200.852 8                 -11296517.760 8       351.000         160.000         206.000                  
G27  22119517.810    22119517.518    22119519.970                   -12255686.625 8 -12255686.623 8                  -9549886.407 9       311.000         266.000         625.000                  
G30  21614249.305    21614248.427    21614252.331                   -13477278.660 8 -13477278.660 8                 -10501776.051 9       421.000         425.000        1211.000                  
> 2024 11 01 00 09 50.0000000  0 11
G05  22354428.409    22354428.317    22354428.727                   -12011795.207 8 -12011795.203 8                  -9359841.177 8       337.000         282.000         358.000                  
G07  23582314.863    23582314.346    23582315.375                    -7231747.749 8  -7231747.749 7                  -5635126.179 8       195.000          90.000         165.000                  
G08  22563221.162    22563220.579    22563223.936                    -8859918.885 8  -8859918.885 8                  -6903835.503 8       249.000         154.000         445.000                  
G10  26108728.385    26108728.304    26108731.608                     5020541.651 7   5020541.630 6                   3912111.851 6        82.000          27.000          21.000                  
G13  19625071.712    19625071.318    19625071.427                   -22807605.142 9 -22807605.141 9                 -17772159.876 9       930.000         509.000         578.000                  
G14  23565828.400    23565827.946    23565829.946                    -6548372.625 8  -6548372.620 7                  -5102630.662 7       244.000          91.000         100.000                  
G15  20165420.198    20165419.939    20165420.582                   -19999457.823 9 -19999457.824 9                 -15583992.476 9       753.000        1283.000        1185.000                  
G18  21611510.959    21611510.630    21611511.618                   -15155276.295 8 -15155276.292 8                 -11809304.963 8       424.000         228.000         368.000                  
G23  22167171.844    22167171.479    22167172.210                   -14254884.196 8 -14254884.198 8                 -11107699.284 8       350.000         157.000         208.000                  
G27  22126345.156    22126344.652    22126347.278                   -12219808.596 8 -12219808.599 8                  -9521929.521 9       308.000         263.000         603.000                  
G30  21560658.906    21560658.250    21560662.145                   -13758897.308 8 -13758897.309 8                 -10721219.268 9       416.000         411.000        1145.000                  
> 2024 11 01 00 10  0.0000000  0 11
G05  22356332.550    22356332.412    22356332.730                   -12001789.755 8 -12001789.754 8                  -9352044.816 8       335.000         274.000         360.000                  
G07  23526734.832    23526734.286    23526734.946                    -7523825.180 8  -7523825.182 7                  -5862719.129 8       208.000          96.000         175.000                  
G08  22524535.220    22524534.639    22524538.176                    -9063214.987 8  -9063214.989 8                  -7062248.266 8       250.000         145.000         457.000                  
G10  26146306.529    26146306.751    26146310.111                     5218018.768 7   5218018.754 6                   4065990.645 6        81.000          21.000          18.000                  
G13  19621155.403    19621154.879    19621154.990                   -22828186.627 9 -22828186.627 9                 -17788197.583 9       930.000         504.000         592.000                  
G14  23499979.570    23499979.850    23499981.466                    -6894408.962 8  -6894408.955 7                  -5372269.313 7       252.000          90.000         100.000                  
G15  20200909.972    20200909.570    20200910.251                   -19812958.923 9 -19812958.923 9                 -15438668.752 9       735.000        1214.000        1208.000                  
G18  21672805.582    21672805.218    21672806.104                   -14833171.354 8 -14833171.350 8                 -11558314.129 8       427.000         235.000         380.000                  
G23  22213778.442    22213778.344    22213778.923                   -14009960.994 8 -14009960.993 8                 -10916849.524 8       340.000         155.000         209.000                  
G27  22134051.538    22134051.017    22134053.695                   -12179312.164 8 -12179312.162 8                  -9490373.936 9       305.000         255.000         603.000                  
G30  21507566.731    21507565.923    21507569.861                   -14037898.866 8 -14037898.865 8                 -10938623.116 9       424.000         433.000        1142.000                  
> 2024 11 01 00 10 10.0000000  0 11
G05  22358685.165    22358684.933    22358685.474                   -11989426.130 8 -11989426.130 8                  -9342410.845 8       330.000         273.000         345.000                  
G07  23471483.140    23471482.730    23471483.565                    -7814174.635 8  -7814174.633 8                  -6088965.554 8       217.000         109.000         188.000                  
G08  22486568.964    22486568.241    22486571.981                    -9262730.847 8  -9262730.854 8                  -7217715.589 8       248.000         148.000         448.000                  
G10  26184056.304    26184056.277    26184059.331                     5416395.301 7   5416395.308 6                   4220569.807 6        75.000          25.000          21.000                  
G13  19617894.039    19617893.671    19617893.755                   -22845324.850 9 -22845324.850 9                 -17801551.976 9       942.000         532.000         585.000                  
G14  23434363.493    23434363.424    23434364.598                    -7239226.208 8  -7239226.204 7                  -5640958.233 8       257.000          85.000         101.000                  
G15  20236931.057    20236930.913    20236931.558                   -19623664.859 9 -19623664.860 9                 -15291166.747 9       709.000        1136.000        1144.000                  
G18  21734701.113    21734700.900    21734701.756                   -14507908.310 8 -14507908.308 8                 -11304862.389 8       433.000         237.000         360.000                  
G23  22260872.888    22260872.484    22260873.101                   -13762479.555 8 -13762479.552 8                 -10724006.805 8       333.000         146.000         206.000                  
G27  22142632.701    22142631.894    22142634.623                   -12134218.241 8 -12134218.241 8                  -9455235.751 9       297.000         249.000         562.000                  
G30  21454978.934    21454978.248    21454981.994                   -14314250.025 8 -14314250.026 8                 -11153961.792 9       435.000         465.000        1092.000                  
> 2024 11 01 00 10 20.0000000  0 11
G05  22361487.736    22361487.384    22361488.091                   -11974698.956 8 -11974698.956 8                  -9330935.217 8       335.000         270.000         355.000                  
G07  23416570.212    23416569.660    23416570.351                    -8102745.537 8  -8102745.536 8                  -6313826.126 8       219.000         116.000         188.000                  
G08  22449333.613    22449332.732    22449336.713                    -9458405.827 8  -9458405.830 8                  -7370190.001 8       253.000         152.000         470.000                  
G10  26221979.103    26221976.857    26221980.154                     5615671.798 7   5615671.795 6                   4375849.996 6        77.000          21.000          20.000                  
G13  19615291.613    19615291.097    19615291.273                   -22859001.806 9 -22859001.805 9                 -17812209.581 9       934.000         521.000         567.000                  
G14  23368992.606    23368992.173    23368993.525                    -7582754.095 8  -7582754.089 7                  -5908642.495 8       264.000          90.000         107.000                  
G15  20273481.512    20273481.238    20273481.827                   -19431591.579 9 -19431591.579 9                 -15141499.189 9       694.000        1091.000        1140.000                  
G18  21797187.814    21797187.568    21797188.610                   -14179538.307 8 -14179538.305 8                 -11048989.773 8       426.000         235.000         347.000                  
G23  22308449.885    22308449.917    22308451.036                   -13512460.119 8 -13512460.121 8                 -10529187.016 8       326.000         137.000         214.000                  
G27  22152089.368    22152088.898    22152091.601                   -12084523.579 8 -12084523.582 8                  -9416513.087 9       298.000         240.000         557.000                  
G30  21402907.031    21402906.365    21402909.937                   -14587889.548 8 -14587889.548 9                 -11367187.305 9       467.000         521.000        1087.000                  
> 2024 11 01 00 10 30.0000000  0 11
G05  22364735.900    22364735.857    22364736.381                   -11957629.526 8 -11957629.526 8                  -9317634.432 8       336.000         274.000         352.000                  
G07  23362000.370    23361999.934    23362000.549                    -8389513.638 8  -8389513.640 8                  -6537282.081 8       227.000         121.000         212.000                  
G08  22412835.563    22412834.621    22412838.393                    -9650205.841 8  -9650205.843 8                  -7519644.510 8       256.000         152.000         480.000                  
G10  26260064.108    26260064.169    26260067.710                     5815822.689 7   5815822.677 6                   4531811.818 6        76.000          22.000          19.000                  
G13  19613346.378    19613345.961    19613346.000                   -22869224.245 9 -22869224.246 8                 -17820175.145 9       919.000         500.000         560.000                  
G14  23303875.217    23303875.013    23303876.339                    -7924948.255 8  -7924948.248 8                  -6175287.341 8       276.000         105.000         111.000                  
G15  20310552.726    20310552.430    20310553.033                   -19236781.029 9 -19236781.029 9                 -14989698.759 9       701.000        1102.000        1115.000                  
G18  21860251.324    21860251.071    21860251.992                   -13848138.161 8 -13848138.160 8                 -10790756.012 8       413.000         218.000         341.000                  
G23  22356501.663    22356501.717    22356502.264                   -13259946.259 8 -13259946.258 8                 -10332422.652 8       317.000         124.000         220.000                  
G27  22162417.508    22162417.119    22162419.950                   -12030249.443 8 -12030249.444 8                  -9374221.762 9       297.000         240.000         553.000                  
G30  21351357.470    21351357.137    21351360.520                   -14858783.428 8 -14858783.428 9                 -11578273.358 9       498.000         596.000        1093.000                  
> 2024 11 01 00 10 40.0000000  0 11
G05  22368426.724    22368426.696    22368427.283                   -11938233.360 8 -11938233.359 8                  -9302520.459 8       337.000         285.000         360.000                  
G07  23307778.846    23307778.633    23307779.494                    -8674447.780 8  -8674447.780 8                  -6759308.745 8       234.000         124.000         225.000                  
G08  22377081.227    22377080.736    22377084.463                    -9838093.278 8  -9838093.282 8                  -7666050.244 8       269.000         173.000         489.000                  
G10  26298314.154    26298313.770    26298317.518                     6016825.774 7   6016825.766 6                   4688437.197 6        73.000          24.000          23.000                  
G13  19612057.828    19612057.359    19612057.515                   -22875994.921 9 -22875994.919 8                 -17825450.926 9       909.000         488.000         552.000                  
G14  23239021.467    23239021.002    23239022.347                    -8265759.222 8  -8265759.215 8                  -6440854.567 8       285.000         110.000         113.000                  
G15  20348137.920    20348137.819    20348138.318                   -19039269.370 9 -19039269.371 9                 -14835793.633 9       707.000        1123.000        1048.000                  
G18  21923877.818    21923877.448    21923878.498                   -13513779.072 8 -13513779.067 8                 -10530216.656 8       413.000         213.000         352.000                  
G23  22405019.892    22405019.591    22405020.897                   -13004981.111 8 -13004981.112 8                 -10133748.530 8       306.000         129.000         212.000                  
G27  22173614.039    22173613.188    22173616.232                   -11971414.913 8 -11971414.916 8                  -9328377.127 9       301.000         248.000         558.000                  
G30  21300338.328    21300337.907    21300341.268                   -15126891.508 9 -15126891.509 9                 -11787188.678 9       525.000         646.000        1080.000                  
> 2024 11 01 00 10 50.0000000  0 11
G05  22372561.414    22372561.356    22372561.905                   -11916506.115 8 -11916506.114 8                  -9285590.184 8       339.000         273.000         362.000                  
G07  23253916.757    23253916.237    23253917.103                    -8957497.621 8  -8957497.624 8                  -6979867.291 8       244.000         143.000         250.000                  
G08  22342083.231    22342082.681    22342086.416                   -10022009.792 8 -10022009.797 8                  -7809361.793 9       274.000         192.000         501.000                  
G10  26336727.573    26336725.590    26336728.759                     6218682.028 7   6218682.015 6                   4845727.319 6        67.000          23.000          21.000                  
G13  19611429.446    19611429.024    19611429.405                   -22879296.644 9 -22879296.643 8                 -17828023.766 9       898.000         476.000         572.000                  
G14  23174444.072    23174443.884    23174445.046                    -8605115.465 8  -8605115.458 8                  -6705288.312 8       293.000         113.000         123.000                  
G15  20386234.421    20386234.065    20386234.447                   -18839071.675 9 -18839071.676 9                 -14679795.269 9       702.000        1118.000         988.000                  
G18  21988057.723    21988057.626    21988058.683                   -13176510.924 8 -13176510.921 8                 -10267410.353 8       399.000         206.000         323.000                  
G23  22454001.265    22454000.953    22454001.962                   -12747584.844 8 -12747584.841 8                  -9933180.360 8       304.000         124.000         210.000                  
G27  22185678.008    22185677.609    22185680.517                   -11908017.691 8 -11908017.694 8                  -9278976.961 9       304.000         246.000         566.000                  
G30  21249860.866    21249860.194    21249863.638                   -15392152.843 9 -15392152.843 9                 -11993885.696 9       546.000         721.000        1090.000                  
> 2024 11 01 00 11  0.0000000  0 11
G05  22377135.801    22377135.312    22377135.878                   -11892469.068 8 -11892469.069 8                  -9266859.974 8       340.000         286.000         361.000                  
G07  23200418.149    23200417.029    23200418.121                    -9238638.245 8  -9238638.244 8                  -7198938.198 8       247.000         146.000         274.000                  
G08  22307846.770    22307846.238    22307849.759                   -10201923.639 8 -10201923.645 8                  -7949554.237 8       278.000         180.000         484.000                  
G10  26375295.235    26375294.722    26375300.404                     6421365.545 7   6421365.557 6                   5003662.355 6        66.000          26.000          19.000                  
G13  19611459.687    19611459.212    19611459.426                   -22879138.092 9 -22879138.092 8                 -17827900.138 9       883.000         462.000         585.000                  
G14  23110152.444    23110152.143    23110153.485                    -8942971.553 8  -8942971.554 8                  -6968553.057 8       300.000         122.000         138.000                  
G15  20424833.446    20424833.313    20424833.570                   -18636230.800 9 -18636230.801 9                 -14521737.333 9       697.000        1099.000         921.000                  
G18  22052776.810    22052776.684    22052777.629                   -12836410.533 8 -12836410.529 8                 -10002397.097 8       393.000         202.000         304.000                  
G23  22503436.270    22503435.646    22503436.659                   -12487802.585 8 -12487802.588 8                  -9730752.535 8       300.000         117.000         197.000                  
G27  22198605.615    22198605.002    22198608.103                   -11840083.972 8 -11840083.972 8                  -9226041.772 9       302.000         250.000         574.000                  
G30  21199931.458    21199930.824    21199934.148                   -15654533.151 9 -15654533.151 9                 -12198337.756 9       571.000         786.000        1131.000                  
> 2024 11 01 00 11 10.0000000  0 11
G05  22382146.168    22382145.804    22382146.286                   -11866139.599 8 -11866139.598 8                  -9246343.538 8       342.000         284.000         368.000                  
G07  23147287.646    23147286.909    23147288.176                    -9517839.746 8  -9517839.752 8                  -7416498.139 8       251.000         147.000         302.000                  
G08  22274378.513    22274377.966    22274381.555                   -10377799.553 8 -10377799.559 8                  -8086600.392 8       285.000         193.000         488.000                  
G10  26414018.482    26414017.909    26414020.576                     6624854.597 7   6624854.620 6                   5162225.029 6        67.000          24.000          19.000                  
G13  19612147.234    19612146.822    19612147.156                   -22875524.430 9 -22875524.431 8                 -17825084.306 9       880.000         461.000         600.000                  
G14  23046155.617    23046155.230    23046157.027                    -9279277.011 8  -9279277.007 8                  -7230609.593 8       302.000         124.000         138.000                  
G15  20463928.741    20463928.525    20463928.883                   -18430784.474 9 -18430784.475 9                 -14361649.517 9       677.000        1053.000         856.000                  
G18  22118021.182    22118020.854    22118022.039                   -12493549.236 8 -12493549.232 8                  -9735232.525 8       395.000         205.000         297.000                  
G23  22553317.034    22553316.550    22553317.667                   -12225677.158 8 -12225677.162 8                  -9526499.032 8       301.000         114.000         186.000                  
G27  22212392.180    22212391.545    22212394.675                   -11767635.757 8 -11767635.756 8                  -9169588.713 9       295.000         239.000         587.000                  
G30  21150557.920    21150557.109    21150560.432                   -15913993.027 9 -15913993.026 9                 -12400514.141 9       599.000         853.000        1190.000                  
> 2024 11 01 00 11 20.0000000  0 12
G05  22387595.227    22387594.638    22387595.269                   -11837505.542 8 -11837505.541 8                  -9224031.305 8       346.000         288.000         379.000                  
G07  23094537.814    23094537.104    23094538.297                    -9795042.183 8  -9795042.183 8                  -7632499.892 8       249.000         147.000         322.000                  
G08  22241691.065    22241690.636    22241694.103                   -10549573.050 8 -10549573.053 8                  -8220449.853 8       287.000         205.000         484.000                  
G10  26452897.779    26452895.400    26452901.165                     6829156.348 7   6829156.361 6                   5321420.895 6        65.000          25.000          19.000                  
G13  19613497.030    19613496.604    19613496.906                   -22868431.652 9 -22868431.652 8                 -17819557.510 9       891.000         464.000         620.000                  
G14  22982469.595    22982469.242    22982471.199                    -9613951.789 8  -9613951.786 8                  -7491395.592 8       304.000         129.000         146.000                  
G15  20503518.423    20503518.121    20503518.407                   -18222739.560 9 -18222739.560 9                 -14199536.551 9       665.000         993.000         802.000                  
G18  22183783.208    22183783.032    22183783.784                   -12147968.979 8 -12147968.975 8                  -9465949.314 8       392.000         197.000         266.000                  
G22  24695311.899    24695307.382    24695321.564                     -530925.963 8   -530925.967 6                   -413710.077 6       111.000          26.000          20.000                  
G23  22603641.417    22603640.702    22603642.097                   -11961220.689 8 -11961220.692 8                  -9320429.040 8       298.000         116.000         177.000                  
G27  22227038.623    22227038.073    22227041.046                   -11690666.180 8 -11690666.183 8                  -9109611.991 9       297.000         237.000         614.000                  
G30  21101752.919    21101752.225    21101755.528                   -16170463.960 9 -16170463.958 9                 -12600361.442 9       601.000         877.000        1212.000                  
> 2024 11 01 00 11 30.0000000  0 12
G05  22393473.989    22393473.674    22393474.309                   -11806610.806 8 -11806610.805 8                  -9199957.500 8       355.000         310.000         377.000                  
G07  23042168.781    23042168.266    23042169.356                   -10070243.464 8 -10070243.466 8                  -7846942.554 8       249.000         145.000         347.000                  
G08  22209786.495    22209785.615    22209788.898                   -10717236.539 8 -10717236.540 8                  -8351096.892 8       287.000         190.000         470.000                  
G10  26491920.441    26491919.100    26491923.356                     7034223.645 7   7034223.659 6                   5481212.852 6        64.000          23.000          25.000                  
G13  19615502.665    19615502.275    19615502.455                   -22857891.380 9 -22857891.382 8                 -17811344.164 9       899.000         479.000         619.000                  
G14  22919098.885    22919098.239    22919100.417                    -9946970.190 8  -9946970.186 8                  -7750890.704 8       310.000         136.000         155.000                  
G15  20543590.274    20543590.089    20543590.241                   -18012160.599 9 -18012160.600 9                 -14035449.077 9       667.000        1003.000         752.000                  
G18  22250043.808    22250043.855    22250044.562                   -11799766.878 8 -11799766.875 8                  -9194623.065 8       394.000         202.000         264.000                  
G22  24637782.580    24637778.251    24637781.685                     -833251.536 8   -833251.537 6                   -649287.317 6       111.000          26.000          21.000                  
G23  22654396.384    22654395.999    22654396.908                   -11694501.838 8 -11694501.837 8                  -9112596.318 8       299.000         113.000         153.000                  
G27  22242535.524    22242535.196    22242538.368                   -11609227.849 8 -11609227.849 8                  -9046153.658 9       291.000         233.000         652.000                  
G30  21053518.951    21053518.477    21053521.772                   -16423933.159 9 -16423933.159 9                 -12797869.694 9       611.000         893.000        1273.000                  
> 2024 11 01 00 11 40.0000000  0 12
G05  22399786.618    22399786.352    22399786.885                   -11773438.746 8 -11773438.746 8                  -9174109.259 8       359.000         318.000         388.000                  
G07  22990192.568    22990192.413    22990193.317                   -10343378.222 8 -10343378.224 8                  -8059774.743 8       246.000         132.000         370.000                  
G08  22178675.861    22178675.278    22178678.716                   -10880720.917 8 -10880720.917 8                  -8478487.224 8       290.000         203.000         454.000                  
G10  26531092.944    26531090.665    26531094.798                     7240070.493 7   7240070.488 6                   5641612.840 6        64.000          20.000          21.000                  
G13  19618169.685    19618169.309    19618169.475                   -22843875.961 9 -22843875.962 8                 -17800423.053 9       910.000         486.000         630.000                  
G14  22856058.994    22856058.930    22856060.702                   -10278245.796 8 -10278245.786 8                  -8009027.594 8       318.000         135.000         161.000                  
G15  20584143.926    20584143.621    20584143.787                   -17799050.113 9 -17799050.113 9                 -13869388.913 9       680.000        1044.000         734.000                  
G18  22316796.816    22316796.431    22316797.105                   -11448978.984 8 -11448978.981 8                  -8921281.914 8       383.000         184.000         247.000                  
G22  24580365.005    24580362.495    24580366.186                    -1134981.217 8  -1134981.211 6                   -884402.034 6       117.000          22.000          21.000                  
G23  22705580.911    22705580.760    22705581.391                   -11425527.661 8 -11425527.663 8                  -8903006.302 8       299.000         111.000         141.000                  
G27  22258885.701    22258884.749    22258887.946                   -11523309.961 8 -11523309.963 8                  -8979204.626 9       286.000         222.000         669.000                  
G30  21005870.707    21005869.884    21005873.234                   -16674326.941 9 -16674326.941 9                 -12992981.504 9       620.000         918.000        1330.000                  
> 2024 11 01 00 11 50.0000000  0 12
G05  22406524.657    22406524.019    22406524.647                   -11738032.730 8 -11738032.729 8                  -9146520.379 8       364.000         324.000         393.000                  
G07  22938610.794    22938610.020    22938611.561                   -10614442.775 8 -10614442.775 8                  -8270993.903 8       240.000         133.000         387.000                  
G08  22148362.410    22148361.821    22148365.266                   -11040019.797 8 -11040019.801 8                  -8602616.291 8       294.000         201.000         452.000                  
G10  26570402.570    26570401.418    26570407.757                     7446649.490 7   7446649.495 6                   5802583.393 6        66.000          22.000          20.000                  
G13  19621492.031    19621491.634    19621491.728                   -22826417.626 9 -22826417.627 9                 -17786819.234 9       934.000         522.000         644.000                  
G14  22793355.986    22793355.697    22793357.669                   -10607752.453 8 -10607752.450 8                  -8265786.038 8       321.000         146.000         176.000                  
G15  20625167.347    20625166.922    20625167.126                   -17583471.659 9 -17583471.659 9                 -13701405.820 9       678.000        1038.000         712.000                  
G18  22384023.095    22384022.881    22384023.987                   -11095701.096 8 -11095701.095 8                  -8646000.419 8       369.000         178.000         237.000                  
G22  24523064.351    24523062.739    24523065.140                    -1436098.630 8  -1436098.645 6                  -1119039.496 6       115.000          26.000          25.000                  
G23  22757181.570    22757181.180    22757182.109                   -11154365.137 8 -11154365.137 8                  -8691710.947 8       293.000         109.000         129.000                  
G27  22276077.199    22276077.048    22276079.929                   -11432964.454 8 -11432964.454 8                  -8908805.431 9       279.000         218.000         675.000                  
G30  20958809.991    20958809.156    20958812.516                   -16921632.216 9 -16921632.217 9                 -13185686.838 9       632.000         956.000        1379.000                  
> 2024 11 01 00 12  0.0000000  0 12
G05  22413689.700    22413689.333    22413690.150                   -11700380.857 8 -11700380.857 8                  -9117181.750 8       371.000         338.000         388.000                  
G07  22887434.082    22887433.839    22887435.369                   -10883377.163 8 -10883377.166 8                  -8480553.473 8       242.000         137.000         400.000                  
G08  22118857.345    22118856.862    22118860.182                   -11195070.368 8 -11195070.370 8                  -8723434.949 8       293.000         204.000         435.000                  
G10  26609855.214    26609853.639    26609857.993                     7653969.081 7   7653969.068 6                   5964130.753 6        66.000          21.000          20.000                  
G13  19625473.903    19625473.614    19625473.588                   -22805492.945 9 -22805492.946 9                 -17770514.368 9       946.000         524.000         623.000                  
G14  22731005.111    22731005.194    22731006.808                   -10935407.444 8 -10935407.439 8                  -8521101.671 8       329.000         147.000         188.000                  
G15  20666658.947    20666658.487    20666658.740                   -17365431.843 9 -17365431.844 9                 -13531504.683 9       655.000         967.000         671.000                  
G18  22451715.908    22451715.585    22451716.704                   -10739973.093 8 -10739973.089 8                  -8368809.772 8       363.000         169.000         229.000                  
G22  24465893.979    24465892.721    24465894.631                    -1736531.561 8  -1736531.561 6                  -1353143.265 6       117.000          21.000          20.000                  
G23  22809195.551    22809195.754    22809196.272                   -10881025.709 8 -10881025.712 8                  -8478719.171 8       287.000         104.000         118.000                  
G27  22294112.642    22294112.173    22294115.373                   -11338188.393 8 -11338188.392 8                  -8834953.924 9       271.000         212.000         666.000                  
G30  20912350.253    20912349.473    20912352.917                   -17165779.844 9 -17165779.843 9                 -13375931.857 9       651.000        1011.000        1396.000                  
> 2024 11 01 00 12 10.0000000  0 12
G05  22421277.826    22421277.530    22421278.250                   -11660506.984 8 -11660506.984 8                  -9086111.751 8       373.000         340.000         389.000                  
G07  22836667.673    22836667.474    22836668.884                   -11150155.917 8 -11150155.912 8                  -8688432.871 8       240.000         132.000         414.000                  
G08  22090165.398    22090164.886    22090168.325                   -11345847.709 8 -11345847.713 8                  -8840923.970 8       295.000         213.000         434.000                  
G10  26649441.978    26649441.212    26649445.172                     7862003.264 7   7862003.272 6                   6126235.357 6        66.000          22.000          16.000                  
G13  19630112.982    19630112.629    19630112.777                   -22781116.432 9 -22781116.431 9                 -17751520.121 9       955.000         538.000         624.000                  
G14  22669015.894    22669015.781    22669017.670                   -11261163.903 8 -11261163.903 8                  -8774937.948 8       331.000         148.000         193.000                  
G15  20708610.041    20708610.076    20708610.498                   -17144974.305 9 -17144974.307 9                 -13359719.551 9       626.000         892.000         635.000                  
G18  22519860.619    22519860.141    22519861.397                   -10381870.644 8 -10381870.642 8                  -8089768.907 8       354.000         157.000         208.000                  
G22  24408861.778    24408859.280    24408862.298                    -2036244.569 8  -2036244.579 6                  -1586685.805 6       125.000          25.000          21.000                  
G23  22861615.927    22861615.505    22861616.264                   -10605557.246 8 -10605557.245 7                  -8264068.295 8       277.000          98.000         106.000                  
G27  22312984.806    22312984.074    22312987.192                   -11239016.064 8 -11239016.065 8                  -8757676.900 9       261.000         195.000         643.000                  
G30  20866497.658    20866496.962    20866500.394                   -17406736.531 9 -17406736.531 9                 -13563690.346 9       686.000        1119.000        1421.000                  
> 2024 11 01 00 12 20.0000000  0 12
G05  22429285.228    22429285.027    22429285.845                   -11618428.844 8 -11618428.844 8                  -9053324.011 8       373.000         343.000         381.000                  
G07  22786317.261    22786316.766    22786318.288                   -11414750.551 8 -11414750.550 8                  -8894610.659 8       240.000         133.000         434.000                  
G08  22062292.843    22062292.232    22062295.711                   -11492321.375 8 -11492321.379 8                  -8955059.655 8       297.000         208.000         438.000                  
G10  26689161.985    26689160.116    26689164.736                     8070730.481 7   8070730.496 6                   6288880.154 6        66.000          22.000          18.000                  
G13  19635407.335    19635406.930    19635407.141                   -22753294.650 9 -22753294.649 9                 -17729840.818 9       961.000         551.000         638.000                  
G14  22607397.996    22607397.525    22607399.454                   -11584968.047 8 -11584968.045 8                  -9027252.694 8       335.000         154.000         197.000                  
G15  20751014.797    20751014.501    20751015.033                   -16922136.572 9 -16922136.572 9                 -13186079.703 9       605.000         826.000         613.000                  
G18  22588443.883    22588443.607    22588444.501                   -10021463.018 8 -10021463.013 8                  -7808931.785 8       359.000         164.000         196.000                  
G22  24351971.599    24351970.651    24351972.431                    -2335196.010 8  -2335196.010 6                  -1819635.168 6       121.000          19.000          21.000                  
G23  22914432.684    22914432.239    22914432.908                   -10328002.080 8 -10328002.081 7                  -8047791.644 8       268.000          91.000         105.000                  
G27  22332687.755    22332687.169    22332690.273                   -11135475.980 8 -11135475.983 8                  -8676996.321 9       260.000         184.000         630.000                  
G30  20821259.647    20821259.064    20821262.415                   -17644463.787 9 -17644463.787 9                 -13748932.411 9       726.000        1252.000        1431.000                  
> 2024 11 01 00 12 30.0000000  0 12
G05  22437712.785    22437712.656    22437713.362                   -11574142.758 8 -11574142.758 8                  -9018815.600 8       374.000         334.000         384.000                  
G07  22736392.251    22736391.811    22736393.391                   -11677108.228 8 -11677108.230 8                  -9099045.275 8       240.000         134.000         438.000                  
G08  22035248.441    22035248.184    22035251.593                   -11634437.902 8 -11634437.908 8                  -9065799.501 8       296.000         209.000         462.000                  
G10  26729013.980    26729012.808    26729017.091                     8280150.822 7   8280150.810 6                   6452064.729 6        63.000          22.000          16.000                  
G13  19641359.829    19641359.314    19641359.744                   -22722015.760 9 -22722015.760 9                 -17705468.052 9       960.000         540.000         636.000                  
G14  22546165.816    22546165.500    22546167.584                   -11906744.848 8 -11906744.841 8                  -9277987.734 8       325.000         144.000         196.000                  
G15  20793869.338    20793869.200    20793869.712                   -16696934.275 9 -16696934.276 9                 -13010597.425 9       587.000         774.000         605.000                  
G18  22657457.204    22657456.812    22657457.445                    -9658797.188 8  -9658797.183 8                  -7526335.037 8       362.000         161.000         180.000                  
G22  24295240.149    24295239.968    24295241.125                    -2633320.258 8  -2633320.251 6                  -2051939.825 6       121.000          22.000          26.000                  
G23  22967643.754    22967643.401    22967643.713                   -10048379.454 8 -10048379.446 7                  -7829904.006 7       264.000          88.000          96.000                  
G27  22353220.387    22353219.782    22353222.910                   -11027576.347 8 -11027576.347 8                  -8592918.735 9       261.000         188.000         617.000                  
G30  20776648.047    20776647.259    20776650.436                   -17878900.990 9 -17878900.990 9                 -13931610.775 9       761.000        1380.000        1402.000                  
> 2024 11 01 00 12 40.0000000  0 12
G05  22446552.999    22446552.657    22446553.818                   -11527689.743 8 -11527689.743 8                  -8982619.056 8       367.000         333.000         403.000                  
G07  22686894.798    22686894.103    22686895.556                   -11937219.856 8 -11937219.856 8                  -9301729.583 8       247.000         135.000         438.000                  
G08  22009035.197    22009034.504    22009037.992                   -11772191.852 8 -11772191.855 8                  -9173140.436 8       293.000         207.000         463.000                  
G10  26768989.578    26768988.561    26768992.683                     8490221.972 7   8490221.961 6                   6615756.086 6        65.000          21.000          19.000                  
G13  19647964.624    19647964.000    19647964.480                   -22687308.875 9 -22687308.874 9                 -17678423.990 9       956.000         538.000         612.000                  
G14  22485325.691    22485325.304    22485327.271                   -12226462.573 8 -12226462.570 8                  -9527118.903 8       324.000         146.000         192.000                  
G15  20837162.928    20837162.778    20837163.422                   -16469426.036 9 -16469426.037 9                 -12833318.507 9       566.000         718.000         604.000                  
G18  22726882.544    22726882.546    22726883.092                    -9293962.790 8  -9293962.785 8                  -7242048.512 8       353.000         157.000         161.000                  
G22  24238670.633    24238670.383    24238672.331                    -2930595.297 8  -2930595.312 6                  -2283582.510 6       127.000          20.000          26.000                  
G23  23021235.482    23021234.970    23021235.783                    -9766751.707 8  -9766751.704 7                  -7610453.803 7       254.000          80.000          87.000                  
G27  22374573.074    22374572.098    22374575.320                   -10915369.001 8 -10915369.000 8                  -8505484.512 9       259.000         186.000         605.000                  
G30  20732665.378    20732664.741    20732667.907                   -18110031.066 9 -18110031.065 9                 -14111712.233 9       783.000        1456.000        1376.000                  
> 2024 11 01 00 12 50.0000000  0 12
G05  22455807.433    22455806.884    22455807.866                   -11479060.300 8 -11479060.301 8                  -8944726.201 8       362.000         314.000         411.000                  
G07  22637834.914    22637834.856    22637835.987                   -12195029.266 8 -12195029.267 8                  -9502619.960 8       253.000         143.000         448.000                  
G08  21983662.394    21983661.774    21983665.470                   -11905528.320 8 -11905528.324 8                  -9277039.470 8       295.000         213.000         481.000                  
G10  26809088.585    26809087.616    26809092.266                     8700950.731 7   8700950.734 6                   6779960.132 6        61.000          23.000          18.000                  
G13  19655224.964    19655224.376    19655225.011                   -22649158.096 9 -22649158.096 9                 -17648696.796 9       950.000         534.000         599.000                  
G14  22424893.085    22424893.078    22424894.951                   -12544039.080 8 -12544039.076 8                  -9774581.467 8       325.000         147.000         196.000                  
G15  20880893.130    20880893.042    20880893.733                   -16239621.980 9 -16239621.981 9                 -12654250.476 9       541.000         656.000         598.000                  
G18  22796712.955    22796712.850    22796713.891                    -8927001.712 8  -8927001.709 8                  -6956104.914 8       335.000         149.000         155.000                  
G22  24182276.649    24182275.524    24182278.102                    -3226952.599 8  -3226952.594 6                  -2514510.647 6       129.000          25.000          26.000                  
G23  23075205.996    23075205.743    23075206.846                    -9483134.349 8  -9483134.345 7                  -7389453.327 7       248.000          79.000          86.000                  
G27  22396743.666    22396743.051    22396746.410                   -10798859.117 8 -10798859.117 8                  -8414697.598 9       267.000         197.000         575.000                  
G30  20689324.530    20689323.865    20689327.133                   -18337789.319 9 -18337789.319 9                 -14289186.348 9       809.000        1565.000        1426.000                  
> 2024 11 01 00 13  0.0000000  0 12
G05  22465470.583    22465470.027    22465471.611                   -11428281.542 8 -11428281.541 8                  -8905159.044 8       362.000         316.000         409.000                  
G07  22589218.032    22589217.785    22589218.828                   -12450511.998 8 -12450511.999 8                  -9701696.945 8       254.000         146.000         445.000                  
G08  21959134.330    21959133.590    21959137.626                   -12034425.823 8 -12034425.828 8                  -9377479.518 9       299.000         219.000         506.000                  
G10  26849307.392    26849307.968    26849312.357                     8912309.879 7   8912309.860 6                   6944656.400 6        59.000          23.000          20.000                  
G13  19663137.541    19663137.126    19663137.807                   -22607578.392 9 -22607578.392 9                 -17616297.394 9       955.000         532.000         576.000                  
G14  22364877.293    22364876.875    22364879.024                   -12859425.995 8 -12859425.992 8                 -10020337.647 8       326.000         144.000         210.000                  
G15  20925052.291    20925052.000    20925052.811                   -16007567.086 9 -16007567.086 9                 -12473429.038 9       519.000         605.000         566.000                  
G18  22866933.955    22866934.064    22866934.835                    -8557987.979 8  -8557987.973 8                  -6668561.909 8       319.000         124.000         142.000                  
G22  24126064.960    24126062.949    24126065.540                    -3522353.114 8  -3522353.130 6                  -2744693.128 6       132.000          21.000          26.000                  
G23  23129546.403    23129545.854    23129546.849                    -9197574.976 8  -9197574.979 7                  -7166939.595 7       244.000          77.000          80.000                  
G27  22419726.608    22419725.854    22419728.964                   -10678086.075 8 -10678086.076 8                  -8320588.928 9       274.000         210.000         556.000                  
G30  20646631.371    20646630.633    20646634.040                   -18562143.958 9 -18562143.956 9                 -14464008.254 9       827.000        1630.000        1503.000                  
> 2024 11 01 00 13 10.0000000  0 12
G05  22475539.986    22475539.692    22475541.063                   -11375368.103 8 -11375368.102 8                  -8863928.231 8       361.000         315.000         414.000                  
G07  22541050.050    22541049.265    22541050.848                   -12703636.876 8 -12703636.878 8                  -9898937.087 8       256.000         152.000         450.000                  
G08  21935456.434    21935455.864    21935460.000                   -12158855.629 8 -12158855.635 8                  -9474438.336 9       307.000         221.000         521.000                  
G10  26889647.060    26889644.373    26889650.872                     9124280.756 7   9124280.764 6                   7109828.382 6        58.000          19.000          21.000                  
G13  19671701.511    19671701.025    19671702.064                   -22562579.917 9 -22562579.917 9                 -17581235.010 9       945.000         527.000         583.000                  
G14  22305288.220    22305288.177    22305289.854                   -13172563.340 8 -13172563.339 8                 -10264339.529 8       325.000         144.000         225.000                  
G15  20969633.270    20969633.097    20969634.151                   -15773295.423 8 -15773295.424 9                 -12290880.636 9       498.000         549.000         568.000                  
G18  22937533.644    22937533.490    22937534.103                    -8186985.925 8  -8186985.922 8                  -6379469.508 8       298.000         116.000         134.000                  
G22  24070042.679    24070041.288    24070042.196                    -3816748.675 8  -3816748.657 6                  -2974091.909 6       134.000          21.000          30.000                  
G23  23184248.523    23184248.539    23184249.250                    -8910112.080 8  -8910112.073 7                  -6942942.546 7       237.000          77.000          86.000                  
G27  22443514.252    22443513.917    22443516.942                   -10553080.087 8 -10553080.087 8                  -8223181.804 9       278.000         208.000         554.000                  
G30  20604593.547    20604592.837    20604596.179                   -18783054.186 9 -18783054.187 9                 -14636146.056 9       835.000        1660.000        1601.000                  
> 2024 11 01 00 13 20.0000000  0 12
G05  22486014.675    22486014.201    22486015.454                   -11320322.664 8 -11320322.663 8                  -8821035.407 8       360.000         314.000         410.000                  
G07  22493339.623    22493339.115    22493340.316                   -12954357.987 8 -12954357.989 8                 -10094304.413 8       260.000         156.000         440.000                  
G08  21912636.324    21912636.039    21912639.926                   -12278775.824 8 -12278775.825 8                  -9567882.773 9       313.000         239.000         522.000                  
G10  26930098.791    26930096.792    26930101.217                     9336858.161 7   9336858.179 6                   7275472.761 6        60.000          17.000          17.000                  
G13  19680916.684    19680916.117    19680917.149                   -22514152.387 9 -22514152.386 9                 -17543498.845 9       922.000         508.000         590.000                  
G14  22246140.372    22246140.302    22246142.272                   -13483384.902 8 -13483384.898 8                 -10506537.780 8       326.000         148.000         225.000                  
G15  21014632.394    21014632.155    21014633.799                   -15536828.378 8 -15536828.379 9                 -12106621.794 9       477.000         512.000         584.000                  
G18  23008502.390    23008501.871    23008502.972                    -7814048.500 8  -7814048.498 8                  -6088869.799 8       287.000         113.000         135.000                  
G22  24014222.334    24014221.665    24014223.641                    -4110078.287 8  -4110078.307 6                  -3202659.068 6       136.000          29.000          31.000                  
G23  23239308.470    23239307.956    23239308.787                    -8620771.335 8  -8620771.336 7                  -6717482.220 7       234.000          71.000          76.000                  
G27  22468104.060    22468103.630    22468106.779                   -10423859.951 8 -10423859.952 8                  -8122490.927 9       277.000         218.000         544.000                  
G30  20563221.234    20563220.507    20563223.957                   -19000467.821 9 -19000467.821 9                 -14805559.541 9       829.000        1641.000        1694.000                  
> 2024 11 01 00 13 30.0000000  0 12
G05  22496889.396    22496889.131    22496890.311                   -11263172.070 8 -11263172.073 8                  -8776501.934 8       356.000         309.000         408.000                  
G07  22446091.449    22446090.576    22446091.677                   -13202651.517 8 -13202651.516 8                 -10287780.037 8       263.000         159.000         452.000                  
G08  21890677.911    21890677.260    21890681.620                   -12394170.476 8 -12394170.481 8                  -9657801.212 9       320.000         242.000         530.000                  
G10  26970657.873    26970659.215    26970665.008                     9550014.991 7   9550014.975 6                   7441568.778 6        54.000          19.000          21.000                  
G13  19690780.053    19690779.738    19690780.690                   -22462317.519 9 -22462317.518 9                 -17503107.623 9       929.000         516.000         590.000                  
G14  22187443.263    22187442.801    22187444.653                   -13791840.659 8 -13791840.658 8                 -10746892.689 8       333.000         149.000         225.000                  
G15  21060040.685    21060040.481    21060042.163                   -15298207.633 8 -15298207.634 8                 -11920683.891 9       466.000         497.000         595.000                  
G18  23079824.520    23079824.510    23079825.687                    -7439246.002 8  -7439246.001 7                  -5796816.046 8       273.000         100.000         127.000                  
G22  23958612.920    23958612.021    23958612.938                    -4402308.251 8  -4402308.232 6                  -3430370.757 6       144.000          23.000          33.000                  
G23  23294716.363    23294715.778    23294717.234                    -8329600.900 8  -8329600.899 7                  -6490596.228 7       227.000          66.000          75.000                  
G27  22493488.267    22493487.467    22493490.872                   -10290468.281 8 -10290468.281 8                  -8018549.868 9       277.000         207.000         546.000                  
G30  20522520.210    20522519.565    20522523.135                   -19214354.098 9 -19214354.098 9                 -14972224.553 9       818.000        1584.000        1776.000                  
> 2024 11 01 00 13 40.0000000  0 12
G05  22508163.207    22508163.124    22508164.130                   -11203927.808 8 -11203927.809 8                  -8730337.549 8       349.000         292.000         409.000                  
G07  22399311.785    22399311.310    22399312.344                   -13448478.160 8 -13448478.161 8                 -10479333.266 8       261.000         161.000         461.000                  
G08  21869586.745    21869586.565    21869590.583                   -12505005.181 8 -12505005.185 8                  -9744166.036 9       325.000         256.000         507.000                  
G10  27011334.004    27011329.991    27011334.890                     9763739.153 7   9763739.136 6                   7608106.542 6        55.000          24.000          20.000                  
G13  19701291.536    19701291.046    19701291.745                   -22407077.433 9 -22407077.434 9                 -17460062.799 9       926.000         507.000         584.000                  
G14  22129208.396    22129208.252    22129209.797                   -14097865.516 8 -14097865.516 8                 -10985353.416 8       351.000         165.000         216.000                  
G15  21105853.241    21105852.935    21105854.728                   -15057462.389 8 -15057462.389 8                 -11733090.460 9       461.000         481.000         588.000                  
G18  23151491.243    23151490.821    23151492.114                    -7062636.505 8  -7062636.498 7                  -5503354.167 8       266.000          90.000         112.000                  
G22  23903223.348    23903222.426    23903224.900                    -4693380.581 8  -4693380.612 6                  -3657180.077 6       151.000          26.000          33.000                  
G23  23350466.163    23350465.840    23350467.008                    -8036632.430 8  -8036632.427 7                  -6262309.174 7       219.000          65.000          70.000                  
G27  22519661.171    22519660.789    22519664.193                   -10152931.972 8 -10152931.976 8                  -7911379.672 9       275.000         206.000         540.000                  
G30  20482499.528    20482498.852    20482502.787                   -19424667.588 9 -19424667.588 9                 -15136106.122 9       806.000        1557.000        1935.000                  
> 2024 11 01 00 13 50.0000000  0 12
G05  22519830.683    22519830.842    22519832.318                   -11142614.500 8 -11142614.500 8                  -8682561.399 8       340.000         282.000         401.000                  
G07  22353007.385    22353005.987    22353007.443                   -13691814.366 8 -13691814.368 8                 -10668946.290 8       258.000         147.000         462.000                  
G08  21849366.749    21849366.186    21849370.174                   -12611262.855 8 -12611262.858 8                  -9826963.972 9       333.000         264.000         506.000                  
G10  27052106.583    27052102.781    27052108.944                     9978005.722 7   9978005.711 6                   7775065.833 6        53.000          22.000          18.000                  
G13  19712448.011    19712447.706    19712448.796                   -22348453.089 9 -22348453.089 8                 -17414382.576 9       928.000         497.000         566.000                  
G14  22071445.961    22071445.652    22071447.420                   -14401409.166 8 -14401409.165 8                 -11221881.005 8       362.000         178.000         218.000                  
G15  21152061.935    21152061.628    21152063.111                   -14814633.555 8 -14814633.556 8                 -11543872.829 9       441.000         445.000         569.000                  
G18  23223488.229    23223488.134    23223488.956                    -6684291.198 8  -6684291.189 7                  -5208539.859 7       257.000          89.000          88.000                  
G22  23848061.505    23848060.650    23848062.695                    -4983255.539 8  -4983255.539 6                  -3883056.621 6       160.000          30.000          33.000                  
G23  23406549.931    23406549.538    23406550.692                    -7741911.748 8  -7741911.747 7                  -6032656.650 7       217.000          61.000          68.000                  
G27  22546614.825    22546614.375    22546617.955                   -10011290.581 8 -10011290.584 8                  -7801010.023 9       270.000         200.000         549.000                  
G30  20443164.703    20443164.013    20443168.055                   -19631374.301 9 -19631374.300 9                 -15297176.501 9       801.000        1526.000        2069.000                  
> 2024 11 01 00 14  0.0000000  0 12
G05  22531893.297    22531893.023    22531894.219                   -11079226.430 8 -11079226.427 8                  -8633167.745 8       338.000         277.000         405.000                  
G07  22307185.546    22307185.335    22307187.167                   -13932608.922 8 -13932608.924 8                 -10856579.791 8       256.000         150.000         476.000                  
G08  21830025.624    21830025.175    21830029.284                   -12712901.258 8 -12712901.265 8                  -9906163.131 8       334.000         268.000         481.000                  
G10  27092984.325    27092980.729    27092986.049                    10192815.443 7  10192815.412 6                   7942449.695 6        55.000          20.000          17.000                  
G13  19724250.752    19724250.331    19724251.344                   -22286428.251 9 -22286428.252 9                 -17366051.108 9       942.000         517.000         576.000                  
G14  22014170.469    22014170.341    22014171.996                   -14702391.538 8 -14702391.533 8                 -11456412.397 8       365.000         177.000         213.000                  
G15  21198664.627    21198663.989    21198665.501                   -14569737.830 8 -14569737.833 8                 -11353045.380 9       407.000         371.000         551.000                  
G18  23295807.610    23295807.254    23295808.916                    -6304253.506 8  -6304253.507 7                  -4912407.497 7       247.000          86.000          87.000                  
G22  23793141.568    23793140.559    23793142.573                    -5271862.598 8  -5271862.604 6                  -4107944.605 6       164.000          30.000          35.000                  
G23  23462963.576    23462962.980    23462964.500                    -7445457.941 8  -7445457.931 7                  -5801654.045 7       210.000          55.000          73.000                  
G27  22574346.706    22574346.144    22574349.892                    -9865560.519 8  -9865560.519 8                  -7687454.561 9       263.000         200.000         560.000                  
G30  20404527.036    20404526.305    20404530.286                   -19834415.477 9 -19834415.477 9                 -15455390.051 9       803.000        1556.000        2244.000                  
> 2024 11 01 00 14 10.0000000  0 12
G05  22544342.508    22544341.953    22544343.222                   -11013804.508 8 -11013804.510 8                  -8582189.198 8       331.000         268.000         407.000                  
G07  22261850.508    22261850.661    22261852.480                   -14170848.292 8 -14170848.292 8                 -11042221.544 8       255.000         153.000         483.000                  
G08  21811563.860    21811563.415    21811567.346                   -12809916.702 8 -12809916.708 8                  -9981759.045 8       339.000         279.000         459.000                  
G10  27133958.342    27133953.629    27133960.740                    10408125.442 7  10408125.463 6                   8110220.178 6        52.000          23.000          19.000                  
G13  19736693.561    19736693.051    19736693.708                   -22221037.947 9 -22221037.947 9                 -17315096.749 9       951.000         540.000         562.000                  
G14  21957389.454    21957389.101    21957390.605                   -15000776.805 8 -15000776.803 8                 -11688919.943 8       365.000         182.000         214.000                  
G15  21245649.277    21245649.352    21245650.856                   -14322830.333 8 -14322830.335 8                 -11160650.423 9       376.000         324.000         531.000                  
G18  23368433.221    23368432.289    23368434.421                    -5922606.000 8  -5922606.000 7                  -4615020.476 7       227.000          68.000          73.000                  
G22  23738466.838    23738466.003    23738467.414                    -5559176.417 8  -5559176.437 6                  -4331825.094 6       169.000          27.000          35.000                  
G23  23519695.183    23519695.076    23519696.494                    -7147330.860 8  -7147330.839 7                  -5569347.648 7       204.000          55.000          61.000                  
G27  22602845.373    22602844.900    22602848.586                    -9715798.671 8  -9715798.672 8                  -7570757.010 9       268.000         198.000         577.000                  
G30  20366589.648    20366588.854    20366592.741                   -20033775.399 9 -20033775.399 9                 -15610734.764 9       817.000        1612.000        2371.000                  
> 2024 11 01 00 14 20.0000000  0 11
G05  22557177.464    22557176.909    22557178.245                   -10946355.546 8 -10946355.548 8                  -8529631.508 8       325.000         256.000         400.000                  
G07  22217009.048    22217009.072    22217010.757                   -14406487.420 8 -14406487.424 8                 -11225835.391 8       255.000         151.000         498.000                  
G08  21793988.153    21793987.665    21793991.514                   -12902279.082 8 -12902279.087 8                 -10053729.922 8       345.000         279.000         455.000                  
G13  19749776.891    19749776.417    19749776.998                   -22152283.705 9 -22152283.705 9                 -17261521.757 9       953.000         537.000         566.000                  
G14  21901115.927    21901115.736    21901117.184                   -15296495.554 8 -15296495.552 8                 -11919350.057 8       374.000         186.000         217.000                  
G15  21293012.838    21293012.614    21293014.169                   -14073931.496 8 -14073931.497 8                 -10966702.663 9       361.000         289.000         532.000                  
G18  23441355.798    23441354.783    23441356.403                    -5539399.210 8  -5539399.207 7                  -4316418.305 7       213.000          62.000          71.000                  
G22  23684050.383    23684049.256    23684051.666                    -5845136.233 8  -5845136.230 6                  -4554650.687 6       175.000          32.000          33.000                  
G23  23576740.604    23576740.647    23576742.174                    -6847557.331 8  -6847557.338 6                  -5335758.444 7       195.000          48.000          55.000                  
G27  22632106.398    22632105.644    22632109.619                    -9562030.656 8  -9562030.656 8                  -7450937.616 9       260.000         186.000         596.000                  
G30  20329361.794    20329361.188    20329364.816                   -20229405.162 9 -20229405.162 9                 -15763172.802 9       829.000        1639.000        2448.000                  
> 2024 11 01 00 14 30.0000000  0 11
G05  22570395.282    22570395.090    22570396.461                   -10876892.403 8 -10876892.406 8                  -8475504.268 8       319.000         244.000         389.000                  
G07  22172669.299    22172668.712    22172670.471                   -14639496.058 8 -14639496.060 8                 -11407400.312 9       260.000         158.000         523.000                  
G08  21777302.687    21777301.932    21777306.155                   -12989962.941 8 -12989962.944 8                 -10122055.243 8       340.000         277.000         465.000                  
G13  19763498.963    19763498.481    19763499.119                   -22080172.519 9 -22080172.518 9                 -17205330.941 9       940.000         521.000         581.000                  
G14  21845362.104    21845361.765    21845362.951                   -15589484.598 8 -15589484.595 8                 -12147653.105 8       386.000         208.000         225.000                  
G15  21340749.054    21340748.615    21340749.980                   -13823073.659 8 -13823073.657 8                 -10771228.267 9       346.000         273.000         519.000                  
G18  23514563.052    23514562.794    23514564.480                    -5154690.823 8  -5154690.818 7                  -4016645.883 7       193.000          51.000          62.000                  
G22  23629901.547    23629900.440    23629902.452                    -6129688.701 8  -6129688.693 6                  -4776379.765 6       182.000          33.000          35.000                  
G23  23634093.882    23634093.448    23634094.152                    -6546170.588 8  -6546170.578 7                  -5100911.722 7       189.000          53.000          56.000                  
G27  22662123.286    22662122.973    22662126.926                    -9404291.979 8  -9404291.980 8                  -7328024.952 9       257.000         185.000         623.000                  
G30  20292852.028    20292851.235    20292854.767                   -20421264.121 9 -20421264.121 9                 -15912672.783 9       834.000        1672.000        2472.000                  
> 2024 11 01 00 14 40.0000000  0 11
G05  22583990.648    22583990.239    22583991.581                   -10805449.542 8 -10805449.544 8                  -8419834.477 8       317.000         241.000         374.000                  
G07  22128833.037    22128832.377    22128834.235                   -14869858.461 8 -14869858.462 8                 -11586903.901 9       263.000         160.000         530.000                  
G08  21761507.833    21761507.071    21761511.298                   -13072963.554 8 -13072963.558 8                 -10186730.653 8       335.000         270.000         467.000                  
G13  19777854.458    19777853.881    19777854.624                   -22004733.293 9 -22004733.293 9                 -17146547.109 9       945.000         537.000         577.000                  
G14  21790135.538    21790135.352    21790136.662                   -15879701.511 8 -15879701.508 8                 -12373796.151 8       397.000         214.000         251.000                  
G15  21388847.778    21388848.130    21388849.287                   -13570308.360 8 -13570308.358 8                 -10574268.002 9       324.000         241.000         505.000                  
G18  23588041.490    23588041.215    23588043.454                    -4768558.068 8  -4768558.068 6                  -3715763.391 7       179.000          46.000          57.000                  
G22  23576026.950    23576026.291    23576028.346                    -6412800.374 8  -6412800.378 6                  -4996986.164 6       182.000          29.000          40.000                  
G23  23691741.775    23691741.142    23691742.612                    -6243225.670 8  -6243225.666 6                  -4864850.718 6       188.000          48.000          40.000                  
G27  22692885.988    22692885.531    22692889.364                    -9242634.835 8  -9242634.838 8                  -7202058.533 9       258.000         178.000         612.000                  
G30  20257063.753    20257062.997    20257066.454                   -20609331.624 9 -20609331.625 9                 -16059218.628 9       843.000        1705.000        2511.000                  
> 2024 11 01 00 14 50.0000000  0 11
G05  22597964.849    22597964.538    22597965.787                   -10732015.582 8 -10732015.584 8                  -8362613.320 8       310.000         240.000         371.000                  
G07  22085512.776    22085512.190    22085514.321                   -15097515.520 8 -15097515.519 8                 -11764300.704 9       272.000         177.000         529.000                  
G08  21746613.285    21746612.586    21746616.546                   -13151235.304 8 -13151235.308 8                 -10247721.566 8       335.000         271.000         476.000                  
G13  19792846.760    19792846.323    19792846.837                   -21925948.985 9 -21925948.984 9                 -17085156.765 9       952.000         535.000         543.000                  
G14  21735453.632    21735453.377    21735454.588                   -16167057.863 8 -16167057.860 8                 -12597710.191 8       409.000         227.000         253.000                  
G15  21437309.937    21437309.546    21437310.879                   -13315639.990 8 -13315639.994 8                 -10375825.054 9       304.000         209.000         503.000                  
G18  23661785.481    23661784.882    23661787.309                    -4381032.363 8  -4381032.359 6                  -3413795.389 7       165.000          39.000          59.000                  
G22  23522441.745    23522440.972    23522443.210                    -6694391.917 8  -6694391.925 6                  -5216407.994 6       182.000          29.000          42.000                  
G23  23749684.896    23749684.145    23749685.954                    -5938731.788 8  -5938731.786 6                  -4627582.837 6       171.000          33.000          42.000                  
G27  22724392.124    22724391.755    22724395.534                    -9077069.355 8  -9077069.353 8                  -7073046.506 9       261.000         185.000         607.000                  
G30  20222009.571    20222008.882    20222012.240                   -20793541.329 9 -20793541.329 9                 -16202758.389 9       857.000        1740.000        2554.000                  
> 2024 11 01 00 15  0.0000000  0 11
G05  22612310.155    22612310.080    22612311.091                   -10656630.142 8 -10656630.138 8                  -8303871.399 8       316.000         244.000         379.000                  
G07  22042708.069    22042707.638    22042708.624                   -15322447.059 8 -15322447.060 8                 -11939569.421 9       286.000         182.000         543.000                  
G08  21732617.706    21732616.868    21732621.259                   -13224783.336 8 -13224783.342 8                 -10305032.019 9       330.000         268.000         509.000                  
G13  19808468.666    19808468.293    19808468.637                   -21843854.674 9 -21843854.674 8                 -17021187.101 9       917.000         494.000         530.000                  
G14  21681322.288    21681322.432    21681324.074                   -16451516.897 8 -16451516.896 8                 -12819366.562 8       417.000         237.000         274.000                  
G15  21486123.110    21486122.899    21486124.274                   -13059124.085 8 -13059124.085 8                 -10175942.388 9       299.000         201.000         517.000                  
G18  23735778.723    23735777.560    23735780.633                    -3992196.000 8  -3992195.998 6                  -3110805.945 6       159.000          35.000          44.000                  
G22  23469152.015    23469150.068    23469152.100                    -6974435.622 8  -6974435.633 6                  -5434623.878 6       187.000          34.000          39.000                  
G23  23807911.685    23807911.066    23807911.968                    -5632749.029 8  -5632749.012 6                  -4389154.877 6       163.000          38.000          33.000                  
G27  22756630.397    22756629.726    22756633.719                    -8907658.287 8  -8907658.288 8                  -6941038.221 9       264.000         189.000         602.000                  
G30  20187692.236    20187691.485    20187694.886                   -20973879.820 9 -20973879.819 9                 -16343281.770 9       869.000        1800.000        2569.000                  
> 2024 11 01 00 15 10.0000000  0 11
G05  22627025.889    22627025.521    22627026.592                   -10579299.806 8 -10579299.805 8                  -8243614.019 8       319.000         243.000         384.000                  
G07  22000428.411    22000427.844    22000429.032                   -15544621.894 8 -15544621.893 8                 -12112691.544 9       295.000         200.000         557.000                  
G08  21719526.484    21719525.586    21719529.957                   -13293577.883 8 -13293577.885 8                 -10358637.985 9       331.000         258.000         531.000                  
G13  19824720.054    19824719.681    19824720.385                   -21758452.459 9 -21758452.459 8                 -16954640.009 8       897.000         473.000         498.000                  
G14  21627756.731    21627756.552    21627757.851                   -16733007.485 8 -16733007.482 8                 -13038709.757 8       423.000         245.000         291.000                  
G15  21535284.176    21535283.827    21535284.935                   -12800783.189 8 -12800783.189 8                  -9974637.906 9       306.000         201.000         547.000                  
G18  23810012.664    23810011.408    23810014.169                    -3602097.964 8  -3602097.957 6                  -2806833.932 6       160.000          36.000          43.000                  
G22  23416167.339    23416166.160    23416167.077                    -7252868.595 8  -7252868.586 6                  -5651584.501 7       195.000          30.000          52.000                  
G23  23866417.127    23866415.395    23866418.290                    -5325303.633 8  -5325303.624 6                  -4149587.533 6       156.000          30.000          32.000                  
G27  22789594.556    22789594.063    22789598.124                    -8734428.778 8  -8734428.779 8                  -6806054.243 9       261.000         182.000         568.000                  
G30  20154120.669    20154119.976    20154123.277                   -21150299.406 9 -21150299.406 9                 -16480751.504 9       883.000        1851.000        2549.000                  
> 2024 11 01 00 15 20.0000000  0 11
G05  22642107.473    22642107.164    22642108.460                   -10500044.883 8 -10500044.884 8                  -8181857.031 8       319.000         245.000         380.000                  
G07  21958679.672    21958679.312    21958680.402                   -15764009.463 8 -15764009.465 8                 -12283642.289 9       308.000         222.000         556.000                  
G08  21707341.771    21707341.177    21707345.166                   -13357607.145 8 -13357607.151 8                 -10408530.723 9       333.000         272.000         567.000                  
G13  19841598.190    19841597.637    19841598.214                   -21669758.151 9 -21669758.151 8                 -16885527.628 8       886.000         462.000         464.000                  
G14  21574766.607    21574766.152    21574767.756                   -17011472.922 8 -17011472.919 8                 -13255695.730 8       433.000         254.000         313.000                  
G15  21584785.530    21584785.168    21584786.503                   -12540652.754 8 -12540652.755 8                  -9771939.061 9       307.000         208.000         555.000                  
G18  23884474.853    23884474.311    23884475.224                    -3210798.069 8  -3210798.052 6                  -2501925.166 6       161.000          32.000          38.000                  
G22  23363499.069    23363497.550    23363498.987                    -7529642.429 8  -7529642.429 6                  -5867252.265 6       203.000          31.000          47.000                  
G23  23925192.952    23925192.070    23925193.786                    -5016434.461 8  -5016434.450 6                  -3908910.639 6       148.000          32.000          30.000                  
G27  22823277.840    22823277.043    22823281.087                    -8557424.363 8  -8557424.363 8                  -6668128.749 9       252.000         172.000         545.000                  
G30  20121301.136    20121300.335    20121303.619                   -21322766.940 9 -21322766.939 9                 -16615141.634 9       896.000        1904.000        2497.000                  
> 2024 11 01 00 15 30.0000000  0 11
G05  22657552.249    22657551.988    22657553.348                   -10418882.093 8 -10418882.091 8                  -8118613.340 8       317.000         236.000         382.000                  
G07  21917468.028    21917467.808    21917468.579                   -15980577.352 8 -15980577.352 8                 -12452396.144 9       330.000         251.000         548.000                  
G08  21696067.180    21696066.275    21696070.593                   -13416856.069 8 -13416856.070 8                 -10454698.601 9       337.000         276.000         612.000                  
G13  19859100.336    19859099.841    19859100.334                   -21577784.803 9 -21577784.804 8                 -16813860.161 8       862.000         441.000         436.000                  
G14  21522363.634    21522363.228    21522364.740                   -17286852.820 8 -17286852.818 8                 -13470277.464 8       437.000         256.000         331.000                  
G15  21634620.953    21634620.896    21634622.267                   -12278764.726 8 -12278764.730 8                  -9567870.608 9       299.000         192.000         576.000                  
G18  23959154.093    23959153.970    23959156.260                    -2818353.844 8  -2818353.841 6                  -2196124.678 6       157.000          35.000          35.000                  
G22  23311156.449    23311154.921    23311156.209                    -7804704.935 8  -7804704.924 6                  -6081586.556 6       208.000          47.000          48.000                  
G23  23984232.832    23984232.057    23984233.868                    -4706177.718 8  -4706177.706 6                  -3667152.425 6       140.000          32.000          25.000                  
G27  22857670.847    22857670.780    22857674.598                    -8376685.375 8  -8376685.376 8                  -6527293.258 9       248.000         169.000         529.000                  
G30  20089240.254    20089239.667    20089242.918                   -21491247.294 9 -21491247.294 9                 -16746425.156 9       919.000        2008.000        2462.000                  
> 2024 11 01 00 15 40.0000000  0 11
G05  22673354.891    22673354.518    22673355.765                   -10335840.047 8 -10335840.048 8                  -8053905.203 8       310.000         241.000         380.000                  
G07  21876797.233    21876796.651    21876797.345                   -16194305.800 8 -16194305.804 8                 -12618937.792 9       346.000         276.000         561.000                  
G08  21685702.285    21685701.822    21685705.985                   -13471322.704 8 -13471322.706 8                 -10497140.231 9       335.000         267.000         625.000                  
G13  19877221.389    19877220.907    19877221.539                   -21482557.694 9 -21482557.693 8                 -16739657.325 8       858.000         440.000         419.000                  
G14  21470556.792    21470556.522    21470557.993                   -17559098.325 8 -17559098.323 8                 -13682416.806 8       422.000         236.000         316.000                  
G15  21684782.600    21684782.731    21684784.032                   -12015163.125 8 -12015163.128 8                  -9362467.004 9       288.000         186.000         570.000                  
G18  24034038.703    24034039.048    24034040.077                    -2424833.634 8  -2424833.630 6                  -1889485.646 6       152.000          34.000          31.000                  
G22  23259146.725    23259145.531    23259147.484                    -8078015.444 8  -8078015.445 6                  -6294555.741 7       212.000          44.000          58.000                  
G23  24043528.251    24043527.535    24043528.207                    -4394580.992 8  -4394580.970 6                  -3424350.084 6       132.000          30.000          18.000                  
G27  22892765.502    22892764.749    22892768.705                    -8192263.822 8  -8192263.823 8                  -6383588.097 9       238.000         160.000         513.000                  
G30  20057942.957    20057942.426    20057945.704                   -21655716.489 9 -21655716.489 9                 -16874583.163 9       945.000        2131.000        2434.000                  
> 2024 11 01 00 15 50.0000000  0 11
G05  22689515.570    22689514.890    22689516.230                   -10250916.022 8 -10250916.024 8                  -7987730.677 8       303.000         228.000         376.000                  
G07  21836676.100    21836675.671    21836676.491                   -16405142.662 8 -16405142.662 8                 -12783226.319 9       354.000         287.000         581.000                  
G08  21676254.429    21676253.659    21676257.511                   -13520972.839 8 -13520972.844 8                 -10535828.349 9       335.000         271.000         638.000                  
G13  19895963.056    19895962.504    19895963.020                   -21384069.942 9 -21384069.942 8                 -16662913.486 8       856.000         436.000         407.000                  
G14  21419362.278    21419361.548    21419363.258                   -17828128.718 8 -17828128.715 8                 -13892050.824 8       411.000         227.000         310.000                  
G15  21735268.532    21735268.513    21735269.817                   -11749859.405 8 -11749859.408 8                  -9155737.060 9       285.000         182.000         555.000                  
G18  24109120.886    24109120.753    24109122.154                    -2030274.168 8  -2030274.178 6                  -1582036.969 6       145.000          32.000          25.000                  
G22  23207485.782    23207484.056    23207484.779                    -8349500.495 8  -8349500.483 6                  -6506102.406 7       213.000          40.000          67.000                  
G23  24103074.895    24103075.279    24103075.108                    -4081660.346 8  -4081660.390 6                  -3180516.202 6       125.000          25.000          21.000                  
G27  22928556.485    22928555.987    22928559.978                    -8004182.636 8  -8004182.636 8                  -6237032.020 8       232.000         143.000         496.000                  
G30  20027419.572    20027418.905    20027422.205                   -21816119.338 9 -21816119.338 9                 -16999572.535 9       973.000        2264.000        2428.000                  
> 2024 11 01 00 16  0.0000000  0 11
G05  22706027.125    22706026.728    22706028.000                   -10164144.655 8 -10164144.656 8                  -7920116.618 8       299.000         221.000         371.000                  
G07  21797107.816    21797107.569    21797108.402                   -16613073.794 8 -16613073.794 8                 -12945250.309 9       360.000         295.000         591.000                  
G08  21667721.092    21667720.360    21667724.504                   -13565813.874 8 -13565813.879 8                 -10570769.338 9       330.000         264.000         641.000                  
G13  19915318.672    19915318.409    19915318.947                   -21282354.644 9 -21282354.641 8                 -16583654.921 8       855.000         427.000         393.000                  
G14  21368786.979    21368786.743    21368788.223                   -18093901.691 8 -18093901.686 8                 -14099146.603 8       423.000         238.000         304.000                  
G15  21786069.117    21786068.668    21786070.170                   -11482902.914 8 -11482902.912 8                  -8947719.087 9       285.000         185.000         549.000                  
G18  24184387.573    24184386.925    24184388.355                    -1634748.434 8  -1634748.439 6                  -1273835.346 6       125.000          31.000          26.000                  
G22  23156176.924    23156175.734    23156177.429                    -8619125.296 8  -8619125.301 6                  -6716199.581 7       216.000          40.000          70.000                  
G23  24162864.411    24162863.477    24162865.569                    -3767468.787 8  -3767468.796 6                  -2935691.979 6       119.000          24.000          21.000                  
G27  22965032.716    22965032.392    22965036.438                    -7812498.992 8  -7812498.988 8                  -6087668.295 8       225.000         138.000         490.000                  
G30  19997672.947    19997672.231    19997675.560                   -21972439.637 9 -21972439.636 9                 -17121380.680 9      1001.000        2392.000        2426.000                  
> 2024 11 01 00 16 10.0000000  0 11
G05  22722889.989    22722889.966    22722891.225                   -10075529.036 8 -10075529.037 8                  -7851065.506 8       301.000         214.000         363.000                  
G07  21758101.436    21758101.088    21758101.706                   -16818055.791 8 -16818055.795 8                 -13104976.804 9       373.000         322.000         587.000                  
G08  21660107.976    21660107.166    21660111.249                   -13605820.095 8 -13605820.097 8                 -10601942.651 9       331.000         267.000         645.000                  
G13  19935288.694    19935288.291    19935288.921                   -21177411.472 9 -21177411.472 8                 -16501881.003 8       834.000         417.000         390.000                  
G14  21318846.279    21318845.859    21318847.322                   -18356342.786 8 -18356342.784 8                 -14303646.144 8       429.000         248.000         291.000                  
G15  21837180.474    21837180.141    21837181.500                   -11214311.457 8 -11214311.460 8                  -8738427.240 9       290.000         186.000         562.000                  
G18  24259829.208    24259828.731    24259831.228                    -1238298.043 8  -1238298.026 6                   -964913.368 6       107.000          23.000          24.000                  
G22  23105235.490    23105235.428    23105236.546                    -8886822.302 8  -8886822.296 6                  -6924794.576 7       219.000          35.000          75.000                  
G23  24222891.909    24222891.386    24222891.881                    -3452027.616 8  -3452027.644 6                  -2689894.040 6       111.000          24.000          20.000                  
G27  23002189.291    23002188.316    23002192.565                    -7617241.543 8  -7617241.545 8                  -5935519.553 8       215.000         127.000         494.000                  
G30  19968712.161    19968711.552    19968714.800                   -22124629.526 9 -22124629.526 9                 -17239970.252 9      1018.000        2481.000        2413.000                  
> 2024 11 01 00 16 20.0000000  0 11
G05  22740095.782    22740095.424    22740096.591                    -9985113.352 8  -9985113.353 8                  -7780611.731 8       294.000         208.000         365.000                  
G07  21719656.782    21719656.609    21719657.241                   -17020083.629 8 -17020083.631 8                 -13262401.190 9       385.000         343.000         593.000                  
G08  21653411.368    21653410.682    21653414.682                   -13641010.511 8 -13641010.515 8                 -10629363.692 9       333.000         276.000         658.000                  
G13  19955864.775    19955864.285    19955865.075                   -21069282.804 9 -21069282.803 8                 -16417624.907 8       811.000         392.000         385.000                  
G14  21269545.556    21269545.105    21269546.759                   -18615418.784 8 -18615418.782 8                 -14505523.470 8       439.000         261.000         282.000                  
G15  21888591.564    21888591.356    21888592.904                   -10944142.820 8 -10944142.823 8                  -8527906.177 9       285.000         184.000         589.000                  
G18  24335432.710    24335432.079    24335434.319                     -841004.083 7   -841004.097 6                   -655334.027 6       100.000          23.000          22.000                  
G22  23054666.772    23054665.535    23054667.523                    -9152565.199 8  -9152565.162 6                  -7131866.847 7       223.000          37.000          82.000                  
G23  24283143.455    24283143.509    24283145.583                    -3135399.312 8  -3135399.320 6                  -2443171.157 6       109.000          24.000          19.000                  
G27  23040011.623    23040011.230    23040015.417                    -7418480.553 8  -7418480.555 8                  -5780640.651 8       209.000         123.000         493.000                  
G30  19940538.445    19940537.884    19940541.146                   -22272683.445 9 -22272683.444 9                 -17355337.035 9      1033.000        2540.000        2378.000                  
> 2024 11 01 00 16 30.0000000  0 11
G05  22757645.336    22757645.216    22757646.539                    -9892888.775 8  -9892888.773 8                  -7708748.406 8       286.000         195.000         352.000                  
G07  21681785.221    21681784.806    21681785.434                   -17219100.728 8 -17219100.727 8                 -13417479.322 9       401.000         360.000         595.000                  
G08  21647638.004    21647637.311    21647641.225                   -13671350.603 8 -13671350.608 8                 -10653005.355 9       337.000         276.000         653.000                  
G13  19977049.214    19977048.758    19977049.282                   -20957957.908 9 -20957957.908 8                 -16330878.176 8       841.000         429.000         376.000                  
G14  21220901.568    21220901.122    21220902.884                   -18871043.710 8 -18871043.707 8                 -14704711.639 8       457.000         281.000         290.000                  
G15  21940302.309    21940301.788    21940303.330                   -10672402.779 8 -10672402.779 8                  -8316160.714 9       286.000         185.000         596.000                  
G18  24411190.007    24411189.728    24411192.975                     -442894.764 7   -442894.751 6                   -345119.174 6        94.000          22.000          20.000                  
G22  23004484.118    23004483.426    23004485.097                    -9416274.482 8  -9416274.480 6                  -7337354.477 7       224.000          37.000          76.000                  
G23  24343621.817    24343620.493    24343621.599                    -2817592.649 8  -2817592.658 6                  -2195530.075 6       102.000          26.000          20.000                  
G27  23078498.468    23078497.380    23078501.552                    -7216233.720 8  -7216233.722 8                  -5623045.549 9       211.000         119.000         501.000                  
G30  19913162.897    19913162.319    19913165.575                   -22416542.730 9 -22416542.730 9                 -17467435.115 9      1028.000        2525.000        2345.000                  
> 2024 11 01 00 16 40.0000000  0 11
G05  22775531.558    22775531.739    22775532.963                    -9798894.834 8  -9798894.834 8                  -7635506.340 8       280.000         195.000         349.000                  
G07  21644487.708    21644487.237    21644487.912                   -17415099.353 8 -17415099.353 8                 -13570205.288 9       417.000         388.000         631.000                  
G08  21642784.368    21642783.926    21642787.990                   -13696855.691 8 -13696855.692 8                 -10672879.610 9       332.000         270.000         651.000                  
G13  19998834.852    19998834.373    19998834.781                   -20843474.735 9 -20843474.734 8                 -16241670.460 8       879.000         448.000         391.000                  
G14  21172921.666    21172921.394    21172922.847                   -19123179.978 8 -19123179.976 8                 -14901181.427 8       475.000         305.000         285.000                  
G15  21992301.654    21992301.397    21992302.737                   -10399144.487 8 -10399144.487 8                  -8103232.240 9       290.000         194.000         605.000                  
G18  24487089.468    24487088.768    24487092.091                      -44046.151 7    -44046.109 6                    -34328.421 6        83.000          21.000          21.000                  
G22  22954694.987    22954694.056    22954695.438                    -9677918.733 8  -9677918.743 6                  -7541233.027 7       228.000          42.000          87.000                  
G23  24404310.917    24404310.410    24404311.517                    -2498664.580 8  -2498664.559 6                  -1947015.054 6       102.000          21.000          19.000                  
G27  23117635.349    23117634.424    23117638.594                    -7010567.213 8  -7010567.213 8                  -5462785.934 8       209.000         122.000         492.000                  
G30  19886587.324    19886586.644    19886589.932                   -22556198.075 9 -22556198.075 9                 -17576257.318 9      1016.000        2481.000        2336.000                  
> 2024 11 01 00 16 50.0000000  0 11
G05  22793753.430    22793753.186    22793754.586                    -9703139.841 8  -9703139.840 8                  -7560892.063 8       279.000         190.000         349.000                  
G07  21607772.102    21607771.509    21607772.004                   -17608040.362 8 -17608040.362 8                 -13720548.542 9       436.000         433.000         639.000                  
G08  21638853.920    21638853.441    21638857.342                   -13717510.329 8 -13717510.332 8                 -10688974.138 9       331.000         267.000         632.000                  
G13  20021219.844    20021219.432    20021219.898                   -20725840.264 9 -20725840.264 8                 -16150007.230 8       876.000         449.000         396.000                  
G14  21125618.835    21125618.323    21125619.772                   -19371758.585 8 -19371758.581 8                 -15094879.013 8       497.000         332.000         266.000                  
G15  22044586.002    22044585.726    22044586.965                   -10124389.441 8 -10124389.440 8                  -7889137.430 9       306.000         215.000         611.000                  
G18  24563119.166    24563119.106    24563122.778                      355498.108 7    355498.106 6                    277004.554 6        74.000          22.000          21.000                  
G22  22905311.120    22905309.364    22905310.919                    -9937434.782 8  -9937434.763 6                  -7743453.250 7       232.000          46.000          89.000                  
G23  24465209.939    24465209.215    24465211.299                    -2178640.996 8  -2178640.984 6                  -1697646.652 6       102.000          24.000          21.000                  
G27  23157416.206    23157415.842    23157419.677                    -6801515.772 8  -6801515.772 8                  -5299888.741 8       208.000         126.000         474.000                  
G30  19860819.232    19860818.608    19860821.913                   -22691609.645 9 -22691609.644 9                 -17681772.744 9      1006.000        2414.000        2391.000                  
> 2024 11 01 00 17  0.0000000  0 11
G05  22812307.560    22812307.100    22812308.549                    -9605637.879 8  -9605637.880 8                  -7484916.500 8       273.000         177.000         350.000                  
G07  21571644.627    21571644.015    21571644.400                   -17797892.042 8 -17797892.042 8                 -13868484.878 9       454.000         466.000         648.000                  
G08  21635848.109    21635847.517    21635851.354                   -13733306.856 8 -13733306.863 8                 -10701282.952 9       329.000         262.000         628.000                  
G13  20044202.246    20044201.706    20044202.156                   -20605067.655 9 -20605067.654 8                 -16055898.624 8       862.000         441.000         396.000                  
G14  21079004.731    21079004.478    21079005.516                   -19616716.815 9 -19616716.813 8                 -15285755.501 8       530.000         379.000         259.000                  
G15  22097149.633    22097149.603    22097150.787                    -9848165.301 8  -9848165.300 8                  -7673897.888 9       319.000         231.000         603.000                  
G18  24639272.813    24639273.043    24639274.443                      755688.797 7    755688.813 6                    588841.364 6        75.000          19.000          20.000                  
G22  22856342.441    22856340.899    22856342.581                   -10194765.438 8 -10194765.416 6                  -7943970.552 7       231.000          47.000          95.000                  
G23  24526312.139    24526310.320    24526311.952                    -1857552.045 7  -1857552.032 6                  -1447447.651 6        99.000          24.000          21.000                  
G27  23197833.099    23197832.927    23197837.079                    -6589120.374 8  -6589120.377 8                  -5134385.562 8       209.000         122.000         468.000                  
G30  19835865.318    19835864.573    19835867.885                   -22822744.366 9 -22822744.365 9                 -17783955.746 9       997.000        2381.000        2415.000                  
> 2024 11 01 00 17 10.0000000  0 11
G05  22831187.481    22831187.048    22831188.423                    -9506424.119 8  -9506424.116 8                  -7407607.096 8       271.000         178.000         352.000                  
G07  21536107.165    21536106.756    21536106.970                   -17984642.404 8 -17984642.405 9                 -14014004.675 9       478.000         514.000         634.000                  
G08  21633763.306    21633762.889    21633766.803                   -13744259.819 8 -13744259.823 8                 -10709817.443 9       324.000         251.000         643.000                  
G13  20067774.812    20067774.485    20067774.707                   -20481191.547 9 -20481191.548 8                 -15959371.735 8       843.000         425.000         390.000                  
G14  21033087.714    21033087.461    21033088.370                   -19858013.248 9 -19858013.246 8                 -15473778.648 8       551.000         414.000         273.000                  
G15  22149983.754    22149983.644    22149985.091                    -9570520.103 8  -9570520.105 8                  -7457551.025 9       322.000         230.000         583.000                  
G18  24715536.171    24715537.007    24715539.265                     1156455.489 7   1156455.512 6                    901126.843 6        67.000          21.000          24.000                  
G22  22807796.472    22807795.039    22807796.719                   -10449874.372 8 -10449874.393 6                  -8142756.640 7       234.000          43.000          92.000                  
G23  24587605.630    24587604.391    24587605.319                    -1535450.602 7  -1535450.611 6                  -1196459.575 6        98.000          23.000          19.000                  
G27  23238874.962    23238874.404    23238878.621                    -6373444.386 8  -6373444.391 8                  -4966326.105 8       205.000         121.000         450.000                  
G30  19811727.302    19811726.677    19811729.971                   -22949589.884 9 -22949589.884 9                 -17882796.401 9       986.000        2335.000        2386.000                  
> 2024 11 01 00 17 20.0000000  0 11
G05  22850391.242    22850390.813    22850392.308                    -9405506.138 8  -9405506.139 8                  -7328969.721 8       263.000         173.000         345.000                  
G07  21501167.368    21501166.840    21501167.038                   -18168252.570 8 -18168252.572 9                 -14157077.484 9       495.000         561.000         644.000                  
G08  21632602.888    21632602.459    21632606.132                   -13750357.957 8 -13750357.959 8                 -10714569.080 9       330.000         267.000         643.000                  
G13  20091936.714    20091936.325    20091936.851                   -20354219.436 9 -20354219.435 8                 -15860432.402 8       821.000         392.000         386.000                  
G14  20987880.426    20987880.134    20987881.074                   -20095579.151 9 -20095579.151 8                 -15658894.897 8       585.000         457.000         273.000                  
G15  22203084.828    22203084.357    22203085.685                    -9291474.311 8  -9291474.309 8                  -7240112.728 9       319.000         228.000         567.000                  
G18  24791903.345    24791901.934    24791903.216                     1557756.548 7   1557756.554 6                   1213823.832 6        68.000          20.000          20.000                  
G22  22759685.804    22759684.617    22759685.636                   -10702697.780 8 -10702697.768 6                  -8339761.825 8       231.000          40.000         105.000                  
G23  24649086.701    24649086.211    24649086.302                    -1212360.652 7  -1212360.637 6                   -944701.276 6        98.000          21.000          18.000                  
G27  23280534.320    23280533.740    23280537.639                    -6154523.713 8  -6154523.714 8                  -4795738.415 8       203.000         114.000         417.000                  
G30  19788412.886    19788412.247    19788415.538                   -23072107.934 9 -23072107.934 9                 -17978265.001 9       984.000        2326.000        2382.000                  
