     3.03           OBSERVATION DATA    M (MIXED)           RINEX VERSION / TYPE
BJPP                CNES                20241031 162228 UTC PGM / RUN BY / DATE 
MARKER                                                      MARKER NAME         
SPACECRAFT                                                  MARKER TYPE         
OBSERVER            CNES                                    OBSERVER / AGENCY   
RECNUM              BLACKJACK           RECVERS             REC # / TYPE / VERS 
ANTNUM              BLACKJACK                               ANT # / TYPE        
        0.0000        0.0000        0.0000                  ANTENNA: DELTA H/E/N
G   12 C1C C1W C2W C2X L1C L1W L2X L2W S1C S1W S2W S2X      SYS / # / OBS TYPES 
DBHZ                                                        SIGNAL STRENGTH UNIT
This rinex produced from the following file(s):             COMMENT             
/tmp/mesos_work/slaves/d197f515-9ebc-49f2-8adc-fe7a9d3e6458-COMMENT             
S10/frameworks/8c1b9f46-52ed-4aff-9edf-38d17bf6761e-3293/exeCOMMENT             
cutors/toil-101536/runs/188393f4-b3be-4ebb-b39d-7039b0e31da9COMMENT             
/d37002936a6157a1b74a96f59611e4b3/f2e8/5a13/tmpczro4oot_vrb3COMMENT             
h66/stg5e6823ad-023d-4f4b-961b-55fdd08e7e88/SWOT_ASX_2024103COMMENT             
1T154017_20241031T140329_20241031T155400_O_APID1280.PTM_0   COMMENT             
  2024    10    31    14     3    0.0000000                 TIME OF FIRST OBS   
G L1C                                                       SYS / PHASE SHIFT   
G L1W -0.25000                                              SYS / PHASE SHIFT   
G L2W                                                       SYS / PHASE SHIFT   
G L2X  0.25000                                              SYS / PHASE SHIFT   
                                                            END OF HEADER       
> 2024 10 31 14 03  0.0000000  0  2
G22  19751662.139    19751661.163    19751661.162                   -27851488.519 9 -27851488.520 8                 -21702457.034 8       623.000         305.000         383.000                  
G24  22108786.754    22108786.379    22108789.035                   -12292366.779 8 -12292366.783 8                  -9578470.914 8       243.000         153.000         423.000                  
> 2024 10 31 14 03 10.0000000  0 11
G10  25064148.223    25064147.138    25064149.100                     -586193.819 7   -586193.815 6                   -456775.770 6        64.000          22.000          20.000                  
G13  19920872.632    19920872.037    19920872.667                   -22907909.940 9 -22907909.942 8                 -17850320.612 8       721.000         305.000         227.000                  
G14  20167275.063    20167274.768    20167275.457                   -23163628.040 9 -23163628.038 8                 -18049580.914 8       602.000         488.000         238.000                  
G15  19926075.247    19926074.853    19926075.392                   -23601726.592 9 -23601726.593 9                 -18390958.227 9       657.000         967.000         774.000                  
G17  21505553.674    21505552.940    21505553.946                   -16556273.487 8 -16556273.488 8                 -12900993.100 8       259.000         151.000         315.000                  
G19  23433546.917    23433544.993    23433544.081                    -4356404.397 8  -4356404.388 6                  -3394605.662 6       140.000          28.000          20.000                  
G21  24554151.746    24554149.324    24554152.211                      565400.096 7    565400.106 6                    440559.071 6        81.000          21.000          15.000                  
G22  19741264.153    19741263.035    19741263.098                   -27906130.886 9 -27906130.887 8                 -21745035.547 8       632.000         309.000         360.000                  
G23  23084570.399    23084570.097    23084570.978                    -7508130.039 8  -7508130.045 7                  -5850494.243 7       201.000          58.000          68.000                  
G24  22137467.094    22137466.712    22137469.532                   -12141650.429 8 -12141650.430 8                  -9461029.635 8       237.000         146.000         392.000                  
G30  23216970.726    23216969.472    23216973.319                    -8032187.008 8  -8032187.002 7                  -6258851.540 8       187.000          84.000         170.000                  
> 2024 10 31 14 03 20.0000000  0 11
G10  25131883.852    25131885.977    25131889.634                     -230221.581 7   -230221.597 6                   -179394.943 6        58.000          21.000          18.000                  
G13  19889034.872    19889034.520    19889034.550                   -23075218.544 9 -23075218.545 8                 -17980691.043 8       748.000         334.000         251.000                  
G14  20170983.816    20170983.339    20170983.995                   -23144139.141 9 -23144139.139 9                 -18034394.778 8       605.000         504.000         265.000                  
G15  19928966.337    19928966.166    19928966.596                   -23586533.413 9 -23586533.413 9                 -18379119.406 9       663.000         999.000         877.000                  
G17  21452663.850    21452663.327    21452664.351                   -16834210.128 8 -16834210.132 8                 -13117567.104 8       279.000         166.000         361.000                  
G19  23356934.524    23356931.718    23356932.983                    -4759005.834 8  -4759005.828 6                  -3708320.956 6       142.000          26.000          23.000                  
G21  24593950.550    24593947.308    24593951.300                      774541.489 7    774541.505 6                    603516.071 6        81.000          21.000          16.000                  
G22  19731980.446    19731979.426    19731979.421                   -27954917.448 9 -27954917.450 8                 -21783051.084 8       648.000         323.000         406.000                  
G23  23142027.941    23142027.630    23142028.947                    -7206188.373 8  -7206188.386 6                  -5615215.085 7       202.000          45.000          82.000                  
G24  22166602.778    22166602.419    22166605.492                   -11988540.144 8 -11988540.146 8                  -9341722.965 8       237.000         130.000         433.000                  
G30  23186981.664    23186980.238    23186983.898                    -8189782.026 8  -8189782.022 7                  -6381652.838 8       189.000          86.000         187.000                  
> 2024 10 31 14 03 30.0000000  0 11
G10  25199713.006    25199710.473    25199715.029                      126203.132 6    126203.120 6                     98338.432 6        48.000          23.000          20.000                  
G13  19857822.818    19857822.238    19857822.516                   -23239240.287 9 -23239240.287 8                 -18108500.292 8       750.000         335.000         262.000                  
G14  20175673.524    20175673.179    20175673.806                   -23119494.359 9 -23119494.357 8                 -18015191.077 8       587.000         464.000         269.000                  
G15  19932475.770    19932475.678    19932476.023                   -23568090.661 9 -23568090.663 9                 -18364748.461 9       639.000         917.000         887.000                  
G17  21400555.920    21400555.171    21400556.322                   -17108040.466 8 -17108040.469 8                 -13330941.389 8       290.000         177.000         373.000                  
G19  23280659.495    23280657.907    23280658.577                    -5159826.692 8  -5159826.684 6                  -4020648.818 6       139.000          22.000          23.000                  
G21  24634218.538    24634215.460    24634218.782                      986150.036 7    986150.011 6                    768401.976 6        80.000          19.000          18.000                  
G22  19723810.423    19723809.310    19723809.174                   -27997851.757 9 -27997851.754 8                 -21816506.412 8       631.000         306.000         427.000                  
G23  23199683.258    23199682.797    23199684.115                    -6903207.931 8  -6903207.935 6                  -5379126.485 7       184.000          49.000          79.000                  
G24  22196188.499    22196187.776    22196190.854                   -11833067.944 8 -11833067.949 8                  -9220575.826 8       224.000         130.000         443.000                  
G30  23157381.352    23157380.861    23157384.450                    -8345327.836 8  -8345327.837 7                  -6502857.360 8       182.000          81.000         191.000                  
> 2024 10 31 14 03 40.0000000  0 10
G13  19827247.112    19827246.546    19827246.751                   -23399917.218 9 -23399917.217 8                 -18233703.170 8       767.000         338.000         273.000                  
G14  20181347.227    20181347.135    20181347.610                   -23089678.001 9 -23089677.997 8                 -17991957.577 8       581.000         453.000         260.000                  
G15  19936608.800    19936608.509    19936609.021                   -23546372.039 9 -23546372.039 9                 -18347824.907 9       626.000         890.000         853.000                  
G17  21349246.693    21349246.213    21349247.006                   -17377672.319 8 -17377672.322 8                 -13541044.130 8       315.000         227.000         359.000                  
G19  23204743.510    23204741.893    23204743.034                    -5558770.080 8  -5558770.090 6                  -4331513.775 6       146.000          34.000          31.000                  
G21  24674955.040    24674952.387    24674954.662                     1200218.833 7   1200218.829 6                    935208.836 6        78.000          26.000          16.000                  
G22  19716761.339    19716760.254    19716760.262                   -28034894.638 9 -28034894.636 8                 -21845371.008 8       634.000         307.000         429.000                  
G23  23257534.233    23257533.545    23257535.018                    -6599199.213 8  -6599199.206 6                  -5142236.633 7       181.000          44.000          70.000                  
G24  22226225.638    22226224.959    22226228.125                   -11675221.837 8 -11675221.837 8                  -9097578.900 8       223.000         120.000         435.000                  
G30  23128180.091    23128179.397    23128183.465                    -8498781.922 8  -8498781.930 7                  -6622431.963 8       183.000          84.000         186.000                  
> 2024 10 31 14 03 50.0000000  0 10
G13  19797306.970    19797306.570    19797306.709                   -23557253.221 9 -23557253.221 8                 -18356302.700 8       778.000         363.000         246.000                  
G14  20187996.191    20187996.066    20187996.534                   -23054737.077 9 -23054737.075 8                 -17964730.904 8       582.000         463.000         222.000                  
G15  19941358.294    19941358.021    19941358.605                   -23521413.046 9 -23521413.047 9                 -18328376.370 9       629.000         880.000         775.000                  
G17  21298742.252    21298741.874    21298742.424                   -17643075.326 8 -17643075.330 8                 -13747851.672 8       341.000         252.000         329.000                  
G19  23129191.549    23129189.547    23129190.965                    -5955800.072 8  -5955800.064 6                  -4640887.727 6       157.000          28.000          25.000                  
G21  24716143.837    24716142.784    24716147.318                     1416679.208 7   1416679.184 6                   1103879.110 6        79.000          21.000          18.000                  
G22  19710828.840    19710827.834    19710827.991                   -28066070.069 9 -28066070.068 8                 -21869663.596 8       643.000         311.000         400.000                  
G23  23315567.341    23315566.403    23315568.256                    -6294233.833 8  -6294233.820 6                  -4904601.348 7       176.000          39.000          60.000                  
G24  22256704.622    22256704.525    22256707.536                   -11515051.374 8 -11515051.373 8                  -8972770.789 8       220.000         118.000         400.000                  
G30  23099373.144    23099372.406    23099376.279                    -8650163.367 8  -8650163.365 7                  -6740391.518 8       186.000          81.000         168.000                  
> 2024 10 31 14 04  0.0000000  0 10
G13  19768013.199    19768012.817    19768013.041                   -23711193.162 9 -23711193.164 8                 -18476255.950 8       773.000         355.000         269.000                  
G14  20195622.588    20195622.461    20195622.839                   -23014660.375 9 -23014660.370 8                 -17933502.326 8       586.000         460.000         227.000                  
G15  19946729.024    19946728.689    19946729.268                   -23493190.136 9 -23493190.138 9                 -18306384.550 9       628.000         889.000         783.000                  
G17  21249059.614    21249059.019    21249059.438                   -17904160.069 8 -17904160.073 8                 -13951294.337 8       361.000         284.000         355.000                  
G19  23054021.237    23054019.332    23054020.901                    -6350820.701 8  -6350820.700 6                  -4948695.985 6       164.000          31.000          26.000                  
G21  24757791.167    24757787.105    24757790.056                     1635521.664 7   1635521.647 6                   1274403.312 6        78.000          27.000          17.000                  
G22  19706019.230    19706018.381    19706018.511                   -28091343.866 9 -28091343.862 8                 -21889357.473 8       646.000         324.000         428.000                  
G23  23373780.228    23373779.100    23373780.899                    -5988323.463 8  -5988323.452 6                  -4666229.700 7       176.000          44.000          57.000                  
G24  22287628.072    22287627.896    22287631.274                   -11352546.862 8 -11352546.862 8                  -8846143.954 8       217.000         118.000         426.000                  
G30  23070968.117    23070967.755    23070971.487                    -8799431.917 8  -8799431.915 7                  -6856704.673 8       189.000          88.000         171.000                  
> 2024 10 31 14 04 10.0000000  0 10
G13  19739368.570    19739368.139    19739368.348                   -23861721.813 9 -23861721.813 8                 -18593551.035 8       777.000         350.000         279.000                  
G14  20204220.645    20204220.490    20204220.995                   -22969477.679 9 -22969477.675 8                 -17898295.046 8       595.000         472.000         238.000                  
G15  19952717.708    19952717.344    19952717.796                   -23461719.924 9 -23461719.925 9                 -18281862.339 9       640.000         920.000         799.000                  
G17  21200207.652    21200207.549    21200207.831                   -18160877.388 8 -18160877.389 8                 -14151333.817 8       386.000         321.000         363.000                  
G19  22979245.010    22979242.691    22979243.157                    -6743775.318 8  -6743775.322 6                  -5254894.311 6       165.000          37.000          34.000                  
G21  24799877.394    24799874.680    24799877.528                     1856696.772 7   1856696.764 6                   1446730.927 6        80.000          20.000          22.000                  
G22  19702331.656    19702330.439    19702330.712                   -28110723.456 9 -28110723.457 8                 -21904458.487 8       659.000         334.000         452.000                  
G23  23432162.426    23432162.386    23432163.991                    -5681519.310 8  -5681519.299 6                  -4427161.610 7       176.000          46.000          60.000                  
G24  22318990.274    22318990.143    22318993.305                   -11187738.472 8 -11187738.474 8                  -8717721.883 8       215.000         121.000         450.000                  
G30  23042966.331    23042965.232    23042968.727                    -8946587.240 8  -8946587.240 7                  -6971371.162 8       195.000          90.000         184.000                  
> 2024 10 31 14 04 20.0000000  0 10
G13  19711377.497    19711377.102    19711377.316                   -24008816.091 9 -24008816.090 8                 -18708169.991 8       737.000         319.000         254.000                  
G14  20213786.096    20213785.813    20213786.153                   -22919211.696 9 -22919211.691 8                 -17859126.765 8       565.000         434.000         223.000                  
G15  19959322.483    19959322.286    19959322.711                   -23427011.172 9 -23427011.173 9                 -18254816.576 9       612.000         834.000         726.000                  
G17  21152197.941    21152197.682    21152198.190                   -18413170.328 8 -18413170.330 8                 -14347925.729 8       381.000         309.000         346.000                  
G19  22904873.198    22904871.676    22904871.850                    -7134598.509 8  -7134598.526 6                  -5559431.814 6       157.000          28.000          29.000                  
G21  24842400.947    24842399.057    24842400.364                     2080163.238 7   2080163.232 6                   1620861.385 6        77.000          17.000          16.000                  
G22  19699765.365    19699764.312    19699764.239                   -28124209.393 9 -28124209.394 8                 -21914967.016 8       634.000         309.000         417.000                  
G23  23490707.963    23490707.689    23490709.106                    -5373863.888 8  -5373863.889 6                  -4187430.201 7       169.000          39.000          51.000                  
G24  22350786.525    22350786.278    22350789.556                   -11020648.286 8 -11020648.294 8                  -8587521.776 8       203.000         103.000         420.000                  
G30  23015366.936    23015366.320    23015369.666                    -9091620.848 8  -9091620.847 7                  -7084384.380 8       192.000          90.000         174.000                  
> 2024 10 31 14 04 30.0000000  0 10
G13  19684047.922    19684047.776    19684047.760                   -24152433.100 9 -24152433.098 8                 -18820079.363 8       743.000         326.000         248.000                  
G14  20224317.862    20224317.633    20224318.468                   -22863866.267 9 -22863866.264 8                 -17816000.476 8       571.000         440.000         209.000                  
G15  19966545.711    19966545.549    19966546.131                   -23389053.060 9 -23389053.061 9                 -18225238.849 9       618.000         865.000         671.000                  
G17  21105044.881    21105044.369    21105044.841                   -18660962.442 8 -18660962.444 8                 -14541010.508 8       403.000         347.000         341.000                  
G19  22830924.307    22830922.231    22830922.828                    -7523204.244 8  -7523204.243 6                  -5862241.428 6       164.000          31.000          25.000                  
G21  24885360.162    24885355.470    24885357.548                     2305899.605 7   2305899.608 6                   1796763.261 6        78.000          18.000          19.000                  
G22  19698323.987    19698322.887    19698322.926                   -28131784.023 9 -28131784.023 8                 -21920869.349 8       655.000         329.000         388.000                  
G23  23549411.024    23549410.792    23549411.478                    -5065379.276 8  -5065379.290 6                  -3947052.665 6       166.000          34.000          43.000                  
G24  22383016.575    22383016.321    22383019.487                   -10851278.551 8 -10851278.554 8                  -8455545.400 8       212.000         113.000         390.000                  
G30  22988176.401    22988176.398    22988180.004                    -9234504.392 8  -9234504.392 7                  -7195722.228 8       190.000          97.000         163.000                  
> 2024 10 31 14 04 40.0000000  0 10
G13  19657383.236    19657382.905    19657383.177                   -24292557.205 9 -24292557.206 8                 -18929266.993 8       712.000         300.000         223.000                  
G14  20235810.662    20235810.158    20235810.826                   -22803473.197 9 -22803473.191 8                 -17768940.957 8       551.000         408.000         179.000                  
G15  19974383.903    19974383.911    19974384.498                   -23347861.783 9 -23347861.785 9                 -18193141.766 9       599.000         808.000         545.000                  
G17  21058757.622    21058757.033    21058757.567                   -18904204.448 8 -18904204.450 8                 -14730549.735 8       413.000         367.000         308.000                  
G19  22757407.990    22757406.010    22757406.677                    -7909532.995 8  -7909533.005 6                  -6163276.784 6       164.000          34.000          21.000                  
G21  24928739.526    24928734.797    24928738.728                     2533857.594 7   2533857.590 6                   1974403.541 6        74.000          22.000          16.000                  
G22  19698005.378    19698004.380    19698004.471                   -28133457.944 9 -28133457.946 8                 -21922173.724 8       642.000         319.000         325.000                  
G23  23608261.918    23608261.833    23608262.632                    -4756114.032 8  -4756114.028 6                  -3706066.843 6       158.000          35.000          38.000                  
G24  22415675.144    22415674.662    22415677.959                   -10679658.377 8 -10679658.377 8                  -8321815.442 8       204.000         109.000         330.000                  
G30  22961396.227    22961395.742    22961399.484                    -9375236.446 8  -9375236.444 7                  -7305383.623 8       192.000          93.000         147.000                  
> 2024 10 31 14 04 50.0000000  0 10
G13  19631388.120    19631387.849    19631388.079                   -24429162.609 9 -24429162.610 8                 -19035712.784 8       744.000         326.000         261.000                  
G14  20248258.933    20248258.781    20248259.379                   -22738054.918 9 -22738054.911 8                 -17717965.701 8       559.000         421.000         207.000                  
G15  19982836.689    19982836.414    19982836.859                   -23303443.501 9 -23303443.501 9                 -18158530.153 9       618.000         859.000         579.000                  
G17  21013347.285    21013346.748    21013347.249                   -19142837.261 8 -19142837.264 8                 -14916497.385 8       442.000         419.000         359.000                  
G19  22684338.874    22684337.507    22684337.826                    -8293514.100 8  -8293514.077 6                  -6462482.790 6       178.000          37.000          27.000                  
G21  24972532.682    24972529.625    24972531.755                     2763999.160 7   2763999.190 6                   2153737.738 6        75.000          21.000          16.000                  
G22  19698809.369    19698808.353    19698808.494                   -28129232.938 9 -28129232.939 8                 -21918881.529 8       669.000         348.000         369.000                  
G23  23667255.173    23667254.364    23667255.268                    -4446105.713 8  -4446105.705 6                  -3464501.987 6       162.000          41.000          37.000                  
G24  22448758.215    22448757.621    22448760.829                   -10505806.484 8 -10505806.482 8                  -8186346.484 8       215.000         113.000         366.000                  
G30  22935027.946    22935027.401    22935030.981                    -9513805.158 8  -9513805.161 7                  -7413359.312 8       203.000          97.000         163.000                  
> 2024 10 31 14 05  0.0000000  0 10
G13  19606069.524    19606068.933    19606069.429                   -24562213.710 9 -24562213.710 8                 -19139388.991 8       748.000         330.000         244.000                  
G14  20261661.401    20261661.169    20261661.829                   -22667624.988 9 -22667624.982 8                 -17663085.254 8       541.000         398.000         185.000                  
G15  19991904.339    19991903.774    19991904.327                   -23255794.720 9 -23255794.722 9                 -18121401.265 9       611.000         838.000         501.000                  
G17  20968826.955    20968826.585    20968827.100                   -19376792.368 8 -19376792.371 8                 -15098800.068 8       452.000         432.000         330.000                  
G19  22611732.022    22611729.990    22611730.177                    -8675066.484 8  -8675066.483 6                  -6759796.286 6       183.000          38.000          23.000                  
G21  25016738.424    25016734.340    25016737.129                     2996296.369 7   2996296.364 6                   2334754.008 6        74.000          21.000          16.000                  
G22  19700737.138    19700736.202    19700736.225                   -28119102.340 9 -28119102.342 8                 -21910987.578 8       656.000         332.000         326.000                  
G23  23726384.437    23726382.778    23726384.249                    -4135381.596 8  -4135381.601 6                  -3222379.380 6       156.000          43.000          24.000                  
G24  22482263.779    22482263.655    22482266.935                   -10329731.702 8 -10329731.706 8                  -8049145.411 8       214.000         118.000         314.000                  
G30  22909075.067    22909074.344    22909078.161                    -9650188.834 8  -9650188.838 7                  -7519632.379 8       203.000          99.000         146.000                  
> 2024 10 31 14 05 10.0000000  0 10
G13  19581429.026    19581428.641    19581428.762                   -24691700.678 9 -24691700.679 8                 -19240287.956 8       752.000         331.000         280.000                  
G14  20276009.878    20276009.550    20276010.402                   -22592223.251 9 -22592223.244 8                 -17604330.682 8       530.000         383.000         208.000                  
G15  20001582.190    20001581.748    20001582.140                   -23204937.500 9 -23204937.502 9                 -18081772.296 9       609.000         827.000         550.000                  
G17  20925205.231    20925204.655    20925205.197                   -19606027.016 8 -19606027.018 8                 -15277424.471 8       454.000         444.000         390.000                  
G19  22539597.564    22539595.383    22539595.611                    -9054133.855 8  -9054133.856 6                  -7055173.422 6       186.000          36.000          26.000                  
G21  25061344.991    25061338.718    25061343.165                     3230695.761 7   3230695.799 6                   2517402.643 6        67.000          22.000          18.000                  
G22  19703785.090    19703784.024    19703784.048                   -28103086.178 9 -28103086.179 8                 -21898507.468 8       653.000         327.000         349.000                  
G23  23785638.410    23785638.833    23785638.866                    -3823993.643 8  -3823993.637 6                  -2979739.533 6       145.000          32.000          35.000                  
G24  22516186.019    22516186.013    22516189.341                   -10151468.137 8 -10151468.138 8                  -7910238.778 8       208.000         112.000         370.000                  
G30  22883537.271    22883536.669    22883540.208                    -9784391.017 8  -9784391.015 7                  -7624205.569 8       200.000          94.000         163.000                  
> 2024 10 31 14 05 20.0000000  0 10
G13  19557473.423    19557473.030    19557473.409                   -24817588.076 9 -24817588.076 8                 -19338382.058 8       775.000         359.000         274.000                  
G14  20291301.651    20291301.405    20291302.186                   -22511864.774 9 -22511864.770 8                 -17541713.714 8       533.000         390.000         194.000                  
G15  20011870.931    20011870.742    20011871.108                   -23150868.425 9 -23150868.426 9                 -18039640.585 9       599.000         800.000         516.000                  
G17  20882494.538    20882493.971    20882494.607                   -19830473.406 8 -19830473.408 8                 -15452317.770 8       460.000         450.000         393.000                  
G19  22467951.869    22467950.770    22467950.861                    -9430633.589 8  -9430633.589 6                  -7348549.814 6       196.000          38.000          28.000                  
G21  25106341.231    25106337.671    25106343.658                     3467169.885 7   3467169.886 6                   2701666.221 6        67.000          20.000          14.000                  
G22  19707953.638    19707952.702    19707952.721                   -28081180.122 9 -28081180.124 8                 -21881437.826 8       651.000         327.000         339.000                  
G23  23845015.502    23845015.476    23845015.621                    -3511967.565 8  -3511967.577 6                  -2736602.432 6       142.000          30.000          29.000                  
G24  22550523.747    22550523.496    22550526.971                    -9971024.176 8  -9971024.179 8                  -7769633.147 8       212.000         104.000         338.000                  
G30  22858418.742    22858417.950    22858421.946                    -9916389.563 8  -9916389.559 7                  -7727061.586 8       198.000         100.000         148.000                  
> 2024 10 31 14 05 30.0000000  0 10
G13  19534208.946    19534208.533    19534208.985                   -24939843.443 9 -24939843.444 8                 -19433646.009 8       805.000         382.000         238.000                  
G14  20307532.922    20307532.786    20307533.559                   -22426568.227 9 -22426568.220 8                 -17475248.904 8       541.000         397.000         168.000                  
G15  20022771.322    20022770.954    20022771.678                   -23093586.952 9 -23093586.954 9                 -17995005.709 8       600.000         811.000         459.000                  
G17  20840707.277    20840706.637    20840707.354                   -20050066.911 8 -20050066.914 8                 -15623429.602 8       474.000         480.000         339.000                  
G19  22396809.997    22396808.482    22396809.227                    -9804485.224 8  -9804485.231 6                  -7639862.704 6       205.000          47.000          26.000                  
G21  25151732.108    25151726.763    25151729.046                     3705688.672 7   3705688.680 6                   2887520.168 6        65.000          21.000          19.000                  
G22  19713243.262    19713242.267    19713242.213                   -28053384.133 9 -28053384.132 8                 -21859778.646 8       655.000         332.000         286.000                  
G23  23904508.782    23904507.733    23904509.835                    -3199331.210 8  -3199331.203 6                  -2492989.782 6       135.000          29.000          26.000                  
G24  22585274.644    22585274.041    22585277.166                    -9788410.762 8  -9788410.760 8                  -7627337.028 8       217.000         114.000         292.000                  
G30  22833723.918    22833722.246    22833726.486                   -10046165.091 8 -10046165.091 7                  -7828185.361 8       204.000          93.000         128.000                  
> 2024 10 31 14 05 40.0000000  0 10
G13  19511635.542    19511634.989    19511635.398                   -25058468.639 9 -25058468.641 8                 -19526081.258 8       796.000         368.000         272.000                  
G14  20324693.927    20324693.628    20324694.381                   -22336387.228 9 -22336387.221 8                 -17404978.017 8       531.000         374.000         182.000                  
G15  20034276.370    20034276.207    20034276.789                   -23033126.825 9 -23033126.826 9                 -17947893.960 9       581.000         757.000         540.000                  
G17  20799849.057    20799848.621    20799849.257                   -20264777.565 8 -20264777.568 8                 -15790736.611 8       470.000         471.000         382.000                  
G19  22326181.685    22326180.021    22326180.086                   -10175641.777 8 -10175641.782 6                  -7929075.566 6       210.000          49.000          38.000                  
G21  25197494.478    25197491.608    25197490.785                     3946188.144 7   3946188.126 6                   3074908.139 6        59.000          20.000          21.000                  
G22  19719646.478    19719645.560    19719645.836                   -28019733.572 9 -28019733.573 8                 -21833557.472 8       631.000         311.000         319.000                  
G23  23964106.456    23964105.489    23964105.855                    -2886145.904 8  -2886145.918 6                  -2248949.378 6       130.000          31.000          21.000                  
G24  22620428.007    22620428.145    22620431.665                    -9603672.883 8  -9603672.882 7                  -7483385.489 8       201.000          99.000         320.000                  
G30  22809447.511    22809447.260    22809451.296                   -10173732.302 8 -10173732.299 8                  -7927588.388 8       201.000         105.000         147.000                  
> 2024 10 31 14 05 50.0000000  0 10
G13  19489763.162    19489762.578    19489762.816                   -25173409.483 9 -25173409.484 8                 -19615645.585 8       811.000         396.000         299.000                  
G14  20342784.551    20342784.397    20342785.260                   -22241320.051 9 -22241320.045 8                 -17330899.717 8       537.000         396.000         183.000                  
G15  20046390.817    20046390.521    20046391.148                   -22969465.704 9 -22969465.706 9                 -17898287.932 9       578.000         748.000         585.000                  
G17  20759936.392    20759935.983    20759936.573                   -20474519.771 8 -20474519.775 8                 -15954172.101 8       483.000         495.000         425.000                  
G19  22256085.245    22256084.104    22256084.734                   -10543999.548 8 -10543999.537 6                  -8216107.576 6       224.000          50.000          38.000                  
G21  25243638.333    25243631.710    25243627.608                     4188660.447 7   4188660.435 6                   3263820.943 6        59.000          22.000          17.000                  
G22  19727167.979    19727166.879    19727167.124                   -27980208.891 9 -27980208.891 8                 -21802759.047 8       629.000         312.000         354.000                  
G23  24023806.296    24023805.931    24023807.690                    -2572416.212 8  -2572416.223 6                  -2004484.752 6       122.000          24.000          21.000                  
G24  22655989.209    22655989.065    22655992.623                    -9416799.200 8  -9416799.204 8                  -7337769.680 8       200.000         102.000         335.000                  
G30  22785600.769    22785600.114    22785604.037                   -10299049.524 8 -10299049.528 7                  -8025238.166 8       199.000         100.000         162.000                  
> 2024 10 31 14 06  0.0000000  0 11
G02  25170650.039    25170647.009    25170673.103                      272947.785 7    272947.783 6                    212682.549 6        70.000          20.000          16.000                  
G13  19468589.945    19468589.624    19468589.853                   -25284674.658 9 -25284674.659 8                 -19702345.747 8       807.000         389.000         258.000                  
G14  20361793.579    20361793.199    20361793.827                   -22141428.341 9 -22141428.335 8                 -17253062.039 8       541.000         386.000         155.000                  
G15  20059106.725    20059106.342    20059106.969                   -22902643.932 9 -22902643.933 9                 -17846219.055 9       580.000         758.000         516.000                  
G17  20720973.719    20720973.163    20720973.783                   -20679271.000 9 -20679271.001 9                 -16113718.513 8       501.000         541.000         388.000                  
G19  22186530.015    22186528.273    22186528.337                   -10909516.748 8 -10909516.749 7                  -8500926.142 6       235.000          53.000          41.000                  
G21  25290137.682    25290135.697    25290124.144                     4433035.405 7   4433035.377 6                   3454211.793 6        58.000          22.000          16.000                  
G22  19735798.767    19735797.585    19735797.662                   -27934854.555 9 -27934854.558 8                 -21767418.052 8       636.000         310.000         297.000                  
G23  24083599.179    24083598.103    24083600.267                    -2258208.601 8  -2258208.607 6                  -1759647.737 6       121.000          26.000          24.000                  
G24  22691947.736    22691946.981    22691950.127                    -9227840.800 8  -9227840.798 8                  -7190529.418 8       199.000         103.000         276.000                  
G30  22762178.156    22762177.297    22762181.154                   -10422137.714 8 -10422137.714 8                  -8121151.065 8       203.000         105.000         134.000                  
> 2024 10 31 14 06 10.0000000  0 11
G02  25196011.962    25196010.762    25196025.703                      406234.945 7    406234.922 6                    316545.098 6        67.000          25.000          16.000                  
G13  19448126.398    19448125.845    19448126.279                   -25392211.594 9 -25392211.594 8                 -19786140.793 8       764.000         347.000         209.000                  
G14  20381720.002    20381719.835    20381720.768                   -22036713.056 9 -22036713.050 8                 -17171465.731 8       526.000         369.000         135.000                  
G15  20072427.794    20072427.556    20072428.316                   -22832640.595 9 -22832640.596 9                 -17791671.032 8       555.000         687.000         450.000                  
G17  20682976.573    20682975.908    20682976.567                   -20878948.236 8 -20878948.236 9                 -16269311.173 8       499.000         533.000         336.000                  
G19  22117535.064    22117532.682    22117533.494                   -11272089.749 8 -11272089.749 7                  -8783450.524 6       240.000          53.000          37.000                  
G21  25337004.408    25336999.386    25336988.165                     4679304.424 7   4679304.423 6                   3646111.927 6        57.000          19.000          14.000                  
G22  19745541.592    19745540.541    19745540.748                   -27883654.759 9 -27883654.759 8                 -21727522.132 8       612.000         292.000         241.000                  
G23  24143480.012    24143479.672    24143480.483                    -1943527.507 8  -1943527.499 6                  -1514441.833 6       113.000          27.000          20.000                  
G24  22728303.185    22728302.853    22728306.608                    -9036787.237 8  -9036787.241 7                  -7041656.569 8       189.000          79.000         226.000                  
G30  22739187.303    22739186.418    22739190.335                   -10542956.232 8 -10542956.233 7                  -8215295.390 8       198.000          97.000         112.000                  
> 2024 10 31 14 06 20.0000000  0 11
G02  25221855.625    25221853.329    25221890.527                      542042.059 7    542042.046 6                    422366.415 6        68.000          21.000          18.000                  
G13  19428370.515    19428369.987    19428370.532                   -25496029.090 9 -25496029.091 8                 -19867037.579 8       743.000         325.000         205.000                  
G14  20402552.882    20402552.579    20402553.196                   -21927236.956 9 -21927236.949 8                 -17086159.701 8       527.000         366.000         138.000                  
G15  20086346.745    20086346.503    20086347.164                   -22759495.967 9 -22759495.968 9                 -17734675.254 8       548.000         669.000         441.000                  
G17  20645948.888    20645948.283    20645948.952                   -21073529.937 9 -21073529.938 9                 -16420933.283 8       515.000         583.000         364.000                  
G19  22049107.463    22049105.766    22049106.543                   -11631675.364 8 -11631675.369 7                  -9063647.106 6       254.000          66.000          35.000                  
G21  25384214.755    25384210.414    25384198.029                     4927398.282 7   4927398.271 6                   3839440.179 6        53.000          20.000          16.000                  
G22  19756388.014    19756387.073    19756387.357                   -27826656.204 9 -27826656.204 8                 -21683107.708 8       625.000         301.000         242.000                  
G23  24203439.878    24203439.665    24203441.177                    -1628437.766 8  -1628437.779 6                  -1268917.455 6       110.000          32.000          19.000                  
G24  22765048.876    22765048.507    22765051.880                    -8843688.933 8  -8843688.931 7                  -6891190.423 8       184.000          87.000         224.000                  
G30  22716623.950    22716623.455    22716627.285                   -10661525.441 8 -10661525.438 7                  -8307686.995 8       203.000         100.000         111.000                  
> 2024 10 31 14 06 30.0000000  0 11
G02  25248180.628    25248177.213    25248192.333                      680374.846 7    680374.852 6                    530160.721 6        68.000          19.000          19.000                  
G13  19409332.236    19409331.856    19409332.161                   -25596076.094 9 -25596076.098 8                 -19944996.318 8       724.000         311.000         187.000                  
G14  20424290.838    20424290.372    20424291.150                   -21813003.476 9 -21813003.467 8                 -16997146.622 8       525.000         372.000         125.000                  
G15  20100867.208    20100867.020    20100867.623                   -22683190.311 9 -22683190.310 9                 -17675216.343 8       540.000         657.000         413.000                  
G17  20609906.246    20609905.800    20609906.259                   -21262935.269 9 -21262935.270 9                 -16568521.862 8       539.000         624.000         352.000                  
G19  21981269.236    21981267.405    21981267.541                   -11988169.910 8 -11988169.913 7                  -9341435.006 6       264.000          76.000          35.000                  
G21  25431769.892    25431766.976    25431756.416                     5177308.129 7   5177308.124 6                   4034187.416 6        56.000          20.000          18.000                  
G22  19768340.417    19768339.345    19768339.645                   -27763846.702 9 -27763846.704 8                 -21634165.268 8       630.000         309.000         215.000                  
G23  24263476.081    24263475.598    24263477.893                    -1312943.500 8  -1312943.519 6                  -1023077.879 6       113.000          22.000          18.000                  
G24  22802185.615    22802184.541    22802188.254                    -8648536.055 8  -8648536.059 7                  -6739123.308 8       181.000          85.000         201.000                  
G30  22694496.867    22694496.021    22694499.785                   -10777805.567 8 -10777805.572 8                  -8398294.879 7       204.000         102.000          98.000                  
> 2024 10 31 14 06 40.0000000  0 11
G02  25274974.496    25274971.356    25275005.417                      821181.644 7    821181.634 6                    639877.847 6        65.000          21.000          15.000                  
G13  19391009.965    19391009.486    19391009.931                   -25692360.429 9 -25692360.428 8                 -20020023.104 8       692.000         279.000         181.000                  
G14  20446922.142    20446921.653    20446922.416                   -21694075.479 9 -21694075.471 8                 -16904475.478 8       511.000         346.000         124.000                  
G15  20115981.777    20115981.510    20115982.427                   -22603762.673 9 -22603762.674 9                 -17613324.715 8       525.000         623.000         404.000                  
G17  20574852.423    20574851.969    20574852.689                   -21447142.912 9 -21447142.915 9                 -16712060.296 8       534.000         611.000         344.000                  
G19  21914026.992    21914025.093    21914025.947                   -12341527.976 8 -12341527.986 7                  -9616778.934 6       270.000          72.000          37.000                  
G21  25479660.753    25479655.994    25479644.717                     5428966.232 7   5428966.211 6                   4230325.348 6        53.000          19.000          17.000                  
G22  19781389.367    19781388.272    19781388.483                   -27695274.117 9 -27695274.118 8                 -21580732.116 8       622.000         296.000         203.000                  
G23  24323578.028    24323577.979    24323578.060                     -997106.925 8   -997106.902 6                   -776971.644 6       105.000          22.000          16.000                  
G24  22839703.241    22839703.119    22839706.441                    -8451377.351 8  -8451377.342 7                  -6585493.207 8       175.000          69.000         184.000                  
G30  22672801.228    22672800.575    22672804.583                   -10891815.579 8 -10891815.581 8                  -8487133.850 7       204.000         106.000          89.000                  
> 2024 10 31 14 06 50.0000000  0 10
G02  25302239.344    25302235.181    25302251.478                      964456.065 7    964456.076 6                    751522.806 6        65.000          21.000          17.000                  
G13  19373410.833    19373410.389    19373410.789                   -25784844.555 9 -25784844.556 8                 -20092088.684 8       692.000         281.000         202.000                  
G14  20470443.195    20470442.875    20470443.524                   -21570470.680 9 -21570470.673 8                 -16808160.080 8       508.000         347.000         130.000                  
G15  20131691.737    20131691.593    20131692.428                   -22521206.378 9 -22521206.379 9                 -17548995.169 8       533.000         640.000         455.000                  
G17  20540800.713    20540800.333    20540800.740                   -21626086.428 9 -21626086.431 9                 -16851496.808 8       551.000         649.000         388.000                  
G19  21847399.344    21847397.912    21847398.324                   -12691657.756 8 -12691657.753 7                  -9889607.316 7       284.000          86.000          56.000                  
G22  19795534.446    19795533.336    19795533.614                   -27620941.772 9 -27620941.772 8                 -21522810.833 8       626.000         305.000         221.000                  
G23  24383742.414    24383741.633    24383742.632                     -680943.774 8   -680943.769 6                   -530610.898 6       102.000          27.000          17.000                  
G24  22877602.818    22877602.265    22877605.852                    -8252215.545 8  -8252215.542 7                  -6430302.250 8       176.000          78.000         205.000                  
G30  22651543.470    22651542.607    22651545.810                   -11003528.737 8 -11003528.741 7                  -8574183.159 8       204.000          96.000         101.000                  
> 2024 10 31 14 07  0.0000000  0 10
G02  25329969.244    25329965.040    25329996.173                     1110175.075 7   1110175.079 6                    865067.650 6        64.000          20.000          15.000                  
G13  19356538.870    19356538.363    19356538.654                   -25873507.790 9 -25873507.792 8                 -20161176.948 8       694.000         288.000         214.000                  
G14  20494847.957    20494847.271    20494848.516                   -21442223.975 9 -21442223.965 8                 -16708227.607 8       508.000         342.000         135.000                  
G15  20147995.360    20147995.001    20147995.729                   -22435531.512 9 -22435531.513 9                 -17482235.570 8       551.000         695.000         449.000                  
G17  20507760.123    20507759.532    20507760.055                   -21799716.605 9 -21799716.607 9                 -16986793.062 8       565.000         688.000         416.000                  
G19  21781400.846    21781399.008    21781400.175                   -13038483.474 8 -13038483.479 7                 -10159861.101 6       300.000          98.000          50.000                  
G22  19810771.303    19810770.291    19810770.584                   -27540870.688 9 -27540870.688 8                 -21460417.811 8       640.000         315.000         218.000                  
G23  24443961.610    24443961.780    24443963.518                     -364485.741 7   -364485.715 6                   -284020.295 6       100.000          26.000          20.000                  
G24  22915878.811    22915879.014    22915882.530                    -8051069.825 8  -8051069.816 7                  -6273565.388 8       177.000          77.000         207.000                  
G30  22630724.226    22630723.247    22630726.662                   -11112934.149 8 -11112934.150 8                  -8659434.121 8       207.000         101.000         102.000                  
> 2024 10 31 14 07 10.0000000  0 10
G02  25358156.606    25358151.370    25358166.117                     1258295.859 7   1258295.849 6                    980488.978 6        61.000          20.000          18.000                  
G13  19340394.201    19340393.595    19340393.987                   -25958349.283 9 -25958349.283 8                 -20227287.232 8       681.000         286.000         240.000                  
G14  20520125.061    20520124.835    20520125.472                   -21309390.573 9 -21309390.567 8                 -16604721.089 8       502.000         336.000         139.000                  
G15  20164886.342    20164886.196    20164886.990                   -22346767.869 9 -22346767.869 9                 -17413069.134 8       544.000         662.000         443.000                  
G17  20475735.544    20475735.228    20475736.047                   -21968005.119 9 -21968005.122 9                 -17117926.981 8       559.000         666.000         458.000                  
G19  21716041.430    21716039.667    21716040.361                   -13381948.750 8 -13381948.749 7                 -10427496.368 7       314.000          98.000          55.000                  
G22  19827092.508    19827091.325    19827091.520                   -27455102.796 9 -27455102.797 8                 -21393585.718 8       634.000         305.000         224.000                  
G23  24504231.173    24504228.914    24504232.336                      -47783.507 7    -47783.513 6                    -37239.509 6        96.000          17.000          16.000                  
G24  22954525.967    22954525.769    22954529.508                    -7847978.749 8  -7847978.747 7                  -6115312.668 8       170.000          73.000         214.000                  
G30  22610342.745    22610341.397    22610345.032                   -11220041.323 8 -11220041.321 8                  -8742894.306 8       207.000         104.000         113.000                  
> 2024 10 31 14 07 20.0000000  0 10
G02  25386799.746    25386794.531    25386822.575                     1408818.782 7   1408818.786 6                   1097777.159 6        61.000          21.000          15.000                  
G13  19324984.842    19324984.418    19324984.675                   -26039325.222 9 -26039325.221 8                 -20290385.394 8       677.000         273.000         250.000                  
G14  20546272.910    20546272.668    20546273.516                   -21171983.047 8 -21171983.039 8                 -16497650.330 8       490.000         321.000         132.000                  
G15  20182367.978    20182367.755    20182368.379                   -22254902.154 9 -22254902.155 9                 -17341485.505 8       531.000         632.000         412.000                  
G17  20444741.630    20444741.057    20444741.664                   -22130881.203 9 -22130881.205 9                 -17244843.425 8       546.000         643.000         462.000                  
G19  21651340.800    21651338.862    21651339.569                   -13721953.425 8 -13721953.424 8                 -10692435.025 7       318.000         103.000          62.000                  
G22  19844497.348    19844496.468    19844496.859                   -27363638.085 9 -27363638.085 8                 -21322314.542 8       615.000         286.000         223.000                  
G23  24564540.771    24564539.682    24564539.681                      269156.109 7    269156.080 6                    209731.142 6        84.000          25.000          18.000                  
G24  22993543.940    22993544.470    22993547.717                    -7642937.520 8  -7642937.528 7                  -5955540.343 8       160.000          69.000         197.000                  
G30  22590404.409    22590403.567    22590407.121                   -11324815.883 8 -11324815.879 8                  -8824536.815 8       204.000         103.000         113.000                  
> 2024 10 31 14 07 30.0000000  0 10
G02  25415888.404    25415883.395    25415899.767                     1561683.466 7   1561683.491 6                   1216895.020 6        63.000          21.000          20.000                  
G13  19310307.942    19310307.551    19310307.859                   -26116452.986 9 -26116452.985 8                 -20350484.972 8       682.000         273.000         270.000                  
G14  20573277.203    20573276.868    20573277.441                   -21030075.353 8 -21030075.347 8                 -16387072.962 8       483.000         318.000         134.000                  
G15  20200430.614    20200430.467    20200430.965                   -22159981.861 9 -22159981.861 9                 -17267521.683 8       534.000         649.000         403.000                  
G17  20414778.814    20414778.415    20414779.073                   -22288335.676 9 -22288335.677 9                 -17367535.239 8       554.000         656.000         479.000                  
G19  21587305.971    21587304.118    21587304.650                   -14058458.115 8 -14058458.117 8                 -10954646.439 7       339.000         108.000          63.000                  
G22  19862975.003    19862974.100    19862974.351                   -27266538.408 9 -27266538.410 8                 -21246652.485 8       618.000         297.000         226.000                  
G23  24624884.199    24624884.395    24624884.696                      586266.122 7    586266.139 6                    456833.836 6        84.000          23.000          17.000                  
G24  23032922.282    23032922.728    23032926.247                    -7436001.958 8  -7436001.963 7                  -5794291.921 8       155.000          61.000         197.000                  
G30  22570905.643    22570904.440    22570908.107                   -11427284.637 8 -11427284.640 8                  -8904382.607 8       203.000         105.000         118.000                  
> 2024 10 31 14 07 40.0000000  0 10
G02  25445426.678    25445419.538    25445449.937                     1716895.935 7   1716895.931 6                   1337837.360 6        59.000          22.000          19.000                  
G13  19296372.687    19296372.285    19296372.482                   -26189683.850 9 -26189683.851 8                 -20407548.007 8       699.000         289.000         314.000                  
G14  20601136.308    20601135.827    20601136.542                   -20883675.443 8 -20883675.433 8                 -16272995.143 8       487.000         318.000         144.000                  
G15  20219078.261    20219078.116    20219078.583                   -22061988.088 9 -22061988.088 9                 -17191162.945 8       535.000         645.000         414.000                  
G17  20385862.079    20385861.695    20385862.442                   -22440293.942 9 -22440293.944 9                 -17485944.293 9       560.000         684.000         538.000                  
G19  21523957.370    21523955.825    21523955.901                   -14391356.523 8 -14391356.524 8                 -11214047.760 7       356.000         125.000          78.000                  
G22  19882525.532    19882524.548    19882524.929                   -27163800.340 9 -27163800.343 8                 -21166596.885 8       638.000         317.000         245.000                  
G23  24685261.562    24685261.614    24685263.525                      903546.743 7    903546.738 6                    704065.231 6        80.000          22.000          19.000                  
G24  23072664.662    23072663.605    23072667.335                    -7227161.172 8  -7227161.166 7                  -5631558.907 8       153.000          61.000         211.000                  
G30  22551852.739    22551851.367    22551855.304                   -11527407.676 8 -11527407.680 8                  -8982400.566 8       204.000         103.000         136.000                  
> 2024 10 31 14 07 50.0000000  0 10
G02  25475393.991    25475390.765    25475406.581                     1874394.740 7   1874394.746 6                   1460566.232 6        62.000          23.000          20.000                  
G13  19283175.284    19283174.791    19283175.169                   -26259036.709 9 -26259036.710 8                 -20461589.224 8       696.000         294.000         314.000                  
G14  20629835.535    20629835.193    20629835.930                   -20732859.294 8 -20732859.288 8                 -16155476.117 8       479.000         314.000         127.000                  
G15  20238301.746    20238301.258    20238301.863                   -21960969.415 9 -21960969.416 9                 -17112447.139 8       544.000         660.000         359.000                  
G17  20357992.703    20357992.189    20357992.857                   -22586749.629 9 -22586749.630 9                 -17600065.618 9       579.000         711.000         515.000                  
G19  21461302.436    21461301.136    21461301.548                   -14720609.274 8 -14720609.275 8                 -11470608.318 7       374.000         135.000          69.000                  
G22  19903136.555    19903135.625    19903135.910                   -27055488.929 9 -27055488.928 8                 -21082198.418 8       653.000         331.000         227.000                  
G23  24745657.788    24745657.525    24745657.052                     1220931.322 7   1220931.303 6                    951371.684 6        76.000          21.000          18.000                  
G24  23112757.162    23112756.934    23112760.103                    -7016471.463 8  -7016471.473 7                  -5467385.175 8       153.000          58.000         185.000                  
G30  22533240.667    22533239.845    22533243.768                   -11625212.417 8 -11625212.420 7                  -9058612.064 8       207.000          98.000         131.000                  
> 2024 10 31 14 08  0.0000000  0 10
G02  25505801.943    25505798.258    25505827.730                     2034187.165 7   2034187.147 6                   1585077.366 6        62.000          21.000          18.000                  
G13  19270725.452    19270724.769    19270725.108                   -26324462.164 9 -26324462.164 8                 -20512570.128 8       700.000         288.000         339.000                  
G14  20659373.701    20659373.518    20659374.206                   -20577634.641 8 -20577634.632 8                 -16034521.903 8       482.000         311.000         132.000                  
G15  20258104.351    20258104.151    20258104.649                   -21856905.553 9 -21856905.555 9                 -17031358.456 8       561.000         701.000         368.000                  
G17  20331184.191    20331183.729    20331184.403                   -22727628.828 9 -22727628.830 9                 -17709841.630 9       584.000         730.000         547.000                  
G19  21399362.186    21399360.519    21399361.000                   -15046108.173 8 -15046108.176 8                 -11724243.794 7       402.000         155.000          79.000                  
G22  19924808.509    19924807.523    19924807.884                   -26941601.610 9 -26941601.614 8                 -20993455.098 8       681.000         356.000         240.000                  
G23  24806073.766    24806073.460    24806073.694                     1538422.650 7   1538422.653 6                   1198761.113 6        75.000          24.000          18.000                  
G24  23153203.742    23153204.251    23153207.787                    -6803920.237 8  -6803920.234 7                  -5301760.916 8       152.000          66.000         191.000                  
G30  22515078.080    22515077.368    22515081.272                   -11720657.593 8 -11720657.595 8                  -9132984.948 8       212.000         105.000         135.000                  
> 2024 10 31 14 08 10.0000000  0 10
G02  25536636.653    25536630.480    25536646.198                     2196214.360 7   2196214.346 6                   1711334.885 6        65.000          20.000          19.000                  
G13  19259019.410    19259018.864    19259019.365                   -26385977.266 9 -26385977.265 8                 -20560504.007 8       681.000         273.000         343.000                  
G14  20689736.995    20689736.589    20689737.521                   -20418075.720 8 -20418075.711 8                 -15910190.332 8       476.000         304.000         121.000                  
G15  20278477.694    20278477.456    20278478.042                   -21749842.937 9 -21749842.938 9                 -16947933.089 8       550.000         678.000         340.000                  
G17  20305438.120    20305437.814    20305438.492                   -22862924.754 9 -22862924.756 9                 -17815267.040 9       575.000         712.000         540.000                  
G19  21338144.371    21338142.685    21338143.136                   -15367810.809 8 -15367810.811 8                 -11974921.151 7       409.000         158.000          95.000                  
G22  19947529.407    19947528.401    19947528.679                   -26822202.980 9 -26822202.981 8                 -20900417.245 8       689.000         364.000         216.000                  
G23  24866497.722    24866498.997    24866501.255                     1855958.028 7   1855958.033 6                   1446194.492 6        69.000          23.000          25.000                  
G24  23193995.494    23193995.436    23193998.993                    -6589560.765 8  -6589560.761 7                  -5134727.635 8       149.000          58.000         168.000                  
G30  22497360.280    22497359.152    22497363.086                   -11813767.929 8 -11813767.931 8                  -9205538.451 8       208.000         105.000         140.000                  
> 2024 10 31 14 08 20.0000000  0 10
G02  25567893.889    25567889.873    25567919.866                     2360479.145 7   2360479.175 6                   1839330.947 6        67.000          20.000          19.000                  
G13  19248065.970    19248065.407    19248065.867                   -26443537.795 9 -26443537.794 8                 -20605356.403 8       669.000         263.000         307.000                  
G14  20720922.269    20720921.949    20720922.721                   -20254195.627 8 -20254195.620 8                 -15782491.605 8       465.000         293.000         110.000                  
G15  20299424.874    20299424.523    20299425.057                   -21639766.005 9 -21639766.007 9                 -16862158.902 8       538.000         649.000         313.000                  
G17  20280767.599    20280767.161    20280767.851                   -22992570.073 9 -22992570.074 9                 -17916289.379 9       568.000         695.000         519.000                  
G19  21277668.612    21277666.829    21277667.116                   -15685612.990 8 -15685612.993 8                 -12222559.188 7       411.000         170.000          90.000                  
G22  19971298.253    19971297.356    19971297.479                   -26697297.022 9 -26697297.023 8                 -20803087.967 8       693.000         376.000         190.000                  
G23  24926933.688    24926932.278    24926937.523                     2173537.064 7   2173537.065 6                   1693654.214 6        69.000          22.000          16.000                  
G24  23235132.455    23235132.461    23235136.021                    -6373384.442 8  -6373384.448 7                  -4966278.633 8       146.000          56.000         147.000                  
G30  22480092.858    22480091.875    22480095.825                   -11904506.561 8 -11904506.564 8                  -9276243.881 8       211.000         112.000         123.000                  
> 2024 10 31 14 08 30.0000000  0 11
G02  25599567.542    25599565.200    25599576.059                     2526930.583 7   2526930.569 6                   1969035.940 6        67.000          19.000          18.000                  
G05  24932466.163    24932459.124    24932469.248                     -144724.879 7   -144724.893 6                   -112775.741 6        76.000          19.000          19.000                  
G13  19237863.224    19237862.646    19237863.147                   -26497153.731 9 -26497153.734 8                 -20647135.088 8       665.000         262.000         314.000                  
G14  20752917.127    20752916.664    20752917.602                   -20086061.757 8 -20086061.749 8                 -15651478.253 8       461.000         289.000         104.000                  
G15  20320938.010    20320937.732    20320938.505                   -21526712.981 9 -21526712.981 9                 -16774065.678 8       536.000         646.000         320.000                  
G17  20257174.146    20257174.026    20257174.866                   -23116552.323 9 -23116552.326 9                 -18012898.930 9       562.000         679.000         546.000                  
G19  21217944.432    21217943.030    21217943.252                   -15999464.190 8 -15999464.193 8                 -12467118.550 7       426.000         175.000         100.000                  
G22  19996103.970    19996102.895    19996103.224                   -26566942.679 9 -26566942.679 8                 -20701513.199 8       702.000         380.000         193.000                  
G23  24987362.889    24987364.218    24987371.839                     2491106.107 7   2491106.084 6                   1941115.806 6        60.000          21.000          18.000                  
G24  23276607.224    23276606.693    23276610.213                    -6155436.346 8  -6155436.348 7                  -4796449.028 8       148.000          53.000         131.000                  
G30  22463273.682    22463273.123    22463276.934                   -11992890.418 8 -11992890.421 8                  -9345114.428 8       217.000         122.000         137.000                  
> 2024 10 31 14 08 40.0000000  0 11
G02  25631656.574    25631651.620    25631681.241                     2695550.253 7   2695550.279 6                   2100425.424 6        71.000          19.000          16.000                  
G05  24899994.325    24899990.383    24899998.367                     -315365.772 7   -315365.771 6                   -245740.232 6        75.000          25.000          18.000                  
G13  19228415.251    19228414.790    19228415.256                   -26546802.751 9 -26546802.752 8                 -20685822.670 8       667.000         262.000         316.000                  
G14  20785714.577    20785714.387    20785715.164                   -19913709.223 8 -19913709.217 8                 -15517177.633 8       460.000         283.000         102.000                  
G15  20343016.561    20343016.263    20343016.965                   -21410689.750 9 -21410689.750 9                 -16683658.012 8       532.000         633.000         309.000                  
G17  20234667.445    20234666.944    20234667.798                   -23234827.715 9 -23234827.717 9                 -18105061.585 9       558.000         679.000         560.000                  
G19  21158988.350    21158986.976    21158987.102                   -16309281.048 8 -16309281.047 8                 -12708534.263 7       438.000         187.000          94.000                  
G22  20021941.299    20021940.155    20021940.261                   -26431167.213 9 -26431167.213 8                 -20595714.181 8       697.000         374.000         186.000                  
G23  25047790.682    25047790.535    25047795.065                     2808644.877 7   2808644.888 6                   2188574.242 6        57.000          22.000          16.000                  
G24  23318416.747    23318415.882    23318419.096                    -5935728.604 8  -5935728.619 7                  -4625248.268 8       143.000          54.000         127.000                  
G30  22446906.058    22446905.531    22446909.317                   -12078903.714 8 -12078903.717 8                  -9412137.787 8       219.000         113.000         128.000                  
> 2024 10 31 14 08 50.0000000  0 11
G02  25664150.552    25664145.529    25664154.544                     2866309.279 7   2866309.285 6                   2233486.992 6        73.000          22.000          16.000                  
G05  24867585.432    24867583.001    24867603.145                     -485677.234 7   -485677.237 6                   -378452.798 6        72.000          26.000          19.000                  
G13  19219724.514    19219724.044    19219724.502                   -26592473.565 9 -26592473.566 8                 -20721410.351 8       673.000         270.000         297.000                  
G14  20819306.390    20819305.998    20819307.211                   -19737183.996 8 -19737183.990 8                 -15379625.572 8       458.000         283.000         103.000                  
G15  20365657.425    20365657.014    20365657.600                   -21291712.603 9 -21291712.604 9                 -16590948.593 8       534.000         645.000         294.000                  
G17  20213252.274    20213251.867    20213252.922                   -23347363.960 9 -23347363.964 9                 -18192752.178 9       559.000         670.000         554.000                  
G19  21100813.650    21100812.345    21100812.485                   -16614990.642 8 -16614990.640 8                 -12946749.514 8       458.000         199.000         107.000                  
G22  20048802.619    20048801.659    20048802.065                   -26290009.263 9 -26290009.264 8                 -20485721.018 8       686.000         354.000         180.000                  
G23  25108205.459    25108204.177    25108209.789                     3126123.161 6   3126123.125 6                   2435970.324 6        50.000          17.000          18.000                  
G24  23360555.300    23360555.251    23360558.574                    -5714283.689 8  -5714283.679 7                  -4452693.885 8       141.000          51.000         118.000                  
G30  22430990.013    22430989.916    22430993.788                   -12162541.157 8 -12162541.157 8                  -9477309.837 8       220.000         122.000         132.000                  
> 2024 10 31 14 09  0.0000000  0 10
G02  25697043.903    25697040.072    25697068.295                     3039165.567 7   3039165.567 6                   2368177.718 6        74.000          23.000          15.000                  
G05  24835238.845    24835238.002    24835245.478                     -655654.662 7   -655654.656 6                   -510902.159 6        80.000          25.000          20.000                  
G13  19211790.240    19211789.742    19211790.246                   -26634168.504 9 -26634168.503 8                 -20753899.946 8       679.000         279.000         286.000                  
G14  20853680.620    20853680.221    20853681.498                   -19556545.713 8 -19556545.707 8                 -15238868.520 7       449.000         271.000          94.000                  
G15  20388854.232    20388854.082    20388854.612                   -21169811.179 9 -21169811.181 9                 -16495960.516 8       536.000         641.000         306.000                  
G17  20192932.877    20192932.579    20192933.509                   -23454143.403 9 -23454143.405 9                 -18275956.953 9       581.000         713.000         560.000                  
G19  21043432.215    21043430.546    21043430.985                   -16916533.311 8 -16916533.314 8                 -13181717.815 8       468.000         216.000         112.000                  
G22  20076678.421    20076677.252    20076677.753                   -26143521.821 9 -26143521.822 8                 -20371575.002 8       686.000         371.000         185.000                  
G24  23403018.661    23403018.505    23403022.131                    -5491137.136 8  -5491137.127 7                  -4278813.550 8       139.000          54.000         112.000                  
G30  22415525.592    22415524.717    22415528.478                   -12243810.786 8 -12243810.782 8                  -9540636.835 8       226.000         130.000         127.000                  
> 2024 10 31 14 09 10.0000000  0 10
G02  25730334.050    25730331.855    25730340.176                     3214109.176 7   3214109.184 6                   2504499.993 6        71.000          20.000          21.000                  
G05  24802963.632    24802962.427    24802965.403                     -825260.711 7   -825260.706 6                   -643062.694 6        75.000          24.000          26.000                  
G13  19204618.055    19204617.589    19204618.204                   -26671858.044 9 -26671858.045 8                 -20783268.449 8       692.000         285.000         285.000                  
G14  20888832.633    20888832.241    20888833.277                   -19371822.106 8 -19371822.100 8                 -15094928.091 7       449.000         269.000          95.000                  
G15  20412608.139    20412608.092    20412608.828                   -21044982.926 9 -21044982.927 9                 -16398691.798 8       534.000         639.000         305.000                  
G17  20173718.222    20173717.937    20173718.702                   -23555117.470 9 -23555117.472 9                 -18354638.059 9       593.000         750.000         566.000                  
G19  20986860.869    20986859.485    20986859.820                   -17213817.034 8 -17213817.037 8                 -13413367.456 8       479.000         222.000         122.000                  
G22  20105564.032    20105562.945    20105563.576                   -25991726.403 9 -25991726.407 8                 -20253292.905 8       688.000         363.000         181.000                  
G24  23445805.811    23445805.560    23445809.169                    -5266291.980 8  -5266291.973 6                  -4103609.627 8       134.000          48.000         107.000                  
G30  22400515.799    22400514.821    22400518.911                   -12322688.345 8 -12322688.347 8                  -9602099.891 8       229.000         135.000         125.000                  
> 2024 10 31 14 09 20.0000000  0 10
G02  25764013.719    25764008.341    25764038.357                     3391084.562 7   3391084.547 6                   2642400.421 6        72.000          20.000          21.000                  
G05  24770758.498    24770756.898    24770759.709                     -994503.407 7   -994503.378 6                   -774940.097 6        79.000          27.000          27.000                  
G13  19198205.203    19198204.726    19198205.125                   -26705558.936 9 -26705558.934 8                 -20809528.909 8       704.000         295.000         277.000                  
G14  20924747.683    20924747.264    20924748.311                   -19183087.003 8 -19183086.995 8                 -14947861.828 7       445.000         259.000          91.000                  
G15  20436910.858    20436910.900    20436911.641                   -20917271.150 9 -20917271.149 9                 -16299176.176 8       533.000         633.000         300.000                  
G17  20155608.560    20155608.240    20155608.932                   -23650284.551 9 -23650284.554 9                 -18428794.245 9       603.000         785.000         573.000                  
G19  20931108.940    20931107.358    20931107.932                   -17506795.891 8 -17506795.896 8                 -13641662.658 8       491.000         229.000         125.000                  
G22  20135446.704    20135445.800    20135446.323                   -25834691.294 9 -25834691.295 8                 -20130927.927 8       681.000         356.000         173.000                  
G24  23488906.051    23488905.826    23488908.897                    -5039796.880 8  -5039796.867 6                  -3927120.035 8       135.000          47.000         107.000                  
G30  22385956.923    22385955.973    22385960.074                   -12399195.351 8 -12399195.348 8                  -9661715.771 8       236.000         140.000         119.000                  
> 2024 10 31 14 09 30.0000000  0 10
G02  25798074.127    25798072.177    25798080.166                     3570088.442 7   3570088.438 6                   2781886.528 6        68.000          18.000          17.000                  
G05  24738628.429    24738627.987    24738632.334                    -1163338.042 7  -1163338.042 6                   -906499.533 6        77.000          29.000          22.000                  
G13  19192557.716    19192557.428    19192557.845                   -26735235.943 9 -26735235.941 8                 -20832653.878 8       708.000         311.000         285.000                  
G14  20961421.840    20961421.735    20961422.636                   -18990362.162 8 -18990362.157 8                 -14797686.687 7       430.000         249.000          82.000                  
G15  20461764.471    20461764.123    20461764.917                   -20786666.628 9 -20786666.629 9                 -16197406.469 8       530.000         631.000         318.000                  
G17  20138614.209    20138613.553    20138614.451                   -23739591.925 9 -23739591.929 9                 -18498384.427 9       612.000         807.000         585.000                  
G19  20876194.912    20876193.304    20876193.831                   -17795371.536 9 -17795371.536 8                 -13866526.785 8       502.000         251.000         140.000                  
G22  20166323.415    20166322.642    20166323.149                   -25672433.227 9 -25672433.228 8                 -20004493.110 8       679.000         357.000         176.000                  
G24  23532321.351    23532321.495    23532325.238                    -4811647.810 8  -4811647.804 6                  -3749341.646 8       132.000          37.000         102.000                  
G30  22371854.915    22371854.280    22371858.060                   -12473301.000 8 -12473300.999 8                  -9719460.461 8       235.000         138.000         127.000                  
> 2024 10 31 14 09 40.0000000  0 10
G02  25832514.349    25832509.655    25832539.449                     3751062.990 7   3751062.991 6                   2922903.205 6        66.000          24.000          16.000                  
G05  24706576.050    24706576.589    24706579.841                    -1331773.992 7  -1331774.001 6                  -1037748.313 6        81.000          30.000          27.000                  
G13  19187672.426    19187671.928    19187672.393                   -26760909.105 9 -26760909.105 8                 -20852658.971 8       711.000         303.000         288.000                  
G14  20998841.001    20998840.573    20998841.466                   -18793724.301 8 -18793724.294 8                 -14644462.442 7       421.000         232.000          77.000                  
G15  20487159.612    20487159.108    20487159.985                   -20653215.118 9 -20653215.119 9                 -16093418.328 8       526.000         622.000         322.000                  
G17  20122733.812    20122733.378    20122734.212                   -23823042.888 9 -23823042.890 9                 -18563411.172 9       615.000         809.000         588.000                  
G19  20822126.826    20822125.296    20822125.560                   -18079500.414 9 -18079500.414 8                 -14087925.900 8       505.000         255.000         135.000                  
G22  20198180.347    20198179.412    20198179.776                   -25505024.604 9 -25505024.606 8                 -19874044.877 8       677.000         351.000         166.000                  
G24  23576042.628    23576042.382    23576045.388                    -4581895.354 8  -4581895.360 6                  -3570313.861 7       127.000          44.000         100.000                  
G30  22358205.640    22358204.982    22358208.948                   -12545029.197 8 -12545029.196 8                  -9775352.595 8       237.000         136.000         120.000                  
> 2024 10 31 14 09 50.0000000  0 10
G02  25867325.645    25867322.321    25867330.737                     3934003.684 7   3934003.673 6                   3065456.960 6        63.000          24.000          14.000                  
G05  24674608.161    24674608.771    24674611.926                    -1499767.014 7  -1499767.038 6                  -1168651.983 6        86.000          27.000          32.000                  
G13  19183555.292    19183554.679    19183555.112                   -26782545.497 9 -26782545.498 8                 -20869518.534 8       719.000         306.000         300.000                  
G14  21037000.238    21036999.831    21037000.642                   -18593197.075 8 -18593197.069 8                 -14488207.515 7       415.000         223.000          78.000                  
G15  20513097.537    20513097.389    20513098.167                   -20516909.004 9 -20516909.004 9                 -15987205.830 8       528.000         634.000         314.000                  
G17  20107977.343    20107976.929    20107977.794                   -23900588.986 9 -23900588.989 9                 -18623836.729 9       616.000         819.000         610.000                  
G19  20768923.674    20768921.935    20768922.224                   -18359085.871 9 -18359085.869 8                 -14305784.683 8       511.000         253.000         140.000                  
G22  20231013.482    20231012.602    20231012.972                   -25332485.161 9 -25332485.162 8                 -19739598.600 8       672.000         350.000         170.000                  
G24  23620068.957    23620067.815    23620072.246                    -4350536.485 8  -4350536.477 6                  -3390034.331 7       121.000          36.000         100.000                  
G30  22345014.274    22345013.512    22345017.326                   -12614350.555 8 -12614350.553 8                  -9829369.273 8       241.000         146.000         123.000                  
> 2024 10 31 14 10  0.0000000  0 10
G02  25902503.610    25902497.951    25902524.414                     4118855.148 7   4118855.133 6                   3209494.600 6        60.000          23.000          14.000                  
G05  24642723.528    24642723.397    24642726.751                    -1667323.196 7  -1667323.213 6                  -1299215.242 6        88.000          27.000          35.000                  
G13  19180202.600    19180202.051    19180202.573                   -26800163.711 9 -26800163.713 8                 -20883247.047 8       712.000         301.000         333.000                  
G14  21075884.919    21075884.804    21075885.389                   -18388855.299 8 -18388855.290 8                 -14328980.214 7       399.000         212.000          76.000                  
G15  20539571.021    20539570.613    20539571.319                   -20377791.576 9 -20377791.575 9                 -15878802.699 8       525.000         612.000         317.000                  
G17  20094343.723    20094343.309    20094344.237                   -23972233.994 9 -23972233.996 9                 -18679664.031 9       622.000         829.000         647.000                  
G19  20716593.217    20716591.959    20716592.172                   -18634082.305 9 -18634082.307 8                 -14520067.614 8       515.000         252.000         150.000                  
G22  20264809.438    20264808.564    20264808.964                   -25154886.501 9 -25154886.503 8                 -19601210.078 8       664.000         348.000         171.000                  
G24  23664390.476    23664391.196    23664395.044                    -4117618.933 8  -4117618.931 6                  -3208540.244 8       121.000          44.000         103.000                  
G30  22332276.398    22332275.657    22332279.749                   -12681286.669 8 -12681286.666 8                  -9881527.321 8       241.000         133.000         126.000                  
> 2024 10 31 14 10 10.0000000  0 10
G02  25938040.835    25938034.618    25938043.330                     4305603.085 7   4305603.087 6                   3355015.033 6        57.000          19.000          18.000                  
G05  24610929.658    24610928.153    24610931.235                    -1834407.234 7  -1834407.208 6                  -1429410.628 6        93.000          27.000          31.000                  
G13  19177618.754    19177618.253    19177618.834                   -26813741.717 9 -26813741.717 8                 -20893827.353 8       714.000         306.000         336.000                  
G14  21115489.355    21115488.923    21115490.001                   -18180732.965 8 -18180732.959 8                 -14166807.029 7       386.000         200.000          67.000                  
G15  20566578.576    20566578.382    20566579.087                   -20235865.189 9 -20235865.190 9                 -15768210.773 8       511.000         590.000         296.000                  
G17  20081839.978    20081839.508    20081840.548                   -24037942.001 9 -24037942.004 9                 -18730865.106 9       622.000         829.000         652.000                  
G19  20665152.938    20665151.536    20665151.724                   -18904403.359 9 -18904403.361 8                 -14730707.390 8       520.000         258.000         164.000                  
G22  20299562.376    20299561.247    20299561.581                   -24972259.780 9 -24972259.783 8                 -19458903.587 8       655.000         335.000         159.000                  
G24  23709010.292    23709008.817    23709013.194                    -3883149.096 8  -3883149.096 6                  -3025836.583 8       117.000          39.000         103.000                  
G30  22319996.178    22319995.816    22319999.697                   -12745818.054 8 -12745818.052 8                  -9931811.554 8       239.000         131.000         126.000                  
> 2024 10 31 14 10 20.0000000  0 11
G02  25973929.131    25973923.120    25973947.904                     4494202.881 7   4494202.864 6                   3501973.479 6        54.000          18.000          20.000                  
G05  24579224.061    24579224.362    24579227.229                    -2001014.235 7  -2001014.237 6                  -1559234.271 6        92.000          29.000          36.000                  
G12  24973737.664    24973747.481    24973769.555                     -113585.768 7   -113585.760 6                    -88510.860 6        81.000          22.000          17.000                  
G13  19175802.086    19175801.618    19175802.036                   -26823288.723 9 -26823288.723 8                 -20901266.625 8       712.000         304.000         354.000                  
G14  21155800.861    21155800.547    21155801.587                   -17968895.010 8 -17968894.999 8                 -14001738.559 7       380.000         194.000          69.000                  
G15  20594114.613    20594114.111    20594114.976                   -20091163.016 8 -20091163.019 9                 -15655455.898 8       493.000         549.000         278.000                  
G17  20070466.516    20070466.162    20070467.175                   -24097709.321 9 -24097709.324 9                 -18777437.070 9       627.000         838.000         665.000                  
G19  20614612.795    20614611.418    20614611.642                   -19169993.828 9 -19169993.829 8                 -14937660.999 8       531.000         274.000         180.000                  
G22  20335259.719    20335258.899    20335259.239                   -24784667.687 9 -24784667.689 8                 -19312727.977 8       654.000         335.000         152.000                  
G24  23753916.243    23753915.471    23753919.810                    -3647164.010 8  -3647164.007 6                  -2841952.225 7       119.000          37.000         100.000                  
G30  22308172.672    22308171.434    22308175.529                   -12807956.124 8 -12807956.123 8                  -9980230.869 8       240.000         136.000         137.000                  
> 2024 10 31 14 10 30.0000000  0 10
G05  24547615.618    24547616.123    24547618.489                    -2167119.266 7  -2167119.275 6                  -1688666.776 6        97.000          29.000          32.000                  
G12  24949330.717    24949332.363    24949340.841                     -241851.018 7   -241851.030 6                   -188455.281 6        81.000          26.000          19.000                  
G13  19174754.368    19174753.601    19174754.256                   -26828794.989 9 -26828794.992 8                 -20905557.266 8       700.000         292.000         373.000                  
G14  21196810.793    21196810.434    21196811.701                   -17753386.977 8 -17753386.972 8                 -13833810.282 7       374.000         196.000          82.000                  
G15  20622175.725    20622175.756    20622176.662                   -19943698.611 8 -19943698.611 9                 -15540548.639 8       469.000         504.000         285.000                  
G17  20060227.684    20060227.443    20060228.374                   -24151514.224 9 -24151514.226 9                 -18819362.996 9       625.000         841.000         674.000                  
G19  20564987.117    20564985.438    20564985.973                   -19430779.232 9 -19430779.230 8                 -15140870.403 8       538.000         284.000         181.000                  
G22  20371893.901    20371893.012    20371893.517                   -24592154.103 9 -24592154.104 8                 -19162717.442 8       638.000         313.000         163.000                  
G24  23799107.423    23799107.730    23799111.159                    -3409680.920 8  -3409680.930 6                  -2656900.577 7       113.000          39.000          97.000                  
G30  22296804.439    22296804.012    22296808.010                   -12867692.707 8 -12867692.709 8                 -10026778.898 8       235.000         141.000         138.000                  
> 2024 10 31 14 10 40.0000000  0 10
G05  24516109.691    24516108.571    24516110.933                    -2332689.509 7  -2332689.495 6                  -1817682.590 6        97.000          29.000          37.000                  
G12  24925292.849    24925293.014    24925317.613                     -368162.886 7   -368162.889 6                   -286882.554 6        87.000          29.000          16.000                  
G13  19174478.674    19174478.146    19174478.683                   -26830243.685 9 -26830243.685 8                 -20906686.164 8       702.000         292.000         373.000                  
G14  21238511.824    21238511.482    21238512.745                   -17534247.037 8 -17534247.031 8                 -13663051.951 7       361.000         177.000          79.000                  
G15  20650761.892    20650761.762    20650762.806                   -19793477.999 8 -19793477.998 8                 -15423493.690 8       457.000         469.000         274.000                  
G17  20051129.153    20051128.659    20051129.572                   -24199328.904 9 -24199328.906 9                 -18856621.218 9       628.000         845.000         653.000                  
G19  20516291.170    20516289.575    20516290.053                   -19686678.028 9 -19686678.032 8                 -15340272.063 8       543.000         283.000         178.000                  
G22  20409457.578    20409456.527    20409457.343                   -24394756.020 9 -24394756.019 8                 -19008900.807 8       632.000         311.000         160.000                  
G24  23844582.853    23844581.959    23844586.394                    -3170709.354 8  -3170709.355 6                  -2470689.091 7       110.000          38.000          90.000                  
G30  22285897.089    22285896.535    22285900.566                   -12925012.239 8 -12925012.234 8                 -10071443.514 8       232.000         130.000         144.000                  
> 2024 10 31 14 10 50.0000000  0 10
G05  24484701.923    24484700.848    24484703.897                    -2497739.397 7  -2497739.381 6                  -1946292.933 6       100.000          28.000          41.000                  
G12  24901627.877    24901627.347    24901635.579                     -492524.095 7   -492524.084 6                   -383784.851 6        85.000          28.000          22.000                  
G13  19174969.308    19174968.646    19174969.272                   -26827666.032 9 -26827666.033 8                 -20904677.653 8       696.000         288.000         380.000                  
G14  21280887.426    21280887.120    21280888.194                   -17311561.076 8 -17311561.069 8                 -13489530.490 7       345.000         164.000          89.000                  
G15  20679862.308    20679862.214    20679863.126                   -19640554.920 8 -19640554.922 8                 -15304332.925 8       452.000         462.000         278.000                  
G17  20043166.131    20043165.712    20043166.548                   -24241174.585 9 -24241174.588 9                 -18889228.274 9       635.000         866.000         686.000                  
G19  20468531.379    20468529.933    20468530.243                   -19937656.698 9 -19937656.699 8                 -15535839.865 8       546.000         284.000         201.000                  
G22  20447934.592    20447933.548    20447934.079                   -24192558.594 9 -24192558.594 8                 -18851344.420 8       635.000         310.000         167.000                  
G24  23890329.685    23890328.958    23890333.208                    -2930306.195 8  -2930306.218 6                  -2283362.081 7       108.000          31.000          92.000                  
G30  22275443.461    22275442.896    22275446.836                   -12979946.749 8 -12979946.750 8                 -10114249.680 8       227.000         125.000         154.000                  
> 2024 10 31 14 11  0.0000000  0 10
G05  24453402.348    24453401.838    24453405.092                    -2662215.027 8  -2662215.031 6                  -2074455.800 6       104.000          30.000          50.000                  
G12  24878346.719    24878346.077    24878365.760                     -614869.469 7   -614869.481 6                   -479121.340 6        83.000          25.000          21.000                  
G13  19176232.730    19176232.252    19176232.882                   -26821025.991 9 -26821025.991 8                 -20899503.646 8       704.000         296.000         367.000                  
G14  21323935.088    21323934.182    21323935.412                   -17085347.262 8 -17085347.256 8                 -13313260.057 7       336.000         153.000          90.000                  
G15  20709479.864    20709479.503    20709480.487                   -19484915.344 8 -19484915.345 8                 -15183055.410 8       448.000         446.000         275.000                  
G17  20036347.541    20036347.253    20036348.093                   -24277006.265 9 -24277006.267 9                 -18917149.098 9       644.000         903.000         691.000                  
G19  20421727.171    20421725.745    20421726.097                   -20183614.406 9 -20183614.406 8                 -15727495.234 8       559.000         308.000         211.000                  
G22  20487321.212    20487320.346    20487321.306                   -23985579.782 9 -23985579.783 8                 -18690062.283 8       641.000         313.000         160.000                  
G24  23936352.359    23936351.237    23936354.941                    -2688460.268 8  -2688460.275 6                  -2094910.858 7       108.000          33.000          85.000                  
G30  22265450.607    22265449.755    22265453.791                   -13032460.519 8 -13032460.513 8                 -10155169.555 8       222.000         124.000         151.000                  
> 2024 10 31 14 11 10.0000000  0 10
G05  24422209.963    24422209.797    24422212.253                    -2826132.713 8  -2826132.721 6                  -2202183.934 6       103.000          31.000          45.000                  
G12  24855447.390    24855446.605    24855450.556                     -735204.400 7   -735204.393 6                   -572887.605 6        87.000          22.000          23.000                  
G13  19178262.947    19178262.361    19178262.859                   -26810358.681 9 -26810358.679 8                 -20891191.509 8       707.000         295.000         375.000                  
G14  21367635.573    21367635.452    21367636.783                   -16855694.456 8 -16855694.445 8                 -13134309.894 7       323.000         137.000          96.000                  
G15  20739603.281    20739603.095    20739604.049                   -19326615.651 8 -19326615.651 8                 -15059705.076 8       440.000         441.000         285.000                  
G17  20030668.391    20030668.028    20030668.789                   -24306851.025 9 -24306851.028 9                 -18940404.793 9       653.000         927.000         720.000                  
G19  20375884.231    20375882.673    20375882.928                   -20424521.502 9 -20424521.503 8                 -15915215.067 8       558.000         302.000         221.000                  
G22  20527601.173    20527600.100    20527600.643                   -23773908.766 9 -23773908.766 8                 -18525123.888 8       644.000         319.000         158.000                  
G24  23982636.566    23982636.243    23982640.589                    -2445230.850 8  -2445230.861 6                  -1905381.598 7       102.000          31.000          83.000                  
G30  22255911.431    22255910.508    22255914.582                   -13082588.483 8 -13082588.481 8                 -10194230.370 8       221.000         122.000         171.000                  
> 2024 10 31 14 11 20.0000000  0 10
G05  24391134.126    24391133.540    24391136.334                    -2989439.582 8  -2989439.587 6                  -2329436.083 6       103.000          35.000          42.000                  
G12  24832943.339    24832942.721    24832944.306                     -853465.672 7   -853465.659 6                   -665039.366 6        87.000          28.000          21.000                  
G13  19181065.459    19181064.918    19181065.459                   -26795631.029 9 -26795631.027 8                 -20879715.469 8       716.000         306.000         363.000                  
G14  21411988.468    21411987.895    21411989.515                   -16622622.846 8 -16622622.840 8                 -12952695.722 8       317.000         131.000         108.000                  
G15  20770235.308    20770235.077    20770236.197                   -19165643.737 8 -19165643.739 8                 -14934272.500 8       438.000         428.000         273.000                  
G17  20026136.055    20026135.675    20026136.470                   -24330668.842 9 -24330668.844 9                 -18958964.171 9       656.000         922.000         714.000                  
G19  20331020.776    20331019.249    20331019.759                   -20660280.167 9 -20660280.167 8                 -16098923.133 8       563.000         300.000         217.000                  
G22  20568769.751    20568768.747    20568769.236                   -23557566.608 9 -23557566.607 8                 -18356545.649 8       633.000         310.000         153.000                  
G24  24029187.760    24029186.364    24029190.579                    -2200608.248 7  -2200608.270 6                  -1714766.760 7        98.000          36.000          78.000                  
G30  22246832.974    22246832.080    22246836.383                   -13130296.973 8 -13130296.972 8                 -10231405.881 8       222.000         115.000         174.000                  
> 2024 10 31 14 11 30.0000000  0 10
G05  24360171.926    24360171.551    24360173.733                    -3152146.301 8  -3152146.292 6                  -2456220.593 7       105.000          30.000          51.000                  
G12  24810833.873    24810832.171    24810835.912                     -969653.600 7   -969653.586 6                   -755575.504 6        89.000          25.000          19.000                  
G13  19184634.812    19184634.323    19184634.668                   -26776874.178 9 -26776874.175 8                 -20865099.799 8       707.000         296.000         346.000                  
G14  21456974.692    21456974.591    21456976.116                   -16386216.295 8 -16386216.286 8                 -12768482.906 8       305.000         131.000         102.000                  
G15  20801365.799    20801365.665    20801366.713                   -19002051.010 8 -19002051.011 8                 -14806797.730 8       434.000         426.000         270.000                  
G17  20022745.629    20022745.474    20022746.261                   -24348484.794 9 -24348484.797 9                 -18972846.776 9       654.000         909.000         726.000                  
G19  20287143.485    20287141.895    20287142.407                   -20890856.885 9 -20890856.887 8                 -16278593.330 8       568.000         305.000         235.000                  
G22  20610811.062    20610809.957    20610810.720                   -23336638.426 9 -23336638.425 8                 -18184393.886 8       623.000         295.000         154.000                  
G24  24075993.182    24075991.549    24075995.990                    -1954646.187 8  -1954646.195 6                  -1523108.200 7       101.000          31.000          77.000                  
G30  22238208.422    22238208.413    22238212.351                   -13175615.968 8 -13175615.963 8                 -10266719.460 8       225.000         124.000         180.000                  
> 2024 10 31 14 11 40.0000000  0 10
G05  24329332.705    24329332.635    24329335.199                    -3314207.431 8  -3314207.438 6                  -2582502.075 6       108.000          34.000          48.000                  
G12  24789129.506    24789127.107    24789130.725                    -1083713.186 7  -1083713.191 6                   -844453.206 6        89.000          25.000          22.000                  
G13  19188975.449    19188974.900    19188975.504                   -26754064.292 9 -26754064.294 8                 -20847325.921 8       705.000         300.000         358.000                  
G14  21502590.747    21502590.504    21502592.338                   -16146503.313 8 -16146503.308 8                 -12581693.670 8       294.000         117.000         105.000                  
G15  20832996.252    20832995.864    20832996.971                   -18835833.500 8 -18835833.500 8                 -14677277.685 8       436.000         415.000         272.000                  
G17  20020503.361    20020502.835    20020503.644                   -24360270.185 9 -24360270.187 9                 -18982030.247 9       639.000         883.000         751.000                  
G19  20244269.123    20244267.494    20244267.863                   -21116163.379 9 -21116163.381 8                 -16454156.862 8       566.000         311.000         251.000                  
G22  20653719.014    20653718.268    20653718.913                   -23111154.294 9 -23111154.295 8                 -18008692.035 8       613.000         289.000         144.000                  
G24  24123053.809    24123051.834    24123056.656                    -1707342.775 7  -1707342.763 6                  -1330404.434 7        99.000          31.000          72.000                  
G30  22230044.455    22230043.894    22230048.243                   -13218520.160 8 -13218520.160 8                 -10300151.378 8       229.000         130.000         203.000                  
> 2024 10 31 14 11 50.0000000  0 10
G05  24298615.242    24298614.970    24298617.845                    -3475627.982 8  -3475627.975 6                  -2708284.381 7       107.000          36.000          55.000                  
G12  24767830.709    24767828.760    24767831.559                    -1195639.935 7  -1195639.938 6                   -931668.997 6        92.000          31.000          23.000                  
G13  19194082.087    19194081.530    19194082.255                   -26727228.772 9 -26727228.773 8                 -20826415.190 8       695.000         288.000         363.000                  
G14  21548820.903    21548820.434    21548822.051                   -15903562.921 8 -15903562.916 8                 -12392389.570 8       282.000         112.000         104.000                  
G15  20865117.051    20865116.808    20865117.811                   -18667037.743 8 -18667037.744 8                 -14545748.620 8       431.000         415.000         280.000                  
G17  20019403.751    20019403.273    20019404.260                   -24366048.260 9 -24366048.262 9                 -18986532.697 9       637.000         874.000         759.000                  
G19  20202404.718    20202403.012    20202403.591                   -21336162.632 9 -21336162.634 8                 -16625584.884 8       576.000         317.000         263.000                  
G22  20697478.995    20697478.114    20697478.624                   -22881195.395 9 -22881195.394 8                 -17829503.363 8       606.000         285.000         136.000                  
G24  24170359.467    24170358.342    24170362.874                    -1458746.503 7  -1458746.514 6                  -1136693.278 7        97.000          38.000          70.000                  
G30  22222335.039    22222334.669    22222338.615                   -13259034.849 8 -13259034.846 8                 -10331721.350 8       228.000         129.000         215.000                  
> 2024 10 31 14 12  0.0000000  0 10
G05  24268026.611    24268026.209    24268029.367                    -3636373.508 8  -3636373.513 6                  -2833540.694 7       116.000          34.000          60.000                  
G12  24746944.991    24746943.391    24746946.539                    -1305390.580 7  -1305390.588 6                  -1017189.094 6        92.000          29.000          23.000                  
G13  19199956.689    19199956.428    19199957.083                   -26696356.474 9 -26696356.475 8                 -20802358.923 8       689.000         284.000         374.000                  
G14  21595657.254    21595657.216    21595658.354                   -15657435.184 8 -15657435.176 7                 -12200601.827 8       277.000         100.000         115.000                  
G15  20897727.178    20897726.863    20897727.902                   -18495671.411 8 -18495671.413 8                 -14412216.515 8       429.000         415.000         272.000                  
G17  20019450.084    20019449.616    20019450.602                   -24365804.977 9 -24365804.978 9                 -18986343.186 9       635.000         858.000         767.000                  
G19  20161564.292    20161562.947    20161563.495                   -21550779.456 9 -21550779.456 8                 -16792818.810 8       586.000         330.000         272.000                  
G22  20742082.347    20742081.410    20742081.889                   -22646804.324 9 -22646804.323 8                 -17646861.046 8       599.000         265.000         141.000                  
G24  24217910.021    24217909.069    24217913.832                    -1208866.620 7  -1208866.661 6                   -941981.920 7        98.000          29.000          65.000                  
G30  22215082.854    22215081.836    22215086.333                   -13297146.477 8 -13297146.477 8                 -10361418.812 8       230.000         130.000         221.000                  
> 2024 10 31 14 12 10.0000000  0 10
G05  24237569.648    24237569.591    24237572.362                    -3796425.236 8  -3796425.249 6                  -2958256.390 7       113.000          39.000          64.000                  
G12  24726481.010    24726478.281    24726482.219                    -1412937.743 7  -1412937.774 6                  -1100992.223 6        87.000          23.000          24.000                  
G13  19206598.792    19206598.363    19206598.993                   -26661452.899 9 -26661452.900 8                 -20775161.406 8       696.000         293.000         388.000                  
G14  21643090.215    21643089.442    21643091.245                   -15408176.122 8 -15408176.117 7                 -12006374.100 8       275.000         100.000         107.000                  
G15  20930821.817    20930821.593    20930822.637                   -18321758.049 8 -18321758.048 8                 -14276699.714 8       426.000         407.000         281.000                  
G17  20020641.555    20020641.061    20020642.119                   -24359543.863 9 -24359543.865 9                 -18981464.463 9       635.000         866.000         770.000                  
G19  20121759.686    20121758.216    20121758.450                   -21759955.483 9 -21759955.483 8                 -16955813.156 8       597.000         340.000         282.000                  
G22  20787517.532    20787516.549    20787517.085                   -22408040.010 9 -22408040.010 8                 -17460811.015 8       587.000         264.000         123.000                  
G24  24265700.062    24265699.458    24265704.166                     -957728.252 7   -957728.263 6                   -746289.934 7        99.000          30.000          66.000                  
G30  22208287.568    22208286.440    22208291.105                   -13332857.555 8 -13332857.557 8                 -10389245.724 8       236.000         136.000         239.000                  
> 2024 10 31 14 12 20.0000000  0 10
G05  24207246.296    24207245.611    24207248.803                    -3955779.007 8  -3955779.027 6                  -3082428.226 7       114.000          32.000          74.000                  
G12  24706435.824    24706435.324    24706437.764                    -1518269.070 7  -1518269.077 6                  -1183068.685 6        90.000          33.000          21.000                  
G13  19214004.140    19214003.437    19214004.173                   -26622538.725 9 -26622538.724 8                 -20744838.747 8       696.000         289.000         439.000                  
G14  21691105.080    21691104.699    21691106.371                   -15155856.487 8 -15155856.484 8                 -11809761.518 8       279.000         107.000         120.000                  
G15  20964393.832    20964393.647    20964394.796                   -18145335.992 8 -18145335.993 8                 -14139228.087 8       417.000         395.000         305.000                  
G17  20022974.485    20022973.947    20022975.018                   -24347284.827 9 -24347284.829 9                 -18971912.038 9       635.000         873.000         800.000                  
G19  20082998.172    20082996.878    20082997.152                   -21963648.099 9 -21963648.101 8                 -17114534.713 8       610.000         355.000         301.000                  
G22  20833771.143    20833770.087    20833770.773                   -22164976.631 9 -22164976.631 8                 -17271411.067 8       586.000         267.000         136.000                  
G24  24313722.966    24313722.143    24313725.883                     -705370.977 7   -705370.987 6                   -549648.179 7        96.000          33.000          65.000                  
G30  22201945.460    22201944.577    22201948.862                   -13366185.463 8 -13366185.462 8                 -10415215.622 8       238.000         136.000         250.000                  
> 2024 10 31 14 12 30.0000000  0 11
G05  24177063.355    24177062.779    24177066.339                    -4114387.536 8  -4114387.558 6                  -3206019.355 7       119.000          40.000          85.000                  
G06  24656355.653    24656353.102    24656363.296                     -337545.263 7   -337545.261 6                   -263025.619 6        74.000          25.000          22.000                  
G12  24686823.605    24686823.467    24686826.885                    -1621329.815 7  -1621329.822 6                  -1263375.922 6        92.000          31.000          25.000                  
G13  19222176.370    19222175.849    19222176.726                   -26579592.805 9 -26579592.806 8                 -20711374.475 9       701.000         292.000         510.000                  
G14  21739696.989    21739696.809    21739698.203                   -14900504.484 8 -14900504.478 8                 -11610786.053 8       279.000         107.000         128.000                  
G15  20998444.034    20998443.719    20998445.083                   -17966401.113 8 -17966401.112 8                 -13999798.419 8       400.000         368.000         358.000                  
G17  20026452.526    20026452.260    20026453.162                   -24329006.759 9 -24329006.761 9                 -18957669.461 9       644.000         885.000         884.000                  
G19  20045296.475    20045294.911    20045295.177                   -22161773.149 9 -22161773.151 8                 -17268917.907 8       617.000         377.000         343.000                  
G22  20880836.546    20880835.676    20880836.245                   -21917646.236 9 -21917646.239 8                 -17078686.186 8       589.000         266.000         140.000                  
G24  24361977.423    24361976.402    24361980.758                     -451791.761 7   -451791.741 6                   -352054.269 7        97.000          21.000          64.000                  
G30  22196061.674    22196060.851    22196065.170                   -13397105.154 8 -13397105.156 8                 -10439308.999 8       240.000         148.000         290.000                  
> 2024 10 31 14 12 40.0000000  0 11
G05  24147019.455    24147020.255    24147023.317                    -4272265.550 8  -4272265.558 6                  -3329041.246 7       124.000          34.000          93.000                  
G06  24583568.731    24583567.706    24583574.404                     -720045.017 7   -720045.002 6                   -561077.714 6        73.000          28.000          19.000                  
G12  24667643.721    24667641.963    24667645.427                    -1722127.360 7  -1722127.344 6                  -1341919.612 6        92.000          24.000          29.000                  
G13  19231108.311    19231107.742    19231108.485                   -26532656.542 9 -26532656.541 8                 -20674800.843 9       720.000         301.000         527.000                  
G14  21788848.816    21788848.484    21788850.030                   -14642210.314 8 -14642210.306 8                 -11409518.004 8       289.000         102.000         132.000                  
G15  21032961.273    21032961.159    21032962.567                   -17785011.327 8 -17785011.326 8                 -13858455.850 8       386.000         336.000         373.000                  
G17  20031068.244    20031067.787    20031068.655                   -24304752.211 9 -24304752.213 9                 -18938769.887 9       655.000         926.000         885.000                  
G19  20008657.935    20008656.438    20008656.717                   -22354309.530 9 -22354309.532 8                 -17418946.294 8       628.000         379.000         362.000                  
G22  20928696.020    20928695.232    20928695.971                   -21666143.259 9 -21666143.262 8                 -16882709.943 8       593.000         277.000         148.000                  
G24  24410453.372    24410452.471    24410456.819                     -197049.433 7   -197049.441 6                   -153554.072 7        92.000          27.000          62.000                  
G30  22190629.068    22190628.299    22190632.539                   -13425653.861 8 -13425653.862 8                 -10461554.853 8       245.000         150.000         301.000                  
> 2024 10 31 14 12 50.0000000  0 11
G05  24117126.597    24117126.172    24117129.165                    -4429360.278 8  -4429360.283 6                  -3451452.784 7       128.000          42.000          98.000                  
G06  24510976.889    24510976.779    24510983.746                    -1101512.419 7  -1101512.406 6                   -858324.953 6        66.000          21.000          25.000                  
G12  24648904.298    24648903.371    24648905.675                    -1820602.249 7  -1820602.237 6                  -1418653.431 6        93.000          30.000          26.000                  
G13  19240803.907    19240803.363    19240804.286                   -26481704.907 9 -26481704.907 8                 -20635098.353 9       725.000         304.000         543.000                  
G14  21838556.206    21838555.880    21838557.529                   -14380997.079 8 -14380997.075 8                 -11205975.367 8       292.000         108.000         134.000                  
G15  21067947.636    21067947.541    21067948.949                   -17601157.543 8 -17601157.543 8                 -13715193.294 8       375.000         313.000         378.000                  
G17  20036825.447    20036824.987    20036825.858                   -24274498.437 9 -24274498.439 9                 -18915195.596 9       664.000         942.000         892.000                  
G19  19973099.497    19973098.148    19973098.441                   -22541170.152 9 -22541170.154 8                 -17564552.016 8       640.000         392.000         369.000                  
G22  20977344.401    20977343.478    20977344.358                   -21410495.258 9 -21410495.258 8                 -16683503.816 8       588.000         274.000         140.000                  
G24  24459152.788    24459150.969    24459156.108                       58864.389 7     58864.370 6                     45858.949 7        92.000          23.000          60.000                  
G30  22185653.348    22185652.355    22185657.078                   -13451801.836 8 -13451801.836 8                 -10481930.011 8       250.000         158.000         299.000                  
> 2024 10 31 14 13  0.0000000  0 11
G05  24087379.103    24087378.876    24087381.659                    -4585683.585 8  -4585683.578 6                  -3573263.216 8       134.000          37.000         104.000                  
G06  24438587.520    24438586.284    24438593.763                    -1481925.497 7  -1481925.485 6                  -1154750.626 6        69.000          22.000          29.000                  
G12  24630606.754    24630605.240    24630609.020                    -1916760.284 7  -1916760.300 6                  -1493581.911 6        95.000          27.000          24.000                  
G13  19251256.258    19251255.630    19251256.655                   -26426778.655 9 -26426778.658 8                 -20592298.761 9       734.000         325.000         557.000                  
G14  21888802.321    21888801.844    21888803.665                   -14116952.807 8 -14116952.798 8                 -11000226.724 8       294.000         116.000         145.000                  
G15  21103392.158    21103392.054    21103393.417                   -17414895.665 8 -17414895.665 8                 -13570054.303 8       358.000         291.000         383.000                  
G17  20043715.688    20043715.453    20043716.274                   -24238289.409 9 -24238289.412 9                 -18886980.847 9       665.000         942.000         917.000                  
G19  19938625.373    19938623.707    19938624.034                   -22722334.071 9 -22722334.073 8                 -17705718.747 8       649.000         412.000         381.000                  
G22  21026763.720    21026762.904    21026763.500                   -21150795.159 9 -21150795.160 8                 -16481140.213 8       570.000         254.000         146.000                  
G24  24508063.775    24508062.579    24508067.735                      315893.210 7    315893.205 6                    246140.792 7        91.000          29.000          55.000                  
G30  22181128.255    22181127.060    22181131.226                   -13475584.526 8 -13475584.524 8                 -10500462.095 8       255.000         164.000         307.000                  
> 2024 10 31 14 13 10.0000000  0 11
G05  24057787.208    24057786.476    24057789.907                    -4741189.861 8  -4741189.866 6                  -3694436.996 8       138.000          50.000         105.000                  
G06  24366414.817    24366412.290    24366419.326                    -1861204.185 7  -1861204.163 6                  -1450292.353 6        70.000          22.000          32.000                  
G12  24612757.157    24612757.230    24612760.599                    -2010549.957 7  -2010549.975 6                  -1566664.939 6       100.000          29.000          25.000                  
G13  19262467.603    19262467.309    19262468.081                   -26367861.528 9 -26367861.529 8                 -20546389.397 9       742.000         331.000         559.000                  
G14  21939581.395    21939581.096    21939582.792                   -13850107.963 8 -13850107.957 8                 -10792295.826 8       302.000         121.000         151.000                  
G15  21139295.312    21139294.960    21139296.466                   -17226224.206 8 -17226224.205 8                 -13423037.722 8       348.000         270.000         382.000                  
G17  20051741.774    20051741.364    20051742.322                   -24196113.077 9 -24196113.079 9                 -18854116.256 9       668.000         947.000         976.000                  
G19  19905249.885    19905248.213    19905248.638                   -22897724.086 9 -22897724.088 8                 -17842386.331 8       678.000         445.000         393.000                  
G22  21076947.480    21076946.417    21076947.198                   -20887078.637 9 -20887078.636 8                 -16275646.932 8       565.000         252.000         150.000                  
G24  24557188.069    24557186.636    24557191.592                      574038.233 7    574038.250 6                    447292.394 7        90.000          26.000          52.000                  
G30  22177056.223    22177055.954    22177060.034                   -13496980.070 8 -13496980.070 8                 -10517134.069 8       265.000         169.000         314.000                  
> 2024 10 31 14 13 20.0000000  0 11
G05  24028351.247    24028351.706    24028354.329                    -4895874.314 8  -4895874.319 6                  -3814970.394 8       139.000          50.000         114.000                  
G06  24294463.183    24294461.728    24294468.009                    -2239308.979 7  -2239308.966 6                  -1744919.378 6        73.000          25.000          35.000                  
G12  24595363.718    24595362.263    24595364.501                    -2101960.782 7  -2101960.768 6                  -1637894.264 6        95.000          32.000          27.000                  
G13  19274433.921    19274433.444    19274434.379                   -26304978.809 9 -26304978.806 8                 -20497389.962 9       745.000         332.000         595.000                  
G14  21990879.696    21990879.415    21990880.977                   -13580533.874 8 -13580533.870 8                 -10582238.243 8       298.000         120.000         174.000                  
G15  21175649.797    21175649.238    21175650.640                   -17035182.580 8 -17035182.581 8                 -13274174.259 8       333.000         247.000         432.000                  
G17  20060897.357    20060897.023    20060898.108                   -24147999.852 9 -24147999.854 9                 -18816625.516 9       663.000         937.000        1109.000                  
G19  19872979.610    19872977.958    19872978.502                   -23067305.093 9 -23067305.095 8                 -17974527.417 8       696.000         456.000         451.000                  
G22  21127880.661    21127879.759    21127880.633                   -20619422.744 9 -20619422.745 8                 -16067084.015 8       555.000         236.000         155.000                  
G24  24606515.452    24606514.978    24606520.318                      833259.765 7    833259.777 6                    649282.780 7        84.000          24.000          55.000                  
G30  22173435.239    22173434.974    22173439.361                   -13516007.680 8 -13516007.680 8                 -10531960.899 8       266.000         169.000         351.000                  
> 2024 10 31 14 13 30.0000000  0 11
G05  23999076.632    23999076.596    23999079.077                    -5049715.763 8  -5049715.766 7                  -3934846.906 8       146.000          60.000         123.000                  
G06  24222744.077    24222744.699    24222750.755                    -2616184.206 7  -2616184.217 6                  -2038588.300 6        78.000          28.000          48.000                  
G12  24578426.451    24578424.803    24578427.316                    -2190966.932 7  -2190966.928 6                  -1707249.885 6       100.000          33.000          29.000                  
G13  19287152.831    19287152.364    19287153.327                   -26238140.563 9 -26238140.563 8                 -20445308.297 9       757.000         351.000         557.000                  
G14  22042686.948    22042686.239    22042688.341                   -13308286.013 8 -13308286.007 8                 -10370097.217 8       295.000         120.000         168.000                  
G15  21212450.194    21212449.832    21212451.269                   -16841794.537 8 -16841794.535 8                 -13123482.426 8       328.000         244.000         429.000                  
G17  20071179.844    20071179.358    20071180.449                   -24093966.113 9 -24093966.115 9                 -18774521.391 9       664.000         950.000        1120.000                  
G19  19841824.273    19841822.848    19841823.193                   -23231027.470 9 -23231027.473 8                 -18102103.338 8       725.000         497.000         449.000                  
G22  21179552.084    21179551.131    21179551.778                   -20347888.755 9 -20347888.755 8                 -15855499.209 8       547.000         230.000         145.000                  
G24  24656042.159    24656043.507    24656048.679                     1093534.077 7   1093534.067 6                    852093.514 7        79.000          31.000          53.000                  
G30  22170264.588    22170263.948    22170268.538                   -13532671.017 8 -13532671.018 8                 -10544945.437 8       267.000         173.000         337.000                  
> 2024 10 31 14 13 40.0000000  0 12
G05  23969969.400    23969968.516    23969970.848                    -5202680.364 8  -5202680.373 7                  -4054040.170 8       150.000          57.000         133.000                  
G06  24151275.733    24151275.857    24151280.772                    -2991760.979 7  -2991760.969 6                  -2331245.454 7        84.000          32.000          58.000                  
G12  24561954.448    24561952.621    24561956.309                    -2277530.286 8  -2277530.282 6                  -1774702.047 6       105.000          33.000          31.000                  
G13  19300625.134    19300624.520    19300625.371                   -26167344.854 9 -26167344.852 8                 -20390142.898 9       764.000         342.000         582.000                  
G14  22094994.830    22094994.326    22094996.284                   -13033407.049 8 -13033407.047 8                 -10155905.983 8       293.000         115.000         181.000                  
G15  21249694.970    21249694.614    21249696.383                   -16646071.199 8 -16646071.200 8                 -12970970.883 8       318.000         228.000         460.000                  
G17  20082587.751    20082587.287    20082588.509                   -24034017.024 9 -24034017.027 9                 -18727807.904 9       663.000         948.000        1229.000                  
G19  19811795.467    19811793.958    19811794.313                   -23388830.437 9 -23388830.438 9                 -18225066.731 8       734.000         510.000         499.000                  
G20  24428415.524    24428439.183    24428454.650                     -533831.257 8   -533831.248 6                   -415975.149 6       104.000          23.000          16.000                  
G22  21231951.882    21231950.980    21231951.953                   -20072525.586 9 -20072525.583 8                 -15640930.632 8       539.000         224.000         150.000                  
G24  24705771.443    24705770.752    24705776.916                     1354850.300 7   1354850.292 6                   1055716.074 7        78.000          22.000          60.000                  
G30  22167545.567    22167545.077    22167549.345                   -13546961.215 8 -13546961.214 8                 -10556080.781 8       269.000         169.000         355.000                  
> 2024 10 31 14 13 50.0000000  0 12
G05  23941029.030    23941028.999    23941031.455                    -5354758.780 8  -5354758.778 7                  -4172542.896 8       151.000          57.000         139.000                  
G06  24080061.528    24080061.172    24080067.349                    -3365994.719 7  -3365994.701 6                  -2622856.096 7        95.000          32.000          80.000                  
G12  24545949.227    24545948.354    24545951.845                    -2361637.575 8  -2361637.587 6                  -1840240.314 6       108.000          36.000          39.000                  
G13  19314845.618    19314845.160    19314846.061                   -26092615.090 9 -26092615.090 8                 -20331912.002 9       760.000         339.000         595.000                  
G14  22147790.464    22147790.012    22147791.910                   -12755964.278 8 -12755964.274 8                  -9939716.989 8       287.000         117.000         196.000                  
G15  21287377.877    21287377.447    21287379.013                   -16448048.300 8 -16448048.299 8                 -12816667.486 9       314.000         222.000         504.000                  
G17  20095115.594    20095115.021    20095116.129                   -23968184.269 9 -23968184.270 9                 -18676509.744 9       666.000         957.000        1342.000                  
G19  19782899.624    19782898.071    19782898.610                   -23540679.140 9 -23540679.142 9                 -18343390.440 9       734.000         510.000         547.000                  
G20  24370536.701    24370559.386    24370578.644                     -837980.492 8   -837980.517 6                   -652974.467 6       108.000          18.000          19.000                  
G22  21285066.429    21285065.392    21285066.290                   -19793406.985 9 -19793406.985 8                 -15423435.754 8       538.000         222.000         145.000                  
G24  24755690.874    24755689.303    24755694.993                     1617172.873 7   1617172.887 6                   1260122.792 7        74.000          26.000          58.000                  
G30  22165274.866    22165273.945    22165278.426                   -13558894.363 8 -13558894.365 8                 -10565379.464 8       271.000         170.000         385.000                  
> 2024 10 31 14 14  0.0000000  0 12
G05  23912261.608    23912261.126    23912263.870                    -5505935.362 8  -5505935.367 7                  -4290342.907 8       154.000          57.000         160.000                  
G06  24009113.274    24009112.017    24009118.030                    -3738834.415 7  -3738834.399 6                  -2913380.485 8        99.000          36.000         102.000                  
G12  24530415.551    24530414.121    24530417.299                    -2443269.781 8  -2443269.768 6                  -1903850.000 6       111.000          30.000          35.000                  
G13  19329811.547    19329810.949    19329812.015                   -26013969.170 9 -26013969.168 8                 -20270629.561 9       766.000         348.000         612.000                  
G14  22201062.042    22201061.993    22201063.916                   -12476018.772 8 -12476018.764 8                  -9721577.820 8       291.000         116.000         203.000                  
G15  21325492.736    21325492.165    21325493.521                   -16247755.614 8 -16247755.618 8                 -12660595.434 9       314.000         220.000         532.000                  
G17  20108757.441    20108757.085    20108758.262                   -23896494.808 9 -23896494.811 9                 -18620647.925 9       689.000        1015.000        1428.000                  
G19  19755144.181    19755142.866    19755143.190                   -23686534.159 9 -23686534.160 9                 -18457043.748 9       746.000         531.000         583.000                  
G20  24312706.830    24312726.077    24312765.010                    -1141884.280 8  -1141884.274 6                   -889784.720 6       110.000          21.000          16.000                  
G22  21338882.901    21338881.869    21338882.657                   -19510600.808 9 -19510600.809 8                 -15203067.450 8       539.000         224.000         146.000                  
G24  24805795.265    24805793.237    24805800.062                     1880472.444 7   1880472.428 6                   1465290.765 7        70.000          29.000          62.000                  
G30  22163450.861    22163449.938    22163454.313                   -13568480.624 8 -13568480.624 8                 -10572849.408 8       273.000         183.000         406.000                  
> 2024 10 31 14 14 10.0000000  0 12
G05  23883672.427    23883672.135    23883674.607                    -5656172.683 8  -5656172.686 7                  -4407411.024 8       157.000          56.000         175.000                  
G06  23938442.598    23938441.873    23938448.117                    -4110207.175 8  -4110207.160 6                  -3202761.815 8       107.000          38.000         122.000                  
G12  24515358.642    24515358.884    24515362.387                    -2522386.709 8  -2522386.714 6                  -1965499.714 6       120.000          38.000          43.000                  
G13  19345523.265    19345522.663    19345523.653                   -25931404.235 9 -25931404.235 8                 -20206293.343 9       776.000         355.000         647.000                  
G14  22254803.536    22254802.689    22254804.875                   -12193609.995 8 -12193609.984 8                  -9501519.225 8       296.000         111.000         207.000                  
G15  21364037.147    21364037.094    21364038.511                   -16045201.554 8 -16045201.559 8                 -12502761.278 9       313.000         218.000         583.000                  
G17  20123512.588    20123512.260    20123513.437                   -23818956.164 9 -23818956.166 9                 -18560228.303 9       694.000        1046.000        1545.000                  
G19  19728540.932    19728539.474    19728539.812                   -23826336.139 9 -23826336.142 9                 -18565980.404 9       748.000         539.000         648.000                  
G20  24254932.119    24254947.130    24254965.393                    -1445491.845 8  -1445491.855 6                  -1126359.827 6       120.000          20.000          20.000                  
G22  21393392.219    21393391.197    21393391.880                   -19224153.622 9 -19224153.623 8                 -14979862.004 8       535.000         225.000         155.000                  
G24  24856083.154    24856082.658    24856088.747                     2144741.329 7   2144741.328 6                   1671214.027 7        70.000          25.000          67.000                  
G30  22162075.314    22162074.475    22162079.014                   -13575708.978 8 -13575708.980 8                 -10578482.024 8       275.000         187.000         430.000                  
> 2024 10 31 14 14 20.0000000  0 12
G05  23855260.741    23855260.956    23855263.734                    -5805474.706 8  -5805474.710 7                  -4523750.344 8       163.000          67.000         200.000                  
G06  23868059.043    23868057.400    23868063.734                    -4480080.892 8  -4480080.888 6                  -3490975.052 8       115.000          42.000         156.000                  
G12  24500782.417    24500782.040    24500785.340                    -2598989.679 8  -2598989.693 6                  -2025190.524 7       125.000          47.000          52.000                  
G13  19361973.198    19361972.672    19361973.721                   -25844959.134 9 -25844959.133 8                 -20138933.622 9       794.000         370.000         666.000                  
G14  22308997.329    22308996.967    22308999.238                   -11908818.418 8 -11908818.406 8                  -9279603.920 8       301.000         118.000         218.000                  
G15  21403002.957    21403002.724    21403004.406                   -15840435.611 8 -15840435.611 8                 -12343203.583 9       305.000         216.000         620.000                  
G17  20139371.355    20139370.995    20139372.167                   -23735618.127 9 -23735618.128 9                 -18495289.674 9       707.000        1068.000        1608.000                  
G19  19703092.517    19703091.047    19703091.449                   -23960068.276 9 -23960068.278 9                 -18670187.317 9       756.000         554.000         725.000                  
G20  24197213.925    24197224.471    24197270.787                    -1748793.112 8  -1748793.106 6                  -1362700.756 6       127.000          23.000          16.000                  
G22  21448577.683    21448576.520    21448577.327                   -18934153.215 9 -18934153.215 8                 -14753887.821 8       529.000         221.000         152.000                  
G24  24906549.206    24906546.394    24906553.387                     2409930.635 7   2409930.638 6                   1877854.437 7        70.000          20.000          64.000                  
G30  22161142.727    22161141.907    22161146.602                   -13580609.659 8 -13580609.662 8                 -10582300.881 8       287.000         192.000         473.000                  
> 2024 10 31 14 14 30.0000000  0 12
G05  23827036.979    23827036.667    23827039.437                    -5953792.685 8  -5953792.671 7                  -4639322.881 8       161.000          67.000         208.000                  
G06  23797973.889    23797974.898    23797980.158                    -4848370.734 8  -4848370.740 7                  -3777954.121 8       124.000          54.000         176.000                  
G12  24486694.639    24486693.204    24486696.660                    -2673028.117 8  -2673028.110 7                  -2082883.008 6       128.000          51.000          44.000                  
G13  19379164.035    19379163.539    19379164.583                   -25754620.972 9 -25754620.971 8                 -20068540.346 9       821.000         396.000         674.000                  
G14  22363639.760    22363639.470    22363641.482                   -11621672.074 8 -11621672.067 8                  -9055853.739 8       305.000         124.000         208.000                  
G15  21442390.199    21442389.911    21442391.663                   -15633455.104 8 -15633455.106 8                 -12181920.259 9       299.000         201.000         654.000                  
G17  20156334.067    20156333.642    20156334.731                   -23646479.904 9 -23646479.906 9                 -18425831.424 9       710.000        1080.000        1644.000                  
G19  19678812.083    19678810.643    19678811.087                   -24087663.154 9 -24087663.156 9                 -18769611.950 9       759.000         554.000         802.000                  
G20  24139570.042    24139571.731    24139590.990                    -2051725.293 8  -2051725.302 6                  -1598749.409 6       133.000          21.000          18.000                  
G22  21504432.169    21504431.259    21504432.259                   -18640635.240 9 -18640635.242 8                 -14525172.682 8       512.000         194.000         149.000                  
G24  24957188.934    24957186.030    24957193.776                     2676044.048 7   2676044.053 6                   2085214.885 7        65.000          25.000          53.000                  
G30  22160657.076    22160656.645    22160661.319                   -13583160.894 8 -13583160.894 8                 -10584288.997 8       284.000         193.000         494.000                  
> 2024 10 31 14 14 40.0000000  0 12
G05  23798998.253    23798997.756    23799000.887                    -6101137.484 8  -6101137.478 7                  -4754137.098 8       165.000          70.000         214.000                  
G06  23728198.204    23728197.420    23728203.226                    -5215051.573 8  -5215051.575 7                  -4063679.421 8       132.000          57.000         187.000                  
G12  24473092.196    24473090.623    24473094.397                    -2744511.745 8  -2744511.742 7                  -2138584.726 7       132.000          54.000          51.000                  
G13  19397086.658    19397086.181    19397087.150                   -25660437.560 9 -25660437.560 8                 -19995150.778 9       844.000         424.000         680.000                  
G14  22418713.577    22418713.251    22418715.059                   -11332258.806 8 -11332258.801 8                  -8830337.135 8       307.000         127.000         198.000                  
G15  21482187.757    21482187.582    21482189.466                   -15424317.270 8 -15424317.276 8                 -12018955.907 9       299.000         189.000         660.000                  
G17  20174388.801    20174388.262    20174389.559                   -23551602.103 9 -23551602.105 9                 -18351900.778 9       706.000        1063.000        1672.000                  
G19  19655700.702    19655699.134    19655699.691                   -24209114.942 9 -24209114.945 9                 -18864249.764 9       760.000         551.000         855.000                  
G20  24081994.571    24081993.638    24082037.420                    -2354285.279 8  -2354285.284 6                  -1834512.801 6       137.000          29.000          20.000                  
G22  21560938.089    21560936.974    21560938.115                   -18343695.328 8 -18343695.330 8                 -14293791.094 8       487.000         187.000         152.000                  
G24  25007992.085    25007991.570    25007999.364                     2943025.329 7   2943025.335 6                   2293251.553 6        63.000          28.000          49.000                  
G30  22160611.732    22160610.977    22160615.698                   -13583401.093 8 -13583401.093 8                 -10584476.318 9       291.000         198.000         522.000                  
> 2024 10 31 14 14 50.0000000  0 12
G05  23771153.589    23771153.382    23771156.114                    -6247464.164 8  -6247464.170 7                  -4868157.979 8       172.000          80.000         215.000                  
G06  23658742.044    23658741.980    23658747.459                    -5580041.783 8  -5580041.775 7                  -4348087.352 8       138.000          63.000         188.000                  
G12  24459983.910    24459982.947    24459986.463                    -2813394.490 8  -2813394.496 7                  -2192259.787 6       137.000          51.000          49.000                  
G13  19415742.493    19415742.072    19415743.030                   -25562401.111 9 -25562401.111 8                 -19918758.845 9       872.000         452.000         680.000                  
G14  22474212.460    22474212.133    22474214.222                   -11040610.159 8 -11040610.152 8                  -8603078.693 8       310.000         128.000         185.000                  
G15  21522396.122    21522395.404    21522397.608                   -15213023.336 8 -15213023.339 8                 -11854311.478 9       294.000         199.000         656.000                  
G17  20193534.559    20193534.069    20193535.350                   -23450990.855 9 -23450990.857 9                 -18273502.513 9       707.000        1073.000        1680.000                  
G19  19633769.687    19633768.120    19633768.757                   -24324363.257 9 -24324363.259 9                 -18954053.702 9       770.000         558.000         876.000                  
G20  24024499.820    24024499.390    24024503.147                    -2656413.319 8  -2656413.305 6                  -2069933.126 6       148.000          28.000          29.000                  
G22  21618087.620    21618086.563    21618087.786                   -18043373.087 8 -18043373.085 8                 -14059773.939 8       468.000         170.000         147.000                  
G24  25058964.631    25058963.068    25058970.413                     3210874.327 7   3210874.315 6                   2501964.319 6        67.000          23.000          45.000                  
G30  22161009.329    22161008.775    22161013.255                   -13581312.735 8 -13581312.737 8                 -10582849.182 9       290.000         204.000         520.000                  
> 2024 10 31 14 15  0.0000000  0 12
G05  23743504.531    23743503.681    23743506.799                    -6392762.288 8  -6392762.295 7                  -4981377.392 8       180.000          73.000         229.000                  
G06  23589617.457    23589617.169    23589622.870                    -5943294.555 8  -5943294.567 7                  -4631141.442 8       143.000          63.000         210.000                  
G12  24447372.472    24447372.117    24447375.621                    -2879665.838 8  -2879665.819 7                  -2243900.004 7       140.000          53.000          55.000                  
G13  19435126.158    19435125.636    19435126.780                   -25460539.627 9 -25460539.626 8                 -19839386.367 9       897.000         485.000         722.000                  
G14  22530124.534    22530123.798    22530126.006                   -10746792.609 8 -10746792.598 8                  -8374130.213 8       313.000         128.000         183.000                  
G15  21563007.158    21563007.053    21563009.103                   -14999609.699 8 -14999609.696 8                 -11688015.335 9       288.000         195.000         686.000                  
G17  20213763.133    20213762.749    20213764.087                   -23344688.792 9 -23344688.795 9                 -18190669.851 9       698.000        1055.000        1782.000                  
G19  19613023.623    19613022.091    19613022.706                   -24433384.616 9 -24433384.619 9                 -19039005.473 9       773.000         566.000         925.000                  
G20  23967094.033    23967092.972    23967095.991                    -2958084.567 8  -2958084.555 6                  -2305001.581 6       151.000          29.000          31.000                  
G22  21675866.435    21675865.417    21675866.725                   -17739743.228 8 -17739743.230 8                 -13823179.427 8       444.000         153.000         161.000                  
G24  25110093.738    25110092.438    25110099.219                     3479556.101 7   3479556.086 6                   2711325.902 6        64.000          22.000          45.000                  
G30  22161846.978    22161845.905    22161850.699                   -13576913.666 8 -13576913.668 8                 -10579421.500 9       289.000         203.000         555.000                  
> 2024 10 31 14 15 10.0000000  0 12
G05  23716053.497    23716053.489    23716056.314                    -6537016.000 8  -6537016.000 7                  -5093782.978 8       175.000          84.000         232.000                  
G06  23520833.303    23520833.361    23520838.924                    -6304757.098 8  -6304757.098 7                  -4912800.549 8       150.000          78.000         220.000                  
G12  24435261.745    24435261.376    24435265.008                    -2943310.097 8  -2943310.091 6                  -2293493.141 7       140.000          45.000          53.000                  
G13  19455233.344    19455232.938    19455234.058                   -25354875.982 9 -25354875.982 9                 -19757051.174 9       921.000         513.000         738.000                  
G14  22586437.560    22586437.157    22586439.107                   -10450866.751 8 -10450866.745 8                  -8143538.902 8       310.000         134.000         180.000                  
G15  21604015.943    21604015.970    21604018.124                   -14784106.999 8 -14784106.999 8                 -11520091.362 9       288.000         187.000         691.000                  
G17  20235067.601    20235067.021    20235068.463                   -23232734.342 9 -23232734.344 9                 -18103432.736 9       687.000        1017.000        1811.000                  
G19  19593467.729    19593466.281    19593466.833                   -24536151.567 9 -24536151.571 9                 -19119083.683 9       768.000         572.000         958.000                  
G20  23909780.735    23909779.832    23909783.044                    -3259268.133 8  -3259268.141 6                  -2539690.064 6       159.000          24.000          31.000                  
G22  21734261.652    21734260.542    21734262.167                   -17432874.848 8 -17432874.855 8                 -13584061.399 8       421.000         140.000         160.000                  
G24  25161376.976    25161373.344    25161381.390                     3749041.307 7   3749041.315 6                   2921313.487 6        61.000          25.000          44.000                  
G30  22163121.546    22163120.265    22163125.336                   -13570216.254 8 -13570216.255 8                 -10574202.905 9       291.000         208.000         584.000                  
> 2024 10 31 14 15 20.0000000  0 12
G05  23688809.248    23688808.782    23688811.868                    -6680186.795 8  -6680186.797 7                  -5205344.736 8       180.000          82.000         233.000                  
G06  23452404.647    23452403.833    23452409.808                    -6664353.974 8  -6664353.971 7                  -5193005.889 8       151.000          74.000         230.000                  
G12  24423657.492    24423656.747    24423660.323                    -3004289.600 8  -3004289.605 6                  -2341009.854 7       136.000          48.000          60.000                  
G13  19476064.063    19476063.480    19476064.522                   -25245411.252 9 -25245411.253 9                 -19671754.101 9       934.000         519.000         737.000                  
G14  22643144.409    22643144.187    22643146.375                   -10152870.635 8 -10152870.623 8                  -7911334.427 8       311.000         124.000         174.000                  
G15  21645421.354    21645421.037    21645423.108                   -14566523.653 8 -14566523.657 8                 -11350546.114 9       288.000         193.000         692.000                  
G17  20257444.095    20257443.607    20257445.064                   -23115145.121 9 -23115145.123 9                 -18011804.895 9       677.000         983.000        1824.000                  
G19  19575111.235    19575109.682    19575110.245                   -24632616.182 9 -24632616.185 9                 -19194250.987 9       769.000         569.000         981.000                  
G20  23852570.886    23852569.051    23852572.091                    -3559910.378 8  -3559910.388 6                  -2773956.676 6       169.000          31.000          38.000                  
G22  21793264.734    21793263.380    21793265.205                   -17122814.693 8 -17122814.690 8                 -13342456.282 8       406.000         129.000         161.000                  
G24  25212808.020    25212807.192    25212815.217                     4019323.625 7   4019323.630 6                   3131922.228 6        60.000          28.000          37.000                  
G30  22164834.907    22164834.129    22164839.063                   -13561210.741 8 -13561210.741 8                 -10567185.800 9       291.000         208.000         604.000                  
> 2024 10 31 14 15 30.0000000  0 12
G05  23661769.989    23661769.664    23661772.706                    -6822278.611 8  -6822278.614 7                  -5316065.726 8       182.000          89.000         232.000                  
G06  23384336.681    23384336.312    23384341.997                    -7022052.149 8  -7022052.152 7                  -5471731.714 8       152.000          78.000         243.000                  
G12  24412558.915    24412558.842    24412563.019                    -3062609.826 8  -3062609.839 7                  -2386454.386 7       136.000          52.000          56.000                  
G13  19497609.236    19497608.867    19497610.020                   -25132189.803 9 -25132189.805 9                 -19583529.717 9       928.000         505.000         736.000                  
G14  22700230.305    22700229.695    22700231.695                    -9852884.784 8  -9852884.782 8                  -7677579.525 8       305.000         126.000         168.000                  
G15  21687212.284    21687212.141    21687214.254                   -14346910.790 8 -14346910.792 8                 -11179419.429 9       286.000         188.000         697.000                  
G17  20280881.046    20280880.688    20280882.221                   -22991982.757 9 -22991982.760 9                 -17915834.353 9       672.000         966.000        1827.000                  
G19  19557954.840    19557953.226    19557953.632                   -24722774.692 9 -24722774.692 9                 -19264504.445 9       774.000         579.000         975.000                  
G20  23795465.212    23795463.863    23795467.240                    -3860000.019 8  -3860000.002 6                  -3007792.698 6       171.000          30.000          39.000                  
G22  21852857.168    21852856.304    21852858.203                   -16809652.163 8 -16809652.163 8                 -13098433.736 8       395.000         124.000         153.000                  
G24  25264384.749    25264382.916    25264390.819                     4290352.625 7   4290352.591 6                   3343112.586 6        54.000          22.000          33.000                  
G30  22166981.587    22166981.083    22166985.965                   -13549930.315 8 -13549930.315 8                 -10558396.035 9       293.000         214.000         611.000                  
> 2024 10 31 14 15 40.0000000  0 12
G05  23634945.703    23634945.013    23634948.139                    -6963243.091 8  -6963243.097 7                  -5425908.264 8       179.000          81.000         247.000                  
G06  23316646.744    23316646.266    23316651.856                    -7377765.754 8  -7377765.761 7                  -5748911.121 8       157.000          81.000         258.000                  
G12  24401976.856    24401976.017    24401980.098                    -3118224.064 8  -3118224.068 6                  -2429790.378 7       134.000          45.000          58.000                  
G13  19519871.172    19519870.626    19519871.861                   -25015204.040 9 -25015204.040 8                 -19492372.105 9       916.000         497.000         712.000                  
G14  22757689.213    22757688.846    22757690.971                    -9550936.905 8  -9550936.900 8                  -7442295.784 8       300.000         127.000         162.000                  
G15  21729389.814    21729389.677    21729391.889                   -14125266.922 8 -14125266.926 8                 -11006710.151 9       284.000         182.000         701.000                  
G17  20305376.932    20305376.463    20305377.933                   -22863257.704 9 -22863257.706 9                 -17815529.246 9       679.000         994.000        1826.000                  
G19  19542008.586    19542007.072    19542007.548                   -24806572.730 9 -24806572.730 9                 -19329801.691 9       781.000         578.000         989.000                  
G20  23738477.769    23738476.094    23738479.168                    -4159472.918 8  -4159472.911 6                  -3241148.159 6       179.000          30.000          34.000                  
G22  21913033.915    21913032.898    21913034.236                   -16493424.091 8 -16493424.089 8                 -12852022.467 8       380.000         109.000         149.000                  
G24  25316105.814    25316101.363    25316110.732                     4562132.052 7   4562132.052 6                   3554887.591 6        53.000          23.000          29.000                  
G30  22169564.780    22169564.382    22169569.398                   -13536355.733 8 -13536355.735 8                 -10547818.626 9       295.000         216.000         616.000                  
> 2024 10 31 14 15 50.0000000  0 12
G05  23608333.717    23608333.031    23608336.247                    -7103090.247 8  -7103090.246 7                  -5534880.153 8       186.000          89.000         251.000                  
G06  23249339.224    23249338.888    23249344.620                    -7731467.441 8  -7731467.447 7                  -6024522.782 8       159.000          75.000         276.000                  
G12  24391906.595    24391905.650    24391909.999                    -3171144.800 8  -3171144.801 6                  -2471027.507 7       131.000          45.000          64.000                  
G13  19542839.205    19542838.823    19542840.012                   -24894505.647 9 -24894505.647 8                 -19398321.532 9       897.000         485.000         705.000                  
G14  22815505.244    22815504.831    22815506.778                    -9247113.230 8  -9247113.222 8                  -7205550.392 8       291.000         118.000         175.000                  
G15  21771942.890    21771942.905    21771945.106                   -13901649.409 8 -13901649.414 8                 -10832462.971 9       278.000         173.000         697.000                  
G17  20330917.680    20330917.241    20330918.718                   -22729040.539 9 -22729040.541 9                 -17710944.577 9       695.000        1027.000        1831.000                  
G19  19527271.518    19527269.952    19527270.513                   -24884016.661 9 -24884016.662 9                 -19390147.684 9       785.000         587.000        1009.000                  
G20  23681608.201    23681606.599    23681609.948                    -4458323.297 8  -4458323.313 6                  -3474018.479 6       182.000          31.000          36.000                  
G22  21973775.478    21973774.196    21973776.446                   -16174225.859 8 -16174225.863 8                 -12603296.797 8       372.000         115.000         143.000                  
G24  25367954.874    25367953.188    25367961.440                     4834606.522 7   4834606.531 6                   3767204.132 6        55.000          23.000          27.000                  
G30  22172576.775    22172576.538    22172581.509                   -13520526.859 8 -13520526.861 8                 -10535484.620 9       297.000         216.000         625.000                  
> 2024 10 31 14 16  0.0000000  0 11
G05  23581941.743    23581941.633    23581944.860                    -7241778.503 8  -7241778.500 7                  -5642948.987 8       192.000          92.000         252.000                  
G06  23182429.117    23182429.330    23182435.341                    -8083078.034 8  -8083078.037 7                  -6298505.013 8       161.000          86.000         290.000                  
G12  24382355.740    24382354.913    24382359.766                    -3221333.419 8  -3221333.426 6                  -2510135.702 7       134.000          49.000          69.000                  
G13  19566513.912    19566513.322    19566514.722                   -24770095.185 9 -24770095.185 8                 -19301378.442 9       888.000         464.000         700.000                  
G14  22873671.584    22873670.932    22873673.671                    -8941448.151 8  -8941448.145 8                  -6967370.155 8       279.000         109.000         160.000                  
G15  21814870.771    21814870.636    21814872.878                   -13676063.885 8 -13676063.887 8                 -10656682.282 9       277.000         169.000         689.000                  
G17  20357499.695    20357499.364    20357500.681                   -22589351.611 9 -22589351.612 9                 -17602096.198 9       692.000        1022.000        1745.000                  
G19  19513751.933    19513750.312    19513750.881                   -24955063.017 9 -24955063.019 9                 -19445508.549 9       791.000         591.000         991.000                  
G20  23624867.804    23624866.856    23624870.929                    -4756493.454 8  -4756493.443 6                  -3706358.763 6       195.000          36.000          44.000                  
G22  22035073.940    22035072.694    22035074.515                   -15852101.166 8 -15852101.163 7                 -12352290.772 8       359.000          98.000         130.000                  
G30  22176020.885    22176019.935    22176025.004                   -13502432.050 8 -13502432.050 8                 -10521384.952 9       292.000         210.000         632.000                  
> 2024 10 31 14 16 10.0000000  0 11
G05  23555776.071    23555775.655    23555778.217                    -7379284.033 8  -7379284.031 7                  -5750096.204 8       191.000          95.000         265.000                  
G06  23115929.395    23115929.959    23115935.605                    -8432535.891 8  -8432535.882 7                  -6570809.768 8       168.000          91.000         304.000                  
G12  24373328.838    24373328.705    24373332.738                    -3268769.638 8  -3268769.633 6                  -2547099.161 7       133.000          48.000          68.000                  
G13  19590891.208    19590890.823    19590892.122                   -24641991.791 9 -24641991.790 8                 -19201557.741 9       874.000         458.000         703.000                  
G14  22932178.960    22932177.870    22932180.743                    -8633993.603 8  -8633993.591 7                  -6727795.532 8       263.000          99.000         162.000                  
G15  21858168.261    21858168.322    21858170.738                   -13448533.906 8 -13448533.907 8                 -10479386.430 9       279.000         171.000         698.000                  
G17  20385115.362    20385115.051    20385116.488                   -22444230.356 9 -22444230.358 9                 -17489014.840 9       686.000        1016.000        1731.000                  
G19  19501454.181    19501452.734    19501453.308                   -25019688.001 9 -25019688.003 9                 -19495865.745 9       811.000         624.000        1028.000                  
G20  23568265.481    23568263.643    23568267.307                    -5053943.220 8  -5053943.206 6                  -3938137.706 6       198.000          33.000          46.000                  
G22  22096917.128    22096916.351    22096918.497                   -15527111.450 8 -15527111.459 7                 -12099052.272 8       345.000          97.000         125.000                  
G30  22179894.661    22179893.576    22179898.509                   -13482077.745 8 -13482077.743 8                 -10505524.632 9       297.000         209.000         632.000                  
> 2024 10 31 14 16 20.0000000  0 12
G05  23529834.626    23529834.227    23529837.365                    -7515605.362 8  -7515605.359 8                  -5856320.653 8       203.000         105.000         267.000                  
G06  23049847.594    23049847.444    23049852.868                    -8779801.954 8  -8779801.958 7                  -6841406.624 8       179.000          98.000         322.000                  
G07  24213551.059    24213550.229    24213581.265                     -139154.927 8   -139154.954 6                   -108435.699 6       104.000          34.000          20.000                  
G12  24364825.626    24364824.964    24364829.204                    -3313456.375 8  -3313456.383 6                  -2581920.134 7       132.000          50.000          66.000                  
G13  19615963.149    19615962.769    19615964.180                   -24510237.712 9 -24510237.712 8                 -19098892.346 9       862.000         432.000         683.000                  
G14  22991011.317    22991011.555    22991013.991                    -8324824.001 8  -8324823.992 7                  -6486884.515 8       256.000          86.000         160.000                  
G15  21901827.795    21901827.127    21901829.669                   -13219105.772 8 -13219105.773 8                 -10300611.497 9       272.000         169.000         708.000                  
G17  20413752.931    20413752.463    20413753.931                   -22293740.239 9 -22293740.241 9                 -17371749.952 9       678.000         982.000        1707.000                  
G19  19490378.411    19490376.754    19490377.275                   -25077892.585 9 -25077892.588 9                 -19541220.027 9       827.000         652.000        1045.000                  
G20  23511801.923    23511801.400    23511804.785                    -5350654.826 8  -5350654.835 6                  -4169341.435 6       208.000          39.000          48.000                  
G22  22159290.340    22159289.344    22159291.415                   -15199340.710 8 -15199340.714 7                 -11843646.742 8       333.000          85.000         108.000                  
G30  22184191.886    22184191.457    22184196.384                   -13459493.333 8 -13459493.333 8                 -10487926.564 9       295.000         218.000         637.000                  
> 2024 10 31 14 16 30.0000000  0 12
G05  23504128.602    23504127.963    23504130.923                    -7650693.532 8  -7650693.536 8                  -5961584.179 8       201.000         102.000         276.000                  
G06  22984198.794    22984198.587    22984203.846                    -9124789.152 8  -9124789.157 8                  -7110227.721 8       188.000         101.000         344.000                  
G07  24190768.988    24190768.877    24190779.423                     -258869.331 8   -258869.331 6                   -201717.141 6       107.000          35.000          25.000                  
G12  24356853.854    24356853.674    24356857.471                    -3355349.188 8  -3355349.179 6                  -2614564.014 7       133.000          49.000          63.000                  
G13  19641731.041    19641730.632    19641731.824                   -24374827.901 9 -24374827.903 8                 -18993378.323 9       856.000         438.000         642.000                  
G14  23050166.644    23050166.009    23050168.826                    -8013965.664 8  -8013965.660 7                  -6244657.606 8       251.000          77.000         156.000                  
G15  21945847.660    21945847.580    21945850.075                   -12987777.915 8 -12987777.918 8                 -10120356.257 9       271.000         165.000         694.000                  
G17  20443408.620    20443408.328    20443409.721                   -22137898.090 9 -22137898.092 9                 -17250314.645 9       676.000         988.000        1662.000                  
G19  19480532.702    19480531.196    19480531.688                   -25129631.835 9 -25129631.837 9                 -19581536.384 9       840.000         674.000        1060.000                  
G20  23455493.466    23455491.903    23455495.083                    -5646562.289 8  -5646562.281 6                  -4399918.531 7       210.000          45.000          52.000                  
G22  22222185.833    22222184.893    22222186.427                   -14868825.082 8 -14868825.089 7                 -11586102.346 8       315.000          77.000         102.000                  
G30  22188917.513    22188917.034    22188922.106                   -13434660.608 8 -13434660.609 8                 -10468576.549 9       294.000         204.000         662.000                  
> 2024 10 31 14 16 40.0000000  0 12
G05  23478653.884    23478653.474    23478656.569                    -7784562.918 8  -7784562.918 8                  -6065897.983 8       204.000         104.000         289.000                  
G06  22918987.428    22918987.652    22918993.088                    -9467473.578 8  -9467473.576 8                  -7377254.434 8       193.000         116.000         365.000                  
G07  24168135.436    24168134.322    24168158.774                     -377810.392 8   -377810.387 6                   -294400.912 6       107.000          37.000          14.000                  
G12  24349410.262    24349409.478    24349412.796                    -3394467.436 8  -3394467.451 6                  -2645045.873 7       136.000          46.000          61.000                  
G13  19668183.190    19668182.737    19668184.056                   -24235821.178 9 -24235821.177 8                 -18885061.508 9       852.000         436.000         621.000                  
G14  23109625.021    23109624.614    23109628.043                    -7701507.933 8  -7701507.924 7                  -6001184.420 8       247.000          86.000         148.000                  
G15  21990218.051    21990217.658    21990220.117                   -12754612.155 8 -12754612.163 8                  -9938668.883 9       272.000         160.000         661.000                  
G17  20474067.598    20474067.253    20474068.592                   -21976785.317 9 -21976785.319 9                 -17124772.355 9       679.000         976.000        1632.000                  
G19  19471913.496    19471911.984    19471912.549                   -25174926.077 9 -25174926.079 9                 -19616830.649 9       845.000         680.000        1109.000                  
G20  23399337.301    23399336.309    23399339.894                    -5941662.731 8  -5941662.721 6                  -4629866.756 7       218.000          41.000          60.000                  
G22  22285584.408    22285583.302    22285585.480                   -14535663.882 8 -14535663.890 7                 -11326496.453 7       296.000          72.000          96.000                  
G30  22194062.741    22194061.895    22194066.857                   -13407624.919 8 -13407624.920 8                 -10447509.928 9       295.000         208.000         646.000                  
> 2024 10 31 14 16 50.0000000  0 12
G05  23453421.356    23453421.178    23453424.113                    -7917159.664 8  -7917159.657 8                  -6169220.100 8       208.000         103.000         303.000                  
G06  22854232.358    22854232.550    22854237.931                    -9807763.393 8  -9807763.394 8                  -7642415.195 8       194.000         115.000         396.000                  
G07  24145656.062    24145655.435    24145662.725                     -495939.051 8   -495939.044 6                   -386446.667 6       106.000          32.000          15.000                  
G12  24342502.589    24342502.699    24342506.642                    -3430763.348 8  -3430763.345 6                  -2673328.473 7       135.000          47.000          69.000                  
G13  19695321.298    19695320.941    19695322.312                   -24093209.058 9 -24093209.058 8                 -18773935.285 9       858.000         432.000         606.000                  
G14  23169384.363    23169384.149    23169387.414                    -7387472.150 8  -7387472.136 7                  -5756481.590 8       240.000          68.000         135.000                  
G15  22034939.335    22034938.877    22034941.223                   -12519602.470 8 -12519602.470 8                  -9755544.676 9       264.000         160.000         638.000                  
G17  20505726.579    20505726.183    20505727.654                   -21810416.703 9 -21810416.705 9                 -16995134.597 9       665.000         960.000        1612.000                  
G19  19464529.513    19464527.906    19464528.534                   -25213729.976 9 -25213729.979 9                 -19647067.499 9       861.000         708.000        1152.000                  
G20  23343348.384    23343347.049    23343350.181                    -6235885.346 8  -6235885.333 6                  -4859130.972 7       224.000          47.000          62.000                  
G22  22349480.473    22349478.973    22349481.417                   -14199888.379 8 -14199888.379 7                 -11064853.452 7       278.000          66.000          90.000                  
G30  22199630.938    22199630.121    22199635.209                   -13378364.037 8 -13378364.039 8                 -10424709.381 9       295.000         214.000         648.000                  
> 2024 10 31 14 17  0.0000000  0 12
G05  23428429.750    23428429.475    23428432.383                    -8048491.383 8  -8048491.386 8                  -6271556.464 8       210.000         112.000         317.000                  
G06  22789939.013    22789938.728    22789944.429                   -10145628.015 8 -10145628.017 8                  -7905686.185 8       199.000         130.000         446.000                  
G07  24123327.235    24123326.588    24123348.691                     -613277.432 8   -613277.430 6                   -477881.605 6       111.000          37.000          20.000                  
G12  24336130.176    24336130.565    24336134.020                    -3464251.018 8  -3464251.028 6                  -2699422.807 7       141.000          45.000          71.000                  
G13  19723135.683    19723135.150    19723136.525                   -23947045.006 9 -23947045.008 8                 -18660041.311 9       862.000         443.000         582.000                  
G14  23229428.216    23229428.472    23229430.990                    -7071940.753 8  -7071940.747 7                  -5510613.349 8       235.000          78.000         136.000                  
G15  22080000.441    22080000.052    22080002.546                   -12282804.259 8 -12282804.257 8                  -9571026.806 9       258.000         151.000         614.000                  
G17  20538371.144    20538370.542    20538372.091                   -21638869.525 9 -21638869.529 9                 -16861461.586 9       663.000         945.000        1573.000                  
G19  19458376.986    19458375.392    19458376.147                   -25246061.477 9 -25246061.480 9                 -19672260.919 9       870.000         716.000        1175.000                  
G20  23287528.346    23287527.313    23287531.004                    -6529220.203 8  -6529220.207 7                  -5087703.399 7       233.000          51.000          63.000                  
G22  22413856.294    22413855.150    22413857.424                   -13861591.116 8 -13861591.121 7                 -10801245.437 7       269.000          54.000          85.000                  
G30  22205615.090    22205614.446    22205619.364                   -13346917.362 8 -13346917.360 8                 -10400205.603 9       296.000         214.000         620.000                  
> 2024 10 31 14 17 10.0000000  0 12
G05  23403685.393    23403685.245    23403688.363                    -8178523.619 8  -8178523.619 8                  -6372880.215 8       211.000         113.000         317.000                  
G06  22726121.518    22726120.584    22726126.135                   -10480994.675 8 -10480994.677 8                  -8167010.693 8       208.000         135.000         488.000                  
G07  24101153.364    24101151.881    24101156.759                     -729805.762 8   -729805.780 6                   -568679.673 6       112.000          32.000          42.000                  
G12  24330298.371    24330297.101    24330301.655                    -3494903.082 8  -3494903.075 7                  -2723307.545 7       142.000          52.000          68.000                  
G13  19751623.471    19751622.906    19751624.334                   -23797340.923 9 -23797340.925 8                 -18543388.863 9       858.000         436.000         577.000                  
G14  23289749.369    23289748.823    23289752.352                    -6754953.700 8  -6754953.690 7                  -5263610.827 8       230.000          71.000         120.000                  
G15  22125399.108    22125399.012    22125401.692                   -12044230.863 8 -12044230.867 8                  -9385125.666 9       252.000         145.000         591.000                  
G17  20571994.036    20571993.595    20571995.149                   -21462180.158 9 -21462180.159 9                 -16723781.665 9       671.000         967.000        1530.000                  
G19  19453460.327    19453458.804    19453459.545                   -25271898.484 9 -25271898.485 9                 -19692393.681 9       877.000         735.000        1168.000                  
G20  23231887.539    23231886.190    23231889.156                    -6821615.147 8  -6821615.160 7                  -5315543.409 7       242.000          59.000          67.000                  
G22  22478702.915    22478701.526    22478703.280                   -13520822.359 8 -13520822.352 7                 -10535711.576 7       260.000          57.000          87.000                  
G30  22212015.472    22212014.945    22212020.035                   -13313282.389 8 -13313282.388 8                 -10373996.642 9       296.000         217.000         623.000                  
> 2024 10 31 14 17 20.0000000  0 12
G05  23379194.970    23379194.920    23379197.957                    -8307220.303 8  -8307220.303 8                  -6473163.261 8       220.000         113.000         339.000                  
G06  22662792.513    22662792.220    22662797.406                   -10813788.716 8 -10813788.716 8                  -8426330.548 9       219.000         145.000         541.000                  
G07  24079135.304    24079136.085    24079140.062                     -845502.245 8   -845502.229 6                   -658832.656 6       116.000          40.000          46.000                  
G12  24325009.300    24325009.512    24325013.716                    -3522690.704 8  -3522690.701 7                  -2744960.220 7       145.000          53.000          73.000                  
G13  19780782.765    19780782.273    19780783.764                   -23644107.317 9 -23644107.317 8                 -18423986.125 9       848.000         426.000         570.000                  
G14  23350340.293    23350340.013    23350343.247                    -6436548.941 8  -6436548.939 7                  -5015503.605 8       229.000          61.000         109.000                  
G15  22171133.864    22171133.692    22171136.655                   -11803893.819 8 -11803893.822 8                  -9197850.242 9       246.000         143.000         596.000                  
G17  20606588.757    20606588.354    20606589.844                   -21280384.328 9 -21280384.331 9                 -16582122.677 9       676.000         972.000        1511.000                  
G19  19449783.792    19449782.250    19449782.969                   -25291219.129 9 -25291219.130 9                 -19707448.752 9       891.000         761.000        1183.000                  
G20  23176435.808    23176434.384    23176437.795                    -7113015.964 8  -7113015.960 7                  -5542608.764 7       253.000          53.000          65.000                  
G22  22544010.165    22544009.285    22544011.684                   -13177630.319 8 -13177630.325 7                 -10268289.435 7       251.000          54.000          85.000                  
G30  22218833.108    22218832.615    22218837.848                   -13277455.133 8 -13277455.133 8                 -10346079.390 9       294.000         215.000         608.000                  
> 2024 10 31 14 17 30.0000000  0 12
G05  23354956.896    23354956.560    23354959.798                    -8434592.384 8  -8434592.382 8                  -6572414.131 8       212.000         114.000         338.000                  
G06  22599958.258    22599958.288    22599963.494                   -11143982.639 8 -11143982.645 8                  -8683624.328 9       223.000         156.000         583.000                  
G07  24057273.965    24057272.614    24057276.506                     -960392.474 8   -960392.477 6                   -748357.341 6       119.000          39.000          37.000                  
G12  24320263.632    24320263.660    24320266.938                    -3547633.011 8  -3547633.005 6                  -2764395.736 7       148.000          50.000          69.000                  
G13  19810602.885    19810602.288    19810603.823                   -23487402.467 9 -23487402.469 8                 -18301878.512 9       843.000         422.000         559.000                  
G14  23411184.734    23411184.143    23411187.154                    -6116811.341 8  -6116811.344 7                  -4766357.794 7       220.000          68.000          98.000                  
G15  22217193.615    22217193.227    22217195.951                   -11561851.852 8 -11561851.853 8                  -9009246.289 9       243.000         126.000         578.000                  
G17  20642139.135    20642138.711    20642140.324                   -21093565.958 9 -21093565.960 9                 -16436550.003 9       676.000         966.000        1408.000                  
G19  19447342.051    19447340.606    19447341.145                   -25304050.846 9 -25304050.848 9                 -19717447.508 9       905.000         781.000        1148.000                  
G20  23121174.232    23121173.047    23121176.059                    -7403415.320 8  -7403415.325 7                  -5768893.746 7       254.000          57.000          65.000                  
G22  22609760.461    22609759.340    22609761.990                   -12832110.290 8 -12832110.292 6                  -9999053.272 7       247.000          50.000          79.000                  
G30  22226059.951    22226059.388    22226064.525                   -13239478.987 8 -13239478.989 8                 -10316487.658 9       291.000         202.000         581.000                  
> 2024 10 31 14 17 40.0000000  0 12
G05  23330977.914    23330977.551    23330980.624                    -8560602.236 8  -8560602.240 8                  -6670603.507 8       218.000         115.000         347.000                  
G06  22537633.282    22537633.243    22537638.702                   -11471500.492 8 -11471500.494 8                  -8938832.848 9       223.000         147.000         631.000                  
G07  24035568.283    24035567.425    24035572.286                    -1074453.621 8  -1074453.628 6                   -837235.951 6       122.000          47.000          38.000                  
G12  24316064.425    24316063.768    24316067.735                    -3569701.227 8  -3569701.245 7                  -2781591.674 7       151.000          61.000          75.000                  
G13  19841081.222    19841080.805    19841082.433                   -23327236.656 9 -23327236.657 8                 -18177074.037 9       823.000         406.000         562.000                  
G14  23472275.979    23472275.467    23472278.675                    -5795777.023 8  -5795777.006 7                  -4516201.538 7       216.000          63.000          89.000                  
G15  22263575.433    22263574.868    22263577.651                   -11318115.326 8 -11318115.325 8                  -8819321.888 9       243.000         138.000         566.000                  
G17  20678638.272    20678637.957    20678639.491                   -20901761.580 9 -20901761.582 9                 -16287092.120 9       663.000         944.000        1329.000                  
G19  19446138.787    19446137.210    19446137.675                   -25310374.689 9 -25310374.692 9                 -19722375.185 9       915.000         795.000        1146.000                  
G20  23066114.236    23066113.082    23066116.312                    -7692757.250 8  -7692757.248 7                  -5994354.753 7       259.000          56.000          73.000                  
G22  22675945.696    22675944.025    22675946.919                   -12484308.774 8 -12484308.769 6                  -9728039.309 7       248.000          48.000          86.000                  
G30  22233696.629    22233695.843    22233701.020                   -13199349.150 8 -13199349.150 8                 -10285217.704 9       284.000         193.000         576.000                  
> 2024 10 31 14 17 50.0000000  0 12
G05  23307264.872    23307264.858    23307267.613                    -8685214.510 8  -8685214.509 8                  -6767703.848 8       219.000         124.000         350.000                  
G06  22475831.771    22475831.565    22475837.166                   -11796268.312 8 -11796268.315 8                  -9191898.473 9       215.000         142.000         668.000                  
G07  24014024.006    24014024.004    24014028.257                    -1187664.405 8  -1187664.399 6                   -925451.898 6       125.000          41.000          39.000                  
G12  24312416.794    24312416.253    24312419.986                    -3588869.203 8  -3588869.209 7                  -2796527.667 7       152.000          65.000          75.000                  
G13  19872216.031    19872215.691    19872217.218                   -23163622.733 9 -23163622.734 8                 -18049582.713 9       801.000         391.000         561.000                  
G14  23533606.414    23533606.095    23533609.298                    -5473483.884 8  -5473483.874 7                  -4265064.388 7       214.000          66.000          78.000                  
G15  22310276.878    22310276.708    22310279.303                   -11072696.599 8 -11072696.595 8                  -8628086.665 9       243.000         144.000         535.000                  
G17  20716078.950    20716078.513    20716079.879                   -20705010.696 9 -20705010.699 9                 -16133779.807 9       653.000         907.000        1225.000                  
G19  19446176.474    19446175.056    19446175.561                   -25310175.818 9 -25310175.819 9                 -19722220.216 9       921.000         799.000        1123.000                  
G20  23011265.273    23011264.372    23011267.206                    -7980987.500 8  -7980987.508 7                  -6218949.520 7       267.000          66.000          86.000                  
G22  22742554.943    22742553.667    22742555.989                   -12134274.144 8 -12134274.143 7                  -9455285.246 7       246.000          53.000          83.000                  
G30  22241743.597    22241742.559    22241747.831                   -13157063.097 8 -13157063.094 8                 -10252267.561 9       277.000         191.000         562.000                  
> 2024 10 31 14 18  0.0000000  0 12
G05  23283815.744    23283815.468    23283818.330                    -8808440.253 8  -8808440.250 8                  -6863723.764 8       221.000         119.000         350.000                  
G06  22414559.124    22414558.812    22414564.144                   -12118258.725 8 -12118258.731 8                  -9442799.885 9       206.000         140.000         701.000                  
G07  23992638.128    23992637.671    23992641.187                    -1300050.581 8  -1300050.578 6                  -1013025.261 6       128.000          38.000          43.000                  
G12  24309316.844    24309316.562    24309320.593                    -3605157.937 8  -3605157.942 7                  -2809220.063 7       160.000          63.000          79.000                  
G13  19903995.513    19903994.924    19903996.768                   -22996620.483 9 -22996620.484 8                 -17919451.120 9       774.000         367.000         571.000                  
G14  23595160.149    23595160.127    23595163.222                    -5150016.066 8  -5150016.065 7                  -4013011.880 7       212.000          64.000          73.000                  
G15  22357287.752    22357287.500    22357289.911                   -10825654.500 8 -10825654.498 8                  -8435586.467 9       248.000         139.000         510.000                  
G17  20754444.094    20754443.627    20754445.147                   -20503400.467 9 -20503400.470 9                 -15976680.984 9       641.000         874.000        1149.000                  
G19  19447449.229    19447447.634    19447448.093                   -25303488.001 9 -25303488.003 9                 -19717008.918 9       929.000         812.000        1103.000                  
G20  22956630.041    22956628.750    22956631.728                    -8268098.266 8  -8268098.262 7                  -6442671.945 7       266.000          62.000          79.000                  
G22  22809571.244    22809569.973    22809572.650                   -11782101.159 8 -11782101.164 7                  -9180864.911 7       243.000          56.000          94.000                  
G30  22250191.835    22250191.424    22250196.534                   -13112665.086 8 -13112665.084 8                 -10217671.720 9       281.000         194.000         570.000                  
> 2024 10 31 14 18 10.0000000  0 12
G05  23260637.604    23260637.295    23260640.322                    -8930241.494 8  -8930241.491 8                  -6958633.659 8       219.000         128.000         353.000                  
G06  22353828.791    22353828.904    22353834.370                   -12437395.179 8 -12437395.188 8                  -9691477.430 9       209.000         131.000         714.000                  
G07  23971413.835    23971412.353    23971416.704                    -1411588.731 8  -1411588.732 6                  -1099937.808 6       125.000          48.000          46.000                  
G12  24306770.977    24306770.383    24306773.338                    -3618539.973 8  -3618539.988 7                  -2819647.499 7       165.000          70.000          92.000                  
G13  19936417.551    19936417.193    19936418.886                   -22826240.996 9 -22826240.995 8                 -17786687.909 9       765.000         347.000         603.000                  
G14  23656931.415    23656931.438    23656934.191                    -4825408.187 8  -4825408.192 7                  -3760071.023 7       202.000          51.000          76.000                  
G15  22404605.309    22404605.036    22404607.569                   -10576998.828 8 -10576998.825 8                  -8241828.921 8       250.000         147.000         487.000                  
G17  20793726.489    20793726.098    20793727.661                   -20296969.689 9 -20296969.690 9                 -15815825.878 9       621.000         832.000        1108.000                  
G19  19449959.045    19449957.595    19449958.135                   -25290297.949 9 -25290297.950 9                 -19706730.935 9       920.000         810.000        1113.000                  
G20  22902218.699    22902217.359    22902220.266                    -8554032.347 8  -8554032.344 7                  -6665477.475 7       274.000          65.000          85.000                  
G22  22876985.655    22876984.657    22876987.408                   -11427835.065 8 -11427835.067 6                  -8904813.586 7       241.000          44.000          75.000                  
G30  22259043.192    22259042.737    22259048.051                   -13066150.424 8 -13066150.422 8                 -10181426.524 9       282.000         188.000         565.000                  
> 2024 10 31 14 18 20.0000000  0 12
G05  23237736.887    23237736.960    23237739.637                    -9050583.364 8  -9050583.362 8                  -7052406.376 8       222.000         117.000         366.000                  
G06  22293655.849    22293656.142    22293661.718                   -12753604.141 8 -12753604.144 8                  -9937873.805 9       209.000         133.000         760.000                  
G07  23950353.229    23950351.998    23950356.837                    -1522258.303 8  -1522258.293 6                  -1186173.473 7       132.000          39.000          52.000                  
G12  24304781.973    24304781.202    24304784.647                    -3628991.292 8  -3628991.302 7                  -2827791.222 7       166.000          66.000          85.000                  
G13  19969479.820    19969479.337    19969480.978                   -22652498.653 9 -22652498.653 8                 -17651304.283 9       746.000         335.000         625.000                  
G14  23718912.607    23718912.056    23718915.195                    -4499697.538 8  -4499697.536 7                  -3506270.830 7       200.000          60.000          62.000                  
G15  22452227.739    22452227.183    22452229.941                   -10326742.257 8 -10326742.258 8                  -8046823.909 8       253.000         152.000         484.000                  
G17  20833918.251    20833917.703    20833919.357                   -20085760.952 9 -20085760.954 9                 -15651247.677 9       606.000         778.000        1053.000                  
G19  19453708.015    19453706.477    19453707.056                   -25270597.353 9 -25270597.355 9                 -19691379.798 9       905.000         787.000        1132.000                  
G20  22848040.974    22848039.916    22848042.722                    -8838735.255 8  -8838735.253 7                  -6887323.633 7       281.000          59.000          92.000                  
G22  22944790.186    22944788.525    22944791.066                   -11071523.830 8 -11071523.835 7                  -8627168.628 7       237.000          55.000          75.000                  
G30  22268298.323    22268297.263    22268302.455                   -13017517.605 8 -13017517.607 8                 -10143530.798 9       283.000         192.000         563.000                  
> 2024 10 31 14 18 30.0000000  0 12
G05  23215112.319    23215112.185    23215114.914                    -9169476.371 8  -9169476.371 8                  -7145050.107 8       224.000         130.000         361.000                  
G06  22234045.571    22234045.581    22234051.285                   -13066857.711 8 -13066857.717 8                 -10181967.277 9       201.000         130.000         774.000                  
G07  23929453.436    23929453.239    23929456.770                    -1632084.320 8  -1632084.328 6                  -1271751.841 6       129.000          43.000          44.000                  
G12  24303346.424    24303345.752    24303349.347                    -3636534.024 8  -3636534.027 7                  -2833668.509 7       160.000          58.000          88.000                  
G13  20003170.305    20003169.721    20003171.515                   -22475453.960 9 -22475453.958 8                 -17513347.388 9       730.000         319.000         628.000                  
G14  23781087.212    23781087.152    23781090.437                    -4172966.618 8  -4172966.616 7                  -3251675.631 7       189.000          55.000          57.000                  
G15  22500143.091    22500143.149    22500145.858                   -10074942.842 8 -10074942.845 8                  -7850616.661 8       255.000         142.000         488.000                  
G17  20875002.175    20875001.845    20875003.303                   -19869863.253 9 -19869863.255 9                 -15483015.731 9       596.000         770.000        1027.000                  
G19  19458688.251    19458686.691    19458687.319                   -25244425.615 9 -25244425.618 9                 -19670986.205 9       891.000         755.000        1126.000                  
G20  22794099.455    22794098.502    22794101.187                    -9122197.876 8  -9122197.878 7                  -7108203.337 7       289.000          75.000          95.000                  
G22  23012965.340    23012964.440    23012966.870                   -10713260.629 8 -10713260.639 6                  -8348002.646 7       237.000          48.000          74.000                  
G30  22277946.997    22277946.334    22277951.534                   -12966810.890 8 -12966810.886 8                 -10104019.033 9       282.000         197.000         560.000                  
> 2024 10 31 14 18 40.0000000  0 12
G05  23192770.555    23192770.185    23192773.015                    -9286883.381 8  -9286883.385 8                  -7236535.919 8       226.000         127.000         352.000                  
G06  22175012.040    22175012.117    22175017.613                   -13377080.332 8 -13377080.335 8                 -10423698.972 9       204.000         121.000         751.000                  
G07  23908718.554    23908718.287    23908721.642                    -1741044.120 8  -1741044.103 6                  -1356655.207 7       133.000          49.000          51.000                  
G12  24302468.108    24302467.942    24302471.824                    -3641143.371 8  -3641143.367 7                  -2837260.031 7       157.000          66.000          94.000                  
G13  20037486.710    20037486.219    20037487.967                   -22295120.055 9 -22295120.057 8                 -17372827.471 9       722.000         313.000         618.000                  
G14  23843450.125    23843449.878    23843453.077                    -3845249.905 8  -3845249.917 6                  -2996312.252 6       183.000          45.000          50.000                  
G15  22548351.038    22548350.513    22548353.419                    -9821611.228 8  -9821611.225 8                  -7653215.487 8       250.000         145.000         491.000                  
G17  20916970.352    20916969.931    20916971.518                   -19649319.054 9 -19649319.058 9                 -15311163.129 9       588.000         743.000        1021.000                  
G19  19464901.101    19464899.692    19464900.312                   -25211776.371 9 -25211776.373 9                 -19645545.199 9       876.000         740.000        1100.000                  
G20  22740405.035    22740403.990    22740406.747                    -9404363.103 8  -9404363.095 7                  -7328072.080 7       297.000          79.000         100.000                  
G22  23081503.757    23081502.382    23081505.408                   -10353090.630 8 -10353090.635 6                  -8067350.838 7       238.000          45.000          67.000                  
G30  22287991.534    22287990.740    22287995.913                   -12914027.069 8 -12914027.069 8                 -10062888.735 9       286.000         200.000         551.000                  
> 2024 10 31 14 18 50.0000000  0 12
G05  23170718.538    23170717.735    23170720.534                    -9402769.274 8  -9402769.272 8                  -7326836.437 8       230.000         132.000         359.000                  
G06  22116569.328    22116569.324    22116574.596                   -13684198.512 8 -13684198.514 8                 -10663011.620 9       209.000         134.000         765.000                  
G07  23888153.082    23888152.762    23888156.258                    -1849116.848 8  -1849116.836 6                  -1440867.316 7       134.000          47.000          59.000                  
G12  24302153.952    24302153.864    24302157.150                    -3642797.010 8  -3642797.005 7                  -2838548.397 7       157.000          59.000          92.000                  
G13  20072426.102    20072425.631    20072427.276                   -22111512.408 9 -22111512.406 8                 -17229756.577 9       708.000         304.000         620.000                  
G14  23905993.574    23905993.126    23905997.012                    -3516583.451 8  -3516583.458 6                  -2740208.805 6       174.000          45.000          48.000                  
G15  22596847.493    22596847.517    22596850.197                    -9566759.776 8  -9566759.776 8                  -7454630.015 8       249.000         149.000         492.000                  
G17  20959814.372    20959813.806    20959815.406                   -19424173.223 9 -19424173.225 9                 -15135724.829 9       578.000         719.000        1035.000                  
G19  19472347.242    19472345.653    19472346.280                   -25172647.255 9 -25172647.257 9                 -19615054.940 9       867.000         719.000        1071.000                  
G20  22686968.112    22686967.275    22686969.672                    -9685175.691 8  -9685175.699 7                  -7546886.835 8       302.000          78.000         111.000                  
G22  23150395.444    23150394.347    23150396.930                    -9991060.630 8  -9991060.642 6                  -7785249.671 7       226.000          48.000          71.000                  
G30  22298431.454    22298430.670    22298435.890                   -12859165.014 8 -12859165.014 8                 -10020139.018 9       285.000         202.000         568.000                  
> 2024 10 31 14 19  0.0000000  0 12
G05  23148953.057    23148952.446    23148955.354                    -9517144.933 8  -9517144.936 8                  -7415960.153 8       228.000         123.000         369.000                  
G06  22058722.778    22058722.522    22058727.718                   -13988184.848 8 -13988184.848 8                 -10899883.873 9       215.000         139.000         763.000                  
G07  23867750.395    23867750.746    23867754.047                    -1956327.722 8  -1956327.722 6                  -1524407.870 7       131.000          48.000          58.000                  
G12  24302396.354    24302396.728    24302399.984                    -3641519.149 8  -3641519.152 7                  -2837552.480 7       156.000          62.000          89.000                  
G13  20107976.728    20107976.225    20107977.835                   -21924692.854 9 -21924692.856 8                 -17084182.900 9       703.000         286.000         627.000                  
G14  23968702.081    23968701.240    23968705.577                    -3187048.966 8  -3187048.979 6                  -2483428.971 6       167.000          39.000          44.000                  
G15  22645622.342    22645622.326    22645624.955                    -9310446.816 8  -9310446.811 8                  -7254905.692 8       253.000         148.000         485.000                  
G17  21003516.376    21003515.911    21003517.455                   -19194517.224 9 -19194517.226 9                 -14956772.108 9       569.000         703.000        1016.000                  
G19  19481017.593    19481016.071    19481016.543                   -25127084.016 9 -25127084.017 9                 -19579551.076 9       858.000         702.000        1044.000                  
G20  22633790.566    22633789.524    22633791.856                    -9964626.072 8  -9964626.072 7                  -7764640.123 8       310.000          81.000         117.000                  
G22  23219623.981    23219622.650    23219626.160                    -9627263.138 8  -9627263.154 6                  -7501771.234 7       217.000          39.000          64.000                  
G30  22309257.938    22309257.176    22309262.531                   -12802269.873 8 -12802269.875 8                  -9975805.069 9       282.000         195.000         572.000                  
> 2024 10 31 14 19 10.0000000  0 12
G05  23127482.585    23127481.862    23127484.705                    -9629973.266 8  -9629973.268 8                  -7503878.155 8       231.000         123.000         372.000                  
G06  22001485.947    22001485.854    22001491.142                   -14288964.047 8 -14288964.052 8                 -11134257.069 9       221.000         145.000         757.000                  
G07  23847517.970    23847517.060    23847520.486                    -2062654.019 8  -2062654.035 6                  -1607259.144 7       130.000          42.000          62.000                  
G12  24303202.230    24303201.729    24303205.050                    -3637286.623 8  -3637286.630 7                  -2834254.226 7       155.000          54.000          89.000                  
G13  20144135.676    20144135.252    20144136.994                   -21734675.478 9 -21734675.477 8                 -16936117.409 9       703.000         296.000         623.000                  
G14  24031568.901    24031568.889    24031572.680                    -2856679.782 8  -2856679.773 6                  -2225998.694 6       160.000          36.000          50.000                  
G15  22694673.555    22694673.198    22694675.779                    -9052682.660 8  -9052682.661 8                  -7054050.556 8       253.000         143.000         468.000                  
G17  21048068.078    21048067.717    21048069.441                   -18960395.359 9 -18960395.362 9                 -14774339.485 9       549.000         649.000        1028.000                  
G19  19490912.306    19490910.841    19490911.491                   -25075086.288 9 -25075086.289 9                 -19539033.326 9       854.000         697.000        1010.000                  
G20  22580882.991    22580881.638    22580883.812                   -10242656.381 8 -10242656.375 7                  -7981286.868 8       308.000          82.000         117.000                  
G22  23289180.505    23289179.147    23289181.270                    -9261742.343 8  -9261742.341 6                  -7216949.943 7       211.000          38.000          53.000                  
G30  22320472.385    22320471.485    22320476.656                   -12743338.875 8 -12743338.873 8                  -9929884.730 9       279.000         197.000         569.000                  
> 2024 10 31 14 19 20.0000000  0 12
G05  23106312.383    23106312.239    23106314.968                    -9741219.319 8  -9741219.318 8                  -7590563.213 8       235.000         142.000         378.000                  
G06  21944874.466    21944873.775    21944878.735                   -14586463.030 8 -14586463.033 8                 -11366074.251 9       227.000         156.000         753.000                  
G07  23827456.236    23827455.650    23827459.097                    -2168074.885 8  -2168074.874 6                  -1689404.898 7       131.000          43.000          65.000                  
G12  24304573.917    24304573.312    24304576.794                    -3630078.877 8  -3630078.892 7                  -2828637.635 7       151.000          55.000          92.000                  
G13  20180900.285    20180899.852    20180901.425                   -21541476.823 9 -21541476.822 8                 -16785573.000 9       716.000         313.000         602.000                  
G14  24094588.713    24094588.651    24094591.592                    -2525510.908 8  -2525510.909 6                  -1967945.284 6       154.000          34.000          41.000                  
G15  22743998.084    22743997.953    22744000.614                    -8793479.601 8  -8793479.606 8                  -6852074.187 8       255.000         138.000         446.000                  
G17  21093460.720    21093460.555    21093462.314                   -18721854.592 9 -18721854.594 9                 -14588463.559 9       537.000         618.000        1054.000                  
G19  19502030.782    19502029.359    19502029.962                   -25016657.728 9 -25016657.730 9                 -19493504.537 9       848.000         692.000         957.000                  
G20  22528255.900    22528254.666    22528257.397                   -10519210.874 8 -10519210.874 7                  -8196783.628 8       310.000          78.000         111.000                  
G22  23359056.022    23359055.163    23359057.913                    -8894544.030 8  -8894544.038 6                  -6930821.501 7       203.000          37.000          51.000                  
G30  22332073.573    22332072.983    22332078.219                   -12682371.513 8 -12682371.511 8                  -9882377.617 9       283.000         189.000         587.000                  
> 2024 10 31 14 19 30.0000000  0 12
G05  23085442.151    23085441.772    23085444.504                    -9850894.050 8  -9850894.047 8                  -7676023.868 8       237.000         147.000         379.000                  
G06  21888891.074    21888890.768    21888895.623                   -14880654.897 8 -14880654.896 8                 -11595314.467 9       232.000         165.000         745.000                  
G07  23807562.351    23807562.022    23807565.471                    -2272615.488 8  -2272615.492 6                  -1770864.742 7       128.000          42.000          72.000                  
G12  24306507.505    24306506.094    24306509.461                    -3619922.196 8  -3619922.187 7                  -2820723.170 7       149.000          55.000         100.000                  
G13  20218258.055    20218257.769    20218259.343                   -21345159.748 9 -21345159.751 8                 -16632598.656 9       727.000         316.000         592.000                  
G14  24157745.102    24157744.553    24157748.573                    -2193622.981 8  -2193622.975 6                  -1709331.539 6       145.000          31.000          36.000                  
G15  22793585.758    22793585.458    22793588.033                    -8532895.914 8  -8532895.918 8                  -6649022.001 8       250.000         144.000         437.000                  
G17  21139677.128    21139676.523    21139678.234                   -18478988.447 9 -18478988.449 9                 -14399217.210 9       523.000         576.000        1007.000                  
G19  19514363.365    19514361.838    19514362.337                   -24951850.027 9 -24951850.029 9                 -19443004.992 9       836.000         675.000         910.000                  
G20  22475911.958    22475910.633    22475913.529                   -10794279.440 8 -10794279.435 7                  -8411122.546 8       308.000          78.000         115.000                  
G22  23429233.078    23429232.230    23429235.060                    -8525759.731 8  -8525759.740 6                  -6643457.205 6       187.000          31.000          48.000                  
G30  22344054.056    22344053.514    22344058.811                   -12619413.446 8 -12619413.446 8                  -9833319.303 9       279.000         185.000         604.000                  
> 2024 10 31 14 19 40.0000000  0 12
G05  23064877.786    23064877.039    23064879.835                    -9958960.724 8  -9958960.724 8                  -7760231.497 8       249.000         153.000         374.000                  
G06  21833551.770    21833551.437    21833556.095                   -15171464.987 8 -15171464.991 8                 -11821919.546 9       232.000         171.000         756.000                  
G07  23787841.153    23787840.264    23787843.118                    -2376253.057 8  -2376253.060 6                  -1851620.943 7       124.000          43.000          76.000                  
G12  24309005.078    24309004.186    24309006.916                    -3606795.303 8  -3606795.321 6                  -2810494.268 7       148.000          49.000         100.000                  
G13  20256206.717    20256206.214    20256207.657                   -21145739.442 9 -21145739.442 8                 -16477206.212 9       721.000         304.000         570.000                  
G14  24221031.893    24221031.737    24221035.070                    -1861048.351 8  -1861048.354 6                  -1450182.735 6       140.000          32.000          35.000                  
G15  22843433.901    22843433.520    22843436.226                    -8270941.782 8  -8270941.784 8                  -6444901.935 8       250.000         144.000         435.000                  
G17  21186707.192    21186706.593    21186708.237                   -18231843.297 8 -18231843.299 9                 -14206636.572 9       500.000         536.000         928.000                  
G19  19527908.727    19527907.158    19527907.632                   -24880668.863 9 -24880668.864 9                 -19387539.113 9       829.000         655.000         862.000                  
G20  22423861.908    22423860.365    22423862.786                   -11067803.828 8 -11067803.825 7                  -8624258.230 8       308.000          81.000         118.000                  
G22  23499704.562    23499703.087    23499705.667                    -8155432.573 8  -8155432.553 6                  -6354890.692 6       183.000          35.000          40.000                  
G30  22356413.938    22356413.150    22356418.389                   -12554462.576 8 -12554462.575 8                  -9782708.158 9       274.000         180.000         614.000                  
> 2024 10 31 14 19 50.0000000  0 12
G05  23044625.974    23044625.427    23044627.907                   -10065384.602 8 -10065384.601 8                  -7843159.036 8       260.000         161.000         379.000                  
G06  21778869.265    21778868.941    21778873.934                   -15458820.920 8 -15458820.923 8                 -12045833.076 9       237.000         173.000         789.000                  
G07  23768294.605    23768294.039    23768297.516                    -2478966.942 8  -2478966.940 6                  -1931657.391 7       121.000          45.000          82.000                  
G12  24312071.048    24312070.358    24312073.731                    -3590679.624 8  -3590679.635 6                  -2797936.454 7       145.000          49.000          99.000                  
G13  20294742.219    20294741.678    20294743.363                   -20943233.443 9 -20943233.441 8                 -16319409.335 9       726.000         320.000         548.000                  
G14  24284442.485    24284443.280    24284447.524                    -1527820.998 8  -1527820.981 6                  -1190525.308 6       133.000          33.000          30.000                  
G15  22893540.652    22893540.236    22893543.052                    -8007629.443 8  -8007629.445 8                  -6239723.524 8       252.000         144.000         421.000                  
G17  21234542.046    21234541.584    21234543.360                   -17980467.902 8 -17980467.904 8                 -14010759.641 9       471.000         481.000         897.000                  
G19  19542664.869    19542663.418    19542663.817                   -24803123.888 9 -24803123.891 9                 -19327114.424 9       823.000         641.000         842.000                  
G20  22372116.415    22372115.189    22372117.536                   -11339727.735 8 -11339727.740 7                  -8836146.789 8       307.000          85.000         119.000                  
G22  23570459.961    23570459.119    23570462.270                    -7783607.326 8  -7783607.333 6                  -6065156.856 6       172.000          36.000          34.000                  
G30  22369152.985    22369152.277    22369157.290                   -12487518.979 8 -12487518.977 8                  -9730544.239 9       272.000         182.000         625.000                  
> 2024 10 31 14 20  0.0000000  0 12
G05  23024684.187    23024684.180    23024686.454                   -10170177.142 8 -10170177.138 8                  -7924815.410 8       269.000         185.000         372.000                  
G06  21724849.469    21724849.235    21724853.895                   -15742696.584 8 -15742696.585 8                 -12267034.725 9       241.000         186.000         817.000                  
G07  23748920.068    23748919.015    23748922.431                    -2580782.383 8  -2580782.402 6                  -2010993.782 8       120.000          33.000         105.000                  
G12  24315701.505    24315700.539    24315703.519                    -3571603.268 8  -3571603.277 7                  -2783071.629 8       140.000          54.000         108.000                  
G13  20333852.881    20333852.370    20333854.029                   -20737705.683 9 -20737705.682 8                 -16159257.841 9       739.000         322.000         527.000                  
G14  24347963.335    24347963.523    24347967.685                    -1194020.561 8  -1194020.575 6                   -930421.320 6       129.000          28.000          34.000                  
G15  22943894.708    22943894.396    22943897.203                    -7743017.098 8  -7743017.098 8                  -6033532.127 8       249.000         138.000         425.000                  
G17  21283164.092    21283163.508    21283165.327                   -17724957.563 8 -17724957.564 8                 -13811660.679 9       458.000         454.000         880.000                  
G19  19558621.015    19558619.652    19558620.262                   -24719272.686 9 -24719272.688 9                 -19261775.793 9       808.000         616.000         836.000                  
G20  22320677.535    22320675.896    22320678.492                   -11610040.645 8 -11610040.644 7                  -9046780.039 8       307.000          78.000         128.000                  
G22  23641483.525    23641482.431    23641485.799                    -7410374.492 8  -7410374.488 6                  -5774326.184 6       157.000          25.000          37.000                  
G30  22382262.207    22382261.384    22382266.448                   -12418628.949 8 -12418628.947 8                  -9676863.621 9       272.000         183.000         626.000                  
> 2024 10 31 14 20 10.0000000  0 12
G05  23005060.492    23005060.070    23005062.385                   -10273301.560 8 -10273301.558 8                  -8005171.958 8       275.000         191.000         373.000                  
G06  21671505.721    21671505.827    21671510.491                   -16023018.000 8 -16023018.004 8                 -12485466.845 9       248.000         193.000         847.000                  
G07  23729719.022    23729718.975    23729722.990                    -2681676.518 8  -2681676.519 6                  -2089612.292 8       120.000          42.000         108.000                  
G12  24319898.120    24319897.121    24319900.796                    -3549546.872 8  -3549546.867 6                  -2765884.718 8       136.000          45.000         104.000                  
G13  20373535.691    20373535.107    20373536.516                   -20529172.050 9 -20529172.051 8                 -15996764.113 8       743.000         340.000         486.000                  
G14  24411587.432    24411587.297    24411591.065                     -859678.160 8   -859678.156 6                   -669895.025 6       121.000          30.000          33.000                  
G15  22994495.037    22994493.883    22994496.697                    -7477114.729 8  -7477114.730 8                  -5826335.521 8       243.000         131.000         410.000                  
G17  21332564.129    21332563.481    21332565.216                   -17465359.909 8 -17465359.911 8                 -13609376.804 9       449.000         444.000         861.000                  
G19  19575775.500    19575773.839    19575774.453                   -24629126.627 9 -24629126.629 9                 -19191532.082 9       796.000         604.000         815.000                  
G20  22269555.906    22269554.740    22269557.296                   -11878683.811 8 -11878683.812 7                  -9256112.202 8       308.000          84.000         137.000                  
G22  23712767.804    23712766.397    23712770.874                    -7035775.932 8  -7035775.967 6                  -5482431.285 6       147.000          25.000          30.000                  
G30  22395742.657    22395741.326    22395746.516                   -12347790.801 8 -12347790.801 8                  -9621664.993 9       269.000         182.000         616.000                  
> 2024 10 31 14 20 20.0000000  0 12
G05  22985760.724    22985760.054    22985762.225                   -10374723.487 8 -10374723.492 8                  -8084201.907 8       287.000         199.000         367.000                  
G06  21618852.944    21618852.217    21618856.804                   -16299713.726 8 -16299713.729 8                 -12701073.756 9       258.000         208.000         900.000                  
G07  23710699.096    23710698.858    23710702.272                    -2781628.752 8  -2781628.749 6                  -2167496.864 8       120.000          36.000         111.000                  
G12  24324664.879    24324664.446    24324668.032                    -3524493.951 8  -3524493.942 6                  -2746362.866 7       132.000          45.000         100.000                  
G13  20413786.487    20413786.211    20413787.669                   -20317651.035 9 -20317651.034 8                 -15831942.552 8       739.000         331.000         462.000                  
G14  24475307.891    24475307.199    24475310.832                     -524826.717 8   -524826.724 6                   -408972.113 6       112.000          33.000          27.000                  
G15  23045336.921    23045336.741    23045339.516                    -7209934.421 8  -7209934.422 8                  -5618143.125 8       235.000         132.000         391.000                  
G17  21382731.681    21382731.594    21382733.102                   -17201725.374 8 -17201725.377 8                 -13403947.308 9       441.000         415.000         868.000                  
G19  19594124.346    19594123.110    19594123.633                   -24532701.096 9 -24532701.098 9                 -19116395.281 9       800.000         604.000         814.000                  
G20  22218763.287    22218762.023    22218764.458                   -12145600.477 8 -12145600.480 7                  -9464099.043 8       308.000          80.000         135.000                  
G22  23784302.846    23784301.847    23784304.558                    -6659855.409 8  -6659855.413 6                  -5189506.323 6       132.000          24.000          28.000                  
G30  22409592.377    22409591.849    22409597.012                   -12275005.168 8 -12275005.167 8                  -9564948.848 9       261.000         179.000         634.000                  
> 2024 10 31 14 20 30.0000000  0 12
G05  22966782.368    22966781.819    22966783.940                   -10474454.347 8 -10474454.348 8                  -8161914.142 8       292.000         211.000         356.000                  
G06  21566893.088    21566893.229    21566898.044                   -16572758.440 8 -16572758.446 8                 -12913835.734 9       265.000         222.000         923.000                  
G07  23691853.155    23691852.785    23691856.071                    -2880664.220 8  -2880664.234 6                  -2244667.103 8       116.000          37.000         119.000                  
G12  24329997.388    24329996.338    24329999.717                    -3496474.350 8  -3496474.354 6                  -2724529.326 8       128.000          46.000         104.000                  
G13  20454594.067    20454593.575    20454595.108                   -20103207.075 9 -20103207.077 8                 -15664843.378 8       741.000         331.000         422.000                  
G14  24539110.466    24539108.840    24539113.870                     -189544.629 8   -189544.655 6                   -147713.634 6       112.000          24.000          26.000                  
G15  23096411.609    23096411.723    23096414.538                    -6941533.904 8  -6941533.902 8                  -5408999.926 8       228.000         116.000         372.000                  
G17  21433649.767    21433649.193    21433650.963                   -16934150.430 8 -16934150.432 8                 -13195447.372 9       431.000         405.000         886.000                  
G19  19613656.594    19613655.154    19613655.745                   -24430059.137 9 -24430059.139 9                 -19036414.516 9       814.000         625.000         798.000                  
G20  22168301.121    22168299.857    22168302.634                   -12410779.562 8 -12410779.556 7                  -9670731.936 8       317.000          83.000         134.000                  
G22  23856073.123    23856072.217    23856075.613                    -6282702.058 8  -6282702.073 6                  -4895620.760 6       125.000          20.000          27.000                  
G30  22423804.915    22423804.201    22423809.329                   -12200318.725 8 -12200318.723 8                  -9506751.561 9       263.000         162.000         616.000                  
> 2024 10 31 14 20 40.0000000  0 12
G05  22948132.963    22948132.403    22948134.333                   -10572458.268 8 -10572458.268 8                  -8238280.721 8       290.000         211.000         345.000                  
G06  21515643.582    21515643.088    21515647.750                   -16842079.775 8 -16842079.776 8                 -13123696.384 9       276.000         241.000         940.000                  
G07  23673186.082    23673185.070    23673188.618                    -2978760.689 8  -2978760.684 6                  -2321105.681 8       123.000          35.000         129.000                  
G12  24335896.443    24335896.242    24335899.728                    -3465471.198 8  -3465471.201 6                  -2700370.952 8       130.000          46.000         107.000                  
G13  20495954.282    20495953.667    20495955.244                   -19885857.590 9 -19885857.590 8                 -15495480.158 8       731.000         317.000         389.000                  
G14  24602988.706    24602988.001    24602991.939                      146137.546 8    146137.548 6                    113856.622 6       104.000          28.000          31.000                  
G15  23147716.770    23147716.558    23147719.759                    -6671923.701 8  -6671923.703 8                  -5198914.124 8       218.000         114.000         363.000                  
G17  21485308.005    21485307.646    21485309.317                   -16662684.586 8 -16662684.589 8                 -12983915.569 9       427.000         391.000         900.000                  
G19  19634368.514    19634366.927    19634367.496                   -24321218.231 9 -24321218.233 9                 -18951603.408 9       819.000         638.000         780.000                  
G20  22118180.879    22118179.685    22118181.739                   -12674162.564 8 -12674162.562 7                  -9875965.291 8       324.000          85.000         138.000                  
G22  23928070.758    23928068.768    23928072.458                    -5904357.309 8  -5904357.313 6                  -4600806.785 6       118.000          22.000          26.000                  
G30  22438379.237    22438378.245    22438383.535                   -12123730.831 8 -12123730.831 8                  -9447072.627 9       251.000         154.000         610.000                  
> 2024 10 31 14 20 50.0000000  0 12
G05  22929818.388    22929818.182    22929819.867                   -10668700.677 8 -10668700.674 8                  -8313274.693 8       295.000         215.000         341.000                  
G06  21465114.832    21465114.864    21465119.568                   -17107606.906 8 -17107606.911 8                 -13330600.512 9       292.000         261.000         966.000                  
G07  23654700.846    23654701.159    23654703.981                    -3075897.054 8  -3075897.046 6                  -2396796.131 8       119.000          39.000         124.000                  
G12  24342367.478    24342366.312    24342370.240                    -3431469.378 8  -3431469.367 6                  -2673875.973 8       132.000          41.000         107.000                  
G13  20537863.933    20537863.425    20537864.900                   -19665621.264 9 -19665621.264 8                 -15323867.452 8       722.000         310.000         346.000                  
G14  24666936.999    24666935.950    24666941.303                      482188.482 8    482188.473 6                    375714.194 6       101.000          27.000          25.000                  
G15  23199250.042    23199250.026    23199253.144                    -6401115.277 8  -6401115.284 8                  -4987894.653 8       213.000         101.000         356.000                  
G17  21537696.916    21537696.537    21537698.399                   -16387378.947 8 -16387378.948 8                 -12769391.719 9       419.000         376.000         937.000                  
G19  19656255.979    19656254.405    19656254.967                   -24206198.737 9 -24206198.738 9                 -18861977.817 9       826.000         647.000         751.000                  
G20  22068413.532    22068412.079    22068414.569                   -12935691.998 8 -12935691.994 7                 -10079754.314 8       333.000          92.000         145.000                  
G22  24000285.025    24000284.359    24000288.071                    -5524863.085 8  -5524863.082 6                  -4305097.151 6       114.000          29.000          25.000                  
G30  22453314.836    22453314.108    22453319.354                   -12045242.157 8 -12045242.157 8                  -9385912.573 9       249.000         157.000         589.000                  
> 2024 10 31 14 21  0.0000000  0 12
G05  22911836.528    22911836.303    22911838.211                   -10763193.933 8 -10763193.932 8                  -8386905.694 8       297.000         211.000         338.000                  
G06  21415313.543    21415313.191    21415317.791                   -17369316.116 8 -17369316.117 8                 -13534529.645 9       316.000         306.000         970.000                  
G07  23636395.748    23636394.375    23636397.164                    -3172098.919 8  -3172098.914 6                  -2471758.426 8       119.000          36.000         131.000                  
G12  24349401.737    24349401.280    24349404.763                    -3394501.167 8  -3394501.156 6                  -2645069.527 8       136.000          44.000         110.000                  
G13  20580310.346    20580309.673    20580311.212                   -19442563.728 9 -19442563.728 8                 -15150056.408 8       713.000         295.000         329.000                  
G14  24730940.426    24730940.419    24730945.173                      818530.527 7    818530.549 6                    637798.587 6        98.000          21.000          27.000                  
G15  23251000.425    23251000.242    23251003.406                    -6129166.633 8  -6129166.633 7                  -4775986.704 8       211.000         100.000         335.000                  
G17  21590797.666    21590797.250    21590799.384                   -16108331.579 8 -16108331.583 8                 -12551952.242 9       405.000         353.000         961.000                  
G19  19679305.956    19679304.527    19679305.003                   -24085069.422 9 -24085069.424 9                 -18767591.336 9       833.000         665.000         723.000                  
G20  22019000.791    22018999.349    22019001.533                   -13195356.910 8 -13195356.910 7                 -10282090.471 8       334.000          96.000         146.000                  
G22  24072702.483    24072701.855    24072703.827                    -5144307.691 8  -5144307.674 6                  -4008560.643 6       110.000          22.000          24.000                  
G30  22468603.942    22468602.691    22468607.883                   -11964900.214 8 -11964900.211 8                  -9323308.420 9       246.000         149.000         586.000                  
> 2024 10 31 14 21 10.0000000  0 12
G05  22894194.774    22894194.558    22894196.222                   -10855901.839 8 -10855901.834 8                  -8459145.517 8       296.000         216.000         336.000                  
G06  21366251.990    21366251.913    21366256.157                   -17627135.620 8 -17627135.623 8                 -13735427.848 9       346.000         368.000         950.000                  
G07  23618270.455    23618269.521    23618272.176                    -3267343.428 8  -3267343.429 6                  -2545974.746 8       116.000          42.000         136.000                  
G12  24357004.085    24357003.514    24357006.563                    -3354551.009 8  -3354551.023 6                  -2613939.495 8       137.000          45.000         111.000                  
G13  20623290.438    20623289.963    20623291.222                   -19216702.359 9 -19216702.358 8                 -14974060.565 8       705.000         297.000         299.000                  
G14  24794994.002    24794993.315    24794999.049                     1155134.886 7   1155134.883 6                    900087.378 6        92.000          28.000          24.000                  
G15  23302965.425    23302965.555    23302968.675                    -5856087.342 8  -5856087.343 7                  -4563197.748 8       207.000          97.000         312.000                  
G17  21644601.265    21644600.861    21644602.922                   -15825592.297 8 -15825592.300 8                 -12331635.957 9       392.000         334.000         955.000                  
G19  19703514.638    19703513.209    19703513.638                   -23957852.338 9 -23957852.341 9                 -18668461.145 9       831.000         670.000         695.000                  
G20  21969954.228    21969953.026    21969955.231                   -13453097.708 8 -13453097.707 7                 -10482927.314 8       340.000          91.000         139.000                  
G22  24145315.100    24145312.994    24145315.971                    -4762730.655 8  -4762730.687 6                  -3711227.983 6       107.000          22.000          19.000                  
G30  22484245.054    22484243.966    22484249.181                   -11882704.132 8 -11882704.135 8                  -9259259.493 9       246.000         146.000         575.000                  
> 2024 10 31 14 21 20.0000000  0 12
G05  22876898.887    22876898.983    22876900.690                   -10946790.527 8 -10946790.524 8                  -8529967.768 8       299.000         216.000         348.000                  
G06  21317943.930    21317943.759    21317947.903                   -17880996.347 8 -17880996.350 8                 -13933241.292 9       363.000         408.000         968.000                  
G07  23600331.161    23600330.876    23600333.869                    -3361610.166 8  -3361610.178 6                  -2619429.179 8       114.000          37.000         142.000                  
G12  24365176.649    24365175.796    24365178.966                    -3311606.040 8  -3311606.049 6                  -2580475.863 8       134.000          44.000         118.000                  
G13  20666800.315    20666799.731    20666801.078                   -18988056.832 9 -18988056.833 8                 -14795895.251 8       685.000         282.000         276.000                  
G14  24859092.479    24859092.161    24859097.909                     1491971.054 7   1491971.057 6                   1162556.783 6        91.000          21.000          23.000                  
G15  23355143.999    23355144.029    23355147.000                    -5581889.032 8  -5581889.027 7                  -4349536.840 8       205.000          93.000         296.000                  
G17  21699097.414    21699097.159    21699099.086                   -15539213.422 8 -15539213.426 8                 -12108483.633 9       383.000         309.000         967.000                  
G19  19728876.856    19728875.355    19728875.758                   -23824573.350 9 -23824573.352 9                 -18564607.391 9       833.000         664.000         684.000                  
G20  21921285.053    21921283.599    21921285.673                   -13708857.003 8 -13708857.003 8                 -10682220.138 8       344.000         101.000         146.000                  
G22  24218113.829    24218111.734    24218114.107                    -4380173.107 8  -4380173.107 6                  -3413131.450 6       105.000          25.000          20.000                  
G30  22500238.048    22500237.950    22500242.986                   -11798655.445 8 -11798655.443 8                  -9193766.984 9       246.000         139.000         560.000                  
> 2024 10 31 14 21 30.0000000  0 12
G05  22859947.391    22859947.129    22859949.048                   -11035872.348 8 -11035872.346 8                  -8599382.074 8       299.000         215.000         350.000                  
G06  21270393.451    21270393.161    21270397.327                   -18130875.882 8 -18130875.884 8                 -14127952.512 9       384.000         450.000         984.000                  
G07  23582574.771    23582573.672    23582576.588                    -3454924.183 8  -3454924.198 6                  -2692141.244 8       118.000          30.000         151.000                  
G12  24373911.832    24373911.221    24373914.298                    -3265700.358 8  -3265700.374 6                  -2544705.174 8       134.000          49.000         107.000                  
G13  20710826.918    20710826.805    20710828.329                   -18756693.255 9 -18756693.257 8                 -14615611.977 8       654.000         257.000         257.000                  
G14  24923221.434    24923220.080    24923224.974                     1828962.573 7   1828962.569 6                   1425147.182 6        84.000          24.000          25.000                  
G15  23407524.045    23407524.172    23407527.169                    -5306629.346 8  -5306629.351 7                  -4135048.899 8       206.000          93.000         274.000                  
G17  21754267.591    21754266.865    21754268.991                   -15249293.583 8 -15249293.584 8                 -11882572.115 9       362.000         284.000         936.000                  
G19  19755378.395    19755376.988    19755377.403                   -23685306.292 9 -23685306.294 9                 -18456087.608 9       830.000         663.000         692.000                  
G20  21872994.403    21872993.421    21872995.219                   -13962623.567 8 -13962623.570 8                 -10879960.181 8       352.000         103.000         146.000                  
G22  24291082.575    24291079.828    24291083.485                    -3996722.123 7  -3996722.105 6                  -3114338.639 6        97.000          24.000          21.000                  
G30  22516575.948    22516575.393    22516580.461                   -11712801.953 8 -11712801.952 8                  -9126868.144 9       247.000         147.000         553.000                  
> 2024 10 31 14 21 40.0000000  0 12
G05  22843346.511    22843345.846    22843347.833                   -11123111.787 8 -11123111.785 8                  -8667360.767 8       295.000         211.000         350.000                  
G06  21223613.890    21223613.557    21223617.654                   -18376704.158 8 -18376704.160 8                 -14319506.907 9       400.000         487.000         987.000                  
G07  23565002.979    23565002.142    23565005.116                    -3547262.904 8  -3547262.916 6                  -2764093.340 8       110.000          33.000         154.000                  
G12  24383213.085    24383212.552    24383215.964                    -3216820.515 8  -3216820.522 6                  -2506616.959 8       132.000          46.000         107.000                  
G13  20755367.977    20755367.380    20755369.118                   -18522629.676 9 -18522629.674 8                 -14433224.810 8       626.000         229.000         239.000                  
G14  24987371.612    24987371.906    24987377.346                     2166081.690 7   2166081.682 6                   1687836.976 6        81.000          26.000          27.000                  
G15  23460104.842    23460104.672    23460107.486                    -5030317.780 8  -5030317.779 7                  -3919741.317 8       201.000          88.000         254.000                  
G17  21810101.250    21810100.982    21810103.146                   -14955883.519 8 -14955883.519 8                 -11653940.946 9       359.000         276.000         896.000                  
G19  19783014.465    19783012.919    19783013.459                   -23540078.251 9 -23540078.253 9                 -18342922.908 9       825.000         657.000         694.000                  
G20  21825094.908    21825093.664    21825095.301                   -14214337.769 8 -14214337.768 8                 -11076100.983 8       356.000         103.000         157.000                  
G22  24364214.203    24364210.980    24364215.663                    -3612416.025 7  -3612416.040 6                  -2814879.455 6        91.000          22.000          15.000                  
G30  22533257.290    22533256.365    22533261.273                   -11625143.390 8 -11625143.388 8                  -9058562.756 9       247.000         148.000         539.000                  
> 2024 10 31 14 21 50.0000000  0 12
G05  22827101.797    22827101.526    22827103.416                   -11208475.600 8 -11208475.598 8                  -8733877.932 8       295.000         212.000         347.000                  
G06  21177617.877    21177617.646    21177621.738                   -18618413.779 8 -18618413.781 9                 -14507851.963 9       409.000         516.000        1021.000                  
G07  23547620.801    23547619.681    23547622.933                    -3638605.899 8  -3638605.918 6                  -2835269.552 8       115.000          40.000         151.000                  
G12  24393082.784    24393082.130    24393085.703                    -3164955.823 8  -3164955.828 6                  -2466202.889 8       130.000          44.000         109.000                  
G13  20800418.641    20800418.305    20800419.819                   -18285886.444 9 -18285886.445 8                 -14248749.602 8       589.000         199.000         220.000                  
G14  25051543.407    25051542.371    25051548.049                     2503298.869 7   2503298.838 6                   1950603.165 6        75.000          19.000          21.000                  
G15  23512883.643    23512883.279    23512885.942                    -4752965.792 8  -4752965.792 7                  -3703623.034 8       198.000          84.000         242.000                  
G17  21866589.802    21866589.249    21866591.240                   -14659036.219 8 -14659036.224 8                 -11422631.414 9       353.000         269.000         851.000                  
G19  19811778.936    19811777.454    19811777.896                   -23388920.102 9 -23388920.103 9                 -18225137.342 9       823.000         658.000         684.000                  
G20  21777596.691    21777595.249    21777597.202                   -14463942.200 8 -14463942.204 8                 -11270597.805 8       363.000         110.000         166.000                  
G22  24437498.765    24437497.533    24437499.626                    -3227294.892 7  -3227294.900 6                  -2514785.350 6        87.000          21.000          16.000                  
G30  22550280.968    22550280.283    22550285.185                   -11535681.784 8 -11535681.786 8                  -8988852.408 9       248.000         158.000         537.000                  
> 2024 10 31 14 22  0.0000000  0 12
G05  22811212.246    22811211.885    22811213.687                   -11291976.075 8 -11291976.074 8                  -8798943.136 8       291.000         204.000         345.000                  
G06  21132409.781    21132409.626    21132413.654                   -18855983.255 8 -18855983.258 9                 -14692970.933 9       429.000         555.000        1056.000                  
G07  23530422.750    23530422.424    23530425.724                    -3728977.819 8  -3728977.805 6                  -2905689.073 8       116.000          35.000         161.000                  
G12  24403514.040    24403513.174    24403515.997                    -3110141.516 8  -3110141.530 6                  -2423490.415 8       131.000          41.000         108.000                  
G13  20845966.862    20845966.220    20845967.918                   -18046529.347 9 -18046529.347 8                 -14062237.616 8       546.000         182.000         208.000                  
G14  25115718.021    25115716.731    25115722.648                     2840539.165 7   2840539.169 6                   2213387.297 6        70.000          23.000          23.000                  
G15  23565849.243    23565848.956    23565851.585                    -4474630.073 8  -4474630.073 7                  -3486738.208 8       191.000          83.000         229.000                  
G17  21923713.253    21923712.897    21923714.836                   -14358850.009 8 -14358850.013 8                 -11188720.142 9       350.000         263.000         795.000                  
G19  19841657.016    19841655.474    19841655.967                   -23231909.571 9 -23231909.573 9                 -18102791.478 9       819.000         644.000         691.000                  
G20  21730501.884    21730500.659    21730503.140                   -14711424.757 8 -14711424.760 8                 -11463441.227 8       370.000         110.000         175.000                  
G22  24510924.113    24510921.879    24510926.219                    -2841443.589 7  -2841443.610 6                  -2214122.208 6        78.000          22.000          17.000                  
G30  22567639.027    22567638.331    22567643.353                   -11444464.521 8 -11444464.522 8                  -8917774.020 9       256.000         165.000         525.000                  
> 2024 10 31 14 22 10.0000000  0 12
G05  22795683.854    22795683.421    22795685.161                   -11373578.238 8 -11373578.240 8                  -8862529.142 8       284.000         200.000         350.000                  
G06  21088002.620    21088002.357    21088006.402                   -19089344.525 8 -19089344.528 9                 -14874810.782 9       449.000         610.000        1099.000                  
G07  23513415.318    23513413.896    23513417.586                    -3818356.303 8  -3818356.313 6                  -2975334.503 8       122.000          42.000         168.000                  
G12  24414508.181    24414507.018    24414510.331                    -3052366.131 8  -3052366.144 6                  -2378470.603 8       126.000          40.000         104.000                  
G13  20892008.621    20892008.488    20892009.958                   -17804577.069 9 -17804577.072 8                 -13873703.412 8       502.000         151.000         199.000                  
G14  25179894.200    25179891.605    25179897.235                     3177776.792 7   3177776.822 6                   2476169.357 6        63.000          20.000          19.000                  
G15  23619000.180    23618999.571    23619002.595                    -4195320.179 8  -4195320.176 7                  -3269094.295 8       183.000          71.000         211.000                  
G17  21981462.401    21981461.999    21981464.042                   -14055376.462 8 -14055376.464 8                 -10952247.317 9       349.000         273.000         754.000                  
G19  19872642.546    19872641.225    19872641.759                   -23069078.565 9 -23069078.567 9                 -17975910.179 9       810.000         630.000         682.000                  
G20  21683822.529    21683821.348    21683823.166                   -14956725.995 8 -14956725.997 8                 -11654584.921 8       370.000         107.000         174.000                  
G22  24584483.101    24584479.141    24584482.304                    -2454899.495 7  -2454899.481 6                  -1912918.607 6        75.000          26.000          18.000                  
G30  22585331.160    22585330.557    22585335.321                   -11351491.973 8 -11351491.974 8                  -8845327.876 9       256.000         156.000         510.000                  
> 2024 10 31 14 22 20.0000000  0 12
G05  22780521.711    22780521.301    22780523.202                   -11453254.730 8 -11453254.730 8                  -8924614.617 8       280.000         197.000         351.000                  
G06  21044407.548    21044407.463    21044411.406                   -19318437.582 8 -19318437.584 9                 -15053324.748 9       466.000         659.000        1159.000                  
G07  23496597.701    23496598.257    23496600.883                    -3906726.404 8  -3906726.422 6                  -3044194.170 8       123.000          40.000         167.000                  
G12  24426066.242    24426064.980    24426069.066                    -2991626.394 8  -2991626.390 6                  -2331140.907 8       124.000          44.000         104.000                  
G13  20938539.588    20938539.225    20938540.801                   -17560055.958 8 -17560055.957 8                 -13683167.518 8       478.000         139.000         199.000                  
G14  25244061.220    25244059.324    25244064.352                     3514977.325 7   3514977.341 6                   2738922.544 6        59.000          27.000          23.000                  
G15  23672332.863    23672333.097    23672335.889                    -3915052.858 8  -3915052.865 7                  -3050704.338 8       176.000          79.000         199.000                  
G17  22039826.144    22039825.523    22039827.494                   -13748674.509 8 -13748674.512 8                 -10713258.851 9       350.000         268.000         711.000                  
G19  19904728.320    19904726.729    19904727.162                   -22900467.985 9 -22900467.986 9                 -17844525.315 9       800.000         616.000         668.000                  
G20  21637568.187    21637567.157    21637568.872                   -15199793.999 8 -15199794.003 8                 -11843988.431 8       367.000         110.000         186.000                  
G22  24658162.717    24658160.196    24658166.991                    -2067706.855 7  -2067706.855 6                  -1611210.019 6        72.000          19.000          17.000                  
G30  22603355.810    22603355.040    22603360.033                   -11256772.004 8 -11256772.007 8                  -8771520.110 9       258.000         166.000         503.000                  
> 2024 10 31 14 22 30.0000000  0 12
G05  22765724.689    22765724.487    22765726.563                   -11531010.886 8 -11531010.890 8                  -8985203.717 8       278.000         189.000         365.000                  
G06  21001629.848    21001629.745    21001633.708                   -19543235.453 8 -19543235.454 9                 -15228491.817 9       484.000         722.000        1212.000                  
G07  23479971.394    23479970.208    23479972.965                    -3994105.563 8  -3994105.562 6                  -3112281.672 8       129.000          38.000         171.000                  
G12  24438183.998    24438182.279    24438185.579                    -2927952.076 8  -2927952.079 6                  -2281524.518 7       121.000          38.000         100.000                  
G13  20985548.057    20985547.515    20985549.166                   -17313024.808 8 -17313024.810 8                 -13490675.748 8       454.000         122.000         195.000                  
G14  25308206.580    25308207.839    25308213.670                     3852074.914 7   3852074.912 6                   3001595.407 6        62.000          23.000          21.000                  
G15  23725839.465    23725839.178    23725842.006                    -3633877.061 8  -3633877.071 7                  -2831606.479 8       172.000          69.000         186.000                  
G17  22098786.584    22098786.015    22098787.981                   -13438835.420 8 -13438835.423 8                 -10471825.867 9       347.000         268.000         693.000                  
G19  19937899.433    19937897.891    19937898.411                   -22726152.486 9 -22726152.488 9                 -17708695.060 9       781.000         591.000         666.000                  
G20  21591742.709    21591741.201    21591743.690                   -15440609.034 8 -15440609.035 8                 -12031636.381 8       368.000         112.000         202.000                  
G22  24731951.735    24731950.012    24731953.058                    -1679941.804 7  -1679941.820 6                  -1309053.690 6        68.000          22.000          15.000                  
G30  22621705.119    22621704.551    22621709.490                   -11160344.931 8 -11160344.928 8                  -8696382.129 8       257.000         158.000         498.000                  
> 2024 10 31 14 22 40.0000000  0 12
G05  22751302.338    22751302.181    22751304.184                   -11606801.117 8 -11606801.119 8                  -9044260.921 8       276.000         196.000         370.000                  
G06  20959684.198    20959684.091    20959688.015                   -19763660.945 9 -19763660.948 9                 -15400251.839 9       504.000         773.000        1248.000                  
G07  23463537.845    23463537.456    23463540.138                    -4080460.343 8  -4080460.343 6                  -3179570.952 8       133.000          47.000         169.000                  
G12  24450861.861    24450861.794    24450864.403                    -2861322.651 8  -2861322.660 6                  -2229605.444 7       121.000          36.000          99.000                  
G13  21033032.461    21033031.946    21033033.998                   -17063491.573 8 -17063491.574 8                 -13296234.302 8       432.000         117.000         193.000                  
G14  25372336.339    25372333.810    25372340.146                     4189055.029 7   4189055.042 6                   3264176.714 6        54.000          21.000          17.000                  
G15  23779518.617    23779518.584    23779521.187                    -3351790.847 8  -3351790.847 7                  -2611799.199 8       164.000          62.000         167.000                  
G17  22158336.241    22158335.718    22158337.793                   -13125899.652 8 -13125899.653 8                 -10227979.883 9       343.000         256.000         689.000                  
G19  19972151.155    19972149.842    19972150.408                   -22546157.103 9 -22546157.105 9                 -17568438.919 9       771.000         560.000         647.000                  
G20  21546359.045    21546357.896    21546359.826                   -15679100.571 8 -15679100.565 8                 -12217473.818 8       370.000         112.000         208.000                  
G22  24805846.447    24805843.977    24805845.319                    -1291629.211 7  -1291629.202 6                  -1006474.650 6        63.000          18.000          14.000                  
G30  22640381.763    22640380.722    22640385.703                   -11062200.309 8 -11062200.307 8                  -8619905.787 8       252.000         158.000         489.000                  
> 2024 10 31 14 22 50.0000000  0 12
G05  22737251.897    22737251.949    22737253.994                   -11680634.615 8 -11680634.616 8                  -9101793.404 8       282.000         202.000         367.000                  
G06  20918574.627    20918574.639    20918578.613                   -19979692.277 9 -19979692.279 9                 -15568587.837 9       513.000         802.000        1324.000                  
G07  23447296.906    23447295.316    23447297.820                    -4165811.871 8  -4165811.860 6                  -3246078.468 8       136.000          44.000         163.000                  
G12  24464097.230    24464096.035    24464099.810                    -2791772.775 8  -2791772.760 6                  -2175410.696 7       119.000          36.000          96.000                  
G13  21080981.471    21080980.808    21080982.886                   -16811518.915 8 -16811518.913 8                 -13099892.001 8       415.000         102.000         192.000                  
G14  25436421.839    25436422.997    25436430.973                     4525848.873 7   4525848.865 6                   3526612.893 6        55.000          24.000          21.000                  
G15  23833361.078    23833361.043    23833364.024                    -3068846.744 8  -3068846.735 7                  -2391323.439 8       160.000          51.000         173.000                  
G17  22218457.450    22218456.801    22218458.587                   -12809962.228 8 -12809962.229 8                  -9981794.948 9       339.000         257.000         677.000                  
G19  20007468.739    20007467.243    20007467.647                   -22360562.804 9 -22360562.806 9                 -17423819.984 9       763.000         563.000         626.000                  
G20  21501420.806    21501419.677    21501421.367                   -15915252.756 8 -15915252.758 8                 -12401488.378 8       366.000         112.000         221.000                  
G22  24879828.802    24879827.582    24879829.057                     -902848.114 7   -902848.106 6                   -703545.048 6        54.000          15.000          16.000                  
G30  22659376.266    22659375.668    22659380.424                   -10962382.385 8 -10962382.382 8                  -8542125.571 9       253.000         156.000         502.000                  
> 2024 10 31 14 23  0.0000000  0 10
G05  22723580.290    22723579.673    22723581.713                   -11752482.823 8 -11752482.827 8                  -9157778.902 8       290.000         216.000         368.000                  
G06  20878312.590    20878312.464    20878316.534                   -20191270.370 9 -20191270.373 9                 -15733453.783 9       521.000         829.000        1379.000                  
G07  23431248.140    23431247.666    23431249.976                    -4250143.250 8  -4250143.252 6                  -3311791.056 8       139.000          47.000         157.000                  
G12  24477887.846    24477887.435    24477890.845                    -2719299.736 8  -2719299.747 6                  -2118938.147 7       116.000          33.000          97.000                  
G13  21129389.824    21129389.014    21129391.172                   -16557131.656 8 -16557131.657 7                 -12901668.191 8       400.000          97.000         209.000                  
G15  23887364.909    23887364.071    23887367.423                    -2785059.203 8  -2785059.199 7                  -2170190.458 8       151.000          55.000         150.000                  
G17  22279138.492    22279137.927    22279139.983                   -12491080.288 8 -12491080.289 8                  -9733315.584 9       328.000         235.000         674.000                  
G19  20043843.081    20043841.637    20043842.228                   -22169413.839 9 -22169413.840 9                 -17274872.734 9       754.000         546.000         607.000                  
G20  21456937.611    21456936.356    21456938.354                   -16149011.726 8 -16149011.721 8                 -12583638.096 8       356.000         103.000         221.000                  
G30  22678687.995    22678687.365    22678692.460                   -10860897.488 8 -10860897.485 8                  -8463046.411 8       248.000         150.000         493.000                  
> 2024 10 31 14 23 10.0000000  0 10
G05  22710291.377    22710291.211    22710293.051                   -11822313.681 8 -11822313.680 8                  -9212192.435 8       301.000         218.000         370.000                  
G06  20838910.031    20838909.797    20838913.626                   -20398333.114 9 -20398333.117 9                 -15894801.272 9       534.000         862.000        1382.000                  
G07  23415398.474    23415397.788    23415400.274                    -4333433.867 8  -4333433.860 6                  -3376692.656 8       143.000          44.000         163.000                  
G12  24492236.465    24492236.490    24492239.394                    -2643897.735 8  -2643897.743 6                  -2060183.282 8       106.000          30.000         103.000                  
G13  21178253.271    21178253.210    21178255.083                   -16300350.768 8 -16300350.762 7                 -12701579.210 8       397.000          96.000         215.000                  
G15  23941526.099    23941525.857    23941528.853                    -2500438.741 8  -2500438.743 7                  -1948408.448 8       145.000          52.000         150.000                  
G17  22340370.131    22340369.551    22340371.581                   -12169306.989 8 -12169306.989 8                  -9482583.211 9       325.000         229.000         672.000                  
G19  20081266.802    20081265.195    20081265.741                   -21972751.937 9 -21972751.937 9                 -17121629.686 9       745.000         547.000         609.000                  
G20  21412920.980    21412919.850    21412921.878                   -16380319.884 8 -16380319.884 8                 -12763878.102 8       357.000         105.000         219.000                  
G30  22698316.680    22698316.151    22698321.071                   -10757748.241 8 -10757748.240 8                  -8382670.346 9       252.000         155.000         503.000                  
> 2024 10 31 14 23 20.0000000  0 11
G05  22697384.761    22697384.238    22697386.200                   -11890139.294 8 -11890139.297 8                  -9265043.441 8       305.000         232.000         373.000                  
G06  20800369.373    20800369.440    20800373.289                   -20600863.418 9 -20600863.421 9                 -16052616.991 9       536.000         881.000        1404.000                  
G07  23399741.835    23399741.293    23399743.979                    -4415707.282 8  -4415707.279 7                  -3440801.632 8       146.000          55.000         157.000                  
G09  24087220.266    24087221.085    24087230.421                     -368098.030 8   -368098.027 6                   -286832.808 7       115.000          47.000          66.000                  
G12  24507134.247    24507133.983    24507137.623                    -2565605.634 8  -2565605.638 6                  -1999176.397 7       105.000          36.000          98.000                  
G13  21227560.447    21227560.007    21227562.074                   -16041241.370 8 -16041241.377 7                 -12499675.810 8       383.000          85.000         224.000                  
G15  23995836.143    23995835.699    23995838.710                    -2215039.916 8  -2215039.913 6                  -1726019.919 8       142.000          50.000         140.000                  
G17  22402133.037    22402132.553    22402134.854                   -11844739.660 8 -11844739.661 8                  -9229673.664 9       317.000         214.000         678.000                  
G19  20119722.728    20119721.251    20119721.805                   -21770664.099 9 -21770664.101 9                 -16964158.634 9       749.000         530.000         602.000                  
G20  21369373.652    21369372.383    21369374.393                   -16609163.737 8 -16609163.735 8                 -12942197.871 8       367.000         112.000         224.000                  
G30  22718253.474    22718252.489    22718257.499                   -10652981.493 8 -10652981.493 8                  -8301033.888 9       248.000         154.000         505.000                  
> 2024 10 31 14 23 30.0000000  0 12
G05  22684869.012    22684868.517    22684870.203                   -11955910.440 8 -11955910.440 8                  -9316293.564 8       315.000         241.000         385.000                  
G06  20762706.572    20762706.396    20762710.324                   -20798783.418 9 -20798783.422 9                 -16206840.263 9       547.000         909.000        1425.000                  
G07  23384286.873    23384286.029    23384288.411                    -4496925.362 8  -4496925.348 7                  -3504088.276 8       151.000          54.000         163.000                  
G09  24031378.335    24031378.312    24031385.219                     -661547.746 8   -661547.742 6                   -515492.442 7       113.000          43.000          74.000                  
G11  21632350.836    21632350.507    21632353.559                     -328999.848 8   -328999.844 8                   -256366.166 8       402.000         193.000         151.000                  
G12  24522587.790    24522586.536    24522590.484                    -2484401.173 8  -2484401.168 6                  -1935900.147 7       101.000          29.000          90.000                  
G13  21277309.728    21277309.422    21277311.312                   -15779807.195 8 -15779807.197 7                 -12295960.895 8       369.000          84.000         223.000                  
G15  24050294.739    24050294.552    24050298.328                    -1928855.584 8  -1928855.579 6                  -1503019.306 8       140.000          44.000         131.000                  
G17  22464421.121    22464420.684    22464423.017                   -11517413.876 8 -11517413.878 8                  -8974614.663 9       304.000         200.000         664.000                  
G19  20159206.235    20159204.745    20159205.326                   -21563176.913 9 -21563176.914 9                 -16802480.294 9       740.000         524.000         599.000                  
G20  21326308.795    21326307.541    21326309.782                   -16835468.347 8 -16835468.353 8                 -13118539.009 8       369.000         119.000         223.000                  
G30  22738499.664    22738499.393    22738504.358                   -10546582.542 8 -10546582.541 8                  -8218125.572 8       241.000         140.000         500.000                  
> 2024 10 31 14 23 40.0000000  0 12
G05  22672740.957    22672740.836    22672742.489                   -12019641.593 8 -12019641.593 8                  -9365954.073 8       315.000         246.000         387.000                  
G06  20725923.503    20725923.365    20725927.105                   -20992079.617 9 -20992079.619 9                 -16357460.576 9       559.000         957.000        1469.000                  
G07  23369027.469    23369026.808    23369028.949                    -4577113.568 8  -4577113.558 7                  -3566572.417 8       153.000          60.000         161.000                  
G09  23975692.470    23975691.406    23975706.852                     -954183.814 8   -954183.816 6                   -743522.956 7       112.000          43.000          53.000                  
G11  21574257.764    21574257.363    21574258.884                     -634279.864 8   -634279.862 8                   -494244.305 8       413.000         209.000         258.000                  
G12  24538586.002    24538585.763    24538589.124                    -2400326.442 8  -2400326.427 6                  -1870387.315 7       102.000          29.000          85.000                  
G13  21327488.412    21327488.234    21327490.130                   -15516115.401 8 -15516115.403 7                 -12090486.786 8       366.000          84.000         224.000                  
G15  24104892.428    24104892.491    24104895.724                    -1641942.022 8  -1641942.026 6                  -1279450.454 8       134.000          45.000         115.000                  
G17  22527215.126    22527214.740    22527217.139                   -11187428.775 8 -11187428.780 8                  -8717483.464 9       297.000         185.000         636.000                  
G19  20199699.853    20199698.275    20199698.774                   -21350381.605 9 -21350381.606 9                 -16636665.752 9       737.000         531.000         593.000                  
G20  21283730.125    21283728.622    21283730.802                   -17059222.358 8 -17059222.359 8                 -13292892.665 8       373.000         119.000         225.000                  
G30  22759048.664    22759047.698    22759052.747                   -10438600.289 8 -10438600.289 8                  -8133983.512 9       238.000         140.000         512.000                  
> 2024 10 31 14 23 50.0000000  0 12
G05  22661010.390    22661010.007    22661011.626                   -12081286.520 8 -12081286.520 8                  -9413988.953 8       318.000         248.000         383.000                  
G06  20690034.220    20690034.054    20690037.916                   -21180678.477 9 -21180678.479 9                 -16504420.628 9       574.000         999.000        1524.000                  
G07  23353970.470    23353969.892    23353972.212                    -4656236.404 8  -4656236.414 7                  -3628226.404 8       158.000          59.000         156.000                  
G09  23920170.539    23920169.792    23920174.180                    -1245949.444 8  -1245949.454 6                   -970870.847 8       115.000          46.000         175.000                  
G11  21516783.571    21516783.208    21516784.906                     -936308.246 8   -936308.241 8                   -729590.968 8       419.000         220.000         262.000                  
G12  24555135.145    24555134.282    24555137.809                    -2313363.090 8  -2313363.088 6                  -1802623.603 7       103.000          34.000          84.000                  
G13  21378095.902    21378095.511    21378097.465                   -15250172.300 8 -15250172.295 7                 -11883258.411 8       363.000          85.000         223.000                  
G15  24159630.404    24159629.975    24159633.420                    -1354294.416 8  -1354294.407 6                  -1055309.617 8       130.000          42.000         102.000                  
G17  22590507.953    22590507.773    22590509.968                   -10854822.266 8 -10854822.270 8                  -8458309.607 9       290.000         193.000         614.000                  
G19  20241197.580    20241196.042    20241196.656                   -21132309.406 9 -21132309.407 8                 -16466739.349 9       718.000         491.000         568.000                  
G20  21241649.977    21241648.675    21241650.490                   -17280353.652 8 -17280353.654 8                 -13465202.642 8       382.000         119.000         213.000                  
G30  22779900.330    22779899.646    22779904.643                   -10329022.739 8 -10329022.738 8                  -8048598.359 9       238.000         138.000         522.000                  
> 2024 10 31 14 24  0.0000000  0 12
G05  22649674.230    22649673.949    22649675.391                   -12140857.673 8 -12140857.671 8                  -9460407.911 8       319.000         246.000         377.000                  
G06  20655041.534    20655041.392    20655045.266                   -21364565.869 9 -21364565.871 9                 -16647709.409 9       585.000        1042.000        1589.000                  
G07  23339112.406    23339111.653    23339114.042                    -4734316.876 8  -4734316.880 7                  -3689068.163 8       161.000          62.000         159.000                  
G09  23864813.916    23864813.532    23864817.628                    -1536846.183 8  -1536846.174 6                  -1197543.376 8       116.000          43.000         178.000                  
G11  21459935.134    21459934.506    21459936.002                    -1235049.019 8  -1235049.016 8                   -962375.864 8       447.000         259.000         269.000                  
G12  24572225.429    24572224.434    24572227.991                    -2223551.767 8  -2223551.778 6                  -1732640.704 7       101.000          33.000          84.000                  
G13  21429119.403    21429118.456    21429120.636                   -14982042.627 8 -14982042.625 7                 -11674326.214 8       361.000          77.000         221.000                  
G15  24214497.975    24214497.488    24214501.021                    -1065966.314 8  -1065966.312 6                   -830638.527 7       127.000          41.000          93.000                  
G17  22654281.663    22654281.192    22654283.295                   -10519690.735 8 -10519690.739 8                  -8197168.200 9       286.000         179.000         577.000                  
G19  20283682.037    20283680.658    20283681.335                   -20909051.042 9 -20909051.044 8                 -16292771.776 9       703.000         463.000         550.000                  
G20  21200071.986    21200070.435    21200072.267                   -17498848.566 8 -17498848.572 8                 -13635458.299 8       397.000         122.000         206.000                  
G30  22801046.844    22801046.034    22801051.212                   -10217896.417 8 -10217896.413 8                  -7962006.370 9       235.000         131.000         523.000                  
> 2024 10 31 14 24 10.0000000  0 12
G05  22638738.709    22638738.288    22638739.693                   -12198324.536 8 -12198324.539 8                  -9505187.172 8       321.000         256.000         372.000                  
G06  20620956.020    20620956.102    20620959.741                   -21543685.643 9 -21543685.646 9                 -16787283.163 9       601.000        1100.000        1629.000                  
G07  23324455.906    23324455.265    23324457.662                    -4811335.000 8  -4811334.999 7                  -3749082.118 8       162.000          68.000         153.000                  
G09  23809631.657    23809630.896    23809635.209                    -1826832.487 8  -1826832.488 6                  -1423506.492 8       121.000          49.000         189.000                  
G11  21403727.159    21403726.860    21403728.107                    -1530423.311 8  -1530423.308 8                  -1192537.541 8       483.000         282.000         274.000                  
G12  24589857.702    24589856.838    24589861.186                    -2130890.668 7  -2130890.691 6                  -1660437.200 7        99.000          32.000          79.000                  
G13  21480554.486    21480554.373    21480556.213                   -14711748.213 8 -14711748.217 7                 -11463707.207 8       353.000          76.000         222.000                  
G15  24269491.683    24269491.768    24269495.448                     -776968.169 8   -776968.155 6                   -605445.323 7       123.000          36.000          86.000                  
G17  22718525.356    22718525.234    22718527.258                   -10182087.309 8 -10182087.315 8                  -7934100.640 9       276.000         175.000         539.000                  
G19  20327144.396    20327142.982    20327143.491                   -20680655.271 9 -20680655.273 8                 -16114801.029 9       688.000         463.000         538.000                  
G20  21159005.892    21159004.516    21159006.153                   -17714650.613 8 -17714650.616 8                 -13803615.617 8       414.000         142.000         202.000                  
G30  22822487.783    22822486.867    22822491.886                   -10105224.957 8 -10105224.954 8                  -7874210.378 9       235.000         138.000         538.000                  
> 2024 10 31 14 24 20.0000000  0 12
G05  22628209.850    22628209.040    22628210.201                   -12253656.575 8 -12253656.574 8                  -9548302.938 8       321.000         263.000         371.000                  
G06  20587788.456    20587788.421    20587792.176                   -21717982.099 9 -21717982.102 9                 -16923098.493 9       610.000        1130.000        1687.000                  
G07  23310006.098    23310005.481    23310007.318                    -4887270.287 8  -4887270.287 7                  -3808252.302 8       172.000          67.000         163.000                  
G09  23754630.087    23754629.660    23754633.389                    -2115866.150 8  -2115866.144 7                  -1648727.287 8       120.000          54.000         194.000                  
G11  21348174.765    21348174.600    21348175.883                    -1822351.844 8  -1822351.841 8                  -1420014.216 8       496.000         308.000         267.000                  
G12  24608032.798    24608032.655    24608035.880                    -2035378.410 7  -2035378.413 6                  -1586012.007 7        95.000          30.000          69.000                  
G13  21532397.739    21532397.602    21532399.315                   -14439310.326 8 -14439310.322 7                 -11251417.962 8       355.000          82.000         223.000                  
G15  24324612.018    24324612.314    24324616.235                     -487309.740 8   -487309.739 6                   -379737.617 7       116.000          41.000          77.000                  
G17  22783229.949    22783229.186    22783231.507                    -9842064.369 8  -9842064.373 8                  -7669147.747 8       276.000         172.000         489.000                  
G19  20371574.924    20371573.413    20371574.164                   -20447171.227 9 -20447171.227 8                 -15932865.402 9       675.000         438.000         514.000                  
G20  21118463.411    21118461.981    21118463.705                   -17927702.977 8 -17927702.980 8                 -13969630.336 8       433.000         158.000         192.000                  
G30  22844222.248    22844221.044    22844225.981                    -9991011.467 8  -9991011.466 8                  -7785212.799 9       230.000         126.000         554.000                  
> 2024 10 31 14 24 30.0000000  0 12
G05  22618082.900    22618082.841    22618084.224                   -12306869.880 8 -12306869.880 8                  -9589767.746 8       324.000         251.000         377.000                  
G06  20555540.409    20555540.300    20555543.917                   -21887447.134 9 -21887447.138 9                 -17055149.082 9       621.000        1183.000        1730.000                  
G07  23295756.686    23295756.094    23295758.311                    -4962148.823 8  -4962148.823 7                  -3866599.056 8       167.000          66.000         160.000                  
G09  23699807.899    23699808.431    23699812.518                    -2403951.423 8  -2403951.433 6                  -1873209.091 8       127.000          47.000         198.000                  
G11  21293284.531    21293284.109    21293285.366                    -2110802.019 8  -2110802.018 8                  -1644780.482 8       498.000         301.000         267.000                  
G12  24626742.737    24626742.150    24626745.498                    -1937060.368 7  -1937060.369 6                  -1509400.497 7        94.000          31.000          68.000                  
G13  21584636.326    21584635.549    21584637.768                   -14164796.735 8 -14164796.736 7                 -11037511.277 8       363.000          80.000         212.000                  
G15  24379849.015    24379848.198    24379851.433                     -197047.256 8   -197047.260 6                   -153559.213 7       109.000          36.000          79.000                  
G17  22848375.773    22848375.269    22848377.479                    -9499720.724 8  -9499720.727 8                  -7402386.516 8       275.000         159.000         449.000                  
G19  20416955.481    20416953.787    20416954.380                   -20208695.429 9 -20208695.431 8                 -15747040.095 8       659.000         426.000         485.000                  
G20  21078446.157    21078444.779    21078446.164                   -18137995.526 8 -18137995.530 8                 -14133494.539 8       455.000         160.000         195.000                  
G30  22866239.808    22866239.334    22866244.084                    -9875305.677 8  -9875305.677 8                  -7695052.389 9       225.000         123.000         551.000                  
> 2024 10 31 14 24 40.0000000  0 12
G05  22608366.137    22608365.935    22608367.276                   -12357932.047 8 -12357932.049 8                  -9629556.346 8       323.000         257.000         391.000                  
G06  20524222.153    20524222.087    20524225.703                   -22052025.072 9 -22052025.075 9                 -17183391.546 9       630.000        1216.000        1764.000                  
G07  23281713.419    23281712.476    23281714.780                    -5035948.121 8  -5035948.120 7                  -3924104.862 8       171.000          69.000         160.000                  
G09  23645176.944    23645176.191    23645180.404                    -2691043.901 8  -2691043.905 7                  -2096917.297 8       129.000          57.000         217.000                  
G11  21239071.263    21239071.134    21239072.334                    -2395692.789 9  -2395692.785 8                  -1866773.190 8       512.000         327.000         260.000                  
G12  24645987.363    24645985.964    24645988.876                    -1835934.055 7  -1835934.045 6                  -1430600.718 7        93.000          28.000          68.000                  
G13  21637266.100    21637265.359    21637267.077                   -13888226.698 8 -13888226.701 7                 -10822002.167 8       366.000          84.000         206.000                  
G15  24435196.746    24435196.273    24435199.977                       93811.616 8     93811.612 6                     73083.899 7       105.000          29.000          70.000                  
G17  22913953.733    22913953.063    22913955.404                    -9155106.395 8  -9155106.401 8                  -7133855.922 8       270.000         153.000         395.000                  
G19  20463276.411    20463275.038    20463275.425                   -19965276.677 9 -19965276.678 8                 -15557363.139 8       657.000         416.000         451.000                  
G20  21038965.081    21038963.593    21038965.196                   -18345469.670 8 -18345469.671 8                 -14295162.589 8       477.000         193.000         190.000                  
G30  22888541.686    22888540.578    22888545.815                    -9758108.779 8  -9758108.774 8                  -7603730.079 9       222.000         117.000         545.000                  
> 2024 10 31 14 24 50.0000000  0 12
G05  22599063.669    22599063.610    22599064.978                   -12406815.612 8 -12406815.613 8                  -9667647.325 8       321.000         250.000         400.000                  
G06  20493843.284    20493843.308    20493847.039                   -22211665.963 9 -22211665.966 9                 -17307786.962 9       628.000        1194.000        1852.000                  
G07  23267878.026    23267877.839    23267879.749                    -5108650.331 8  -5108650.326 7                  -3980755.776 8       171.000          76.000         163.000                  
G09  23590741.091    23590741.333    23590745.113                    -2977103.617 8  -2977103.617 7                  -2319820.771 8       137.000          57.000         231.000                  
G11  21185550.077    21185550.166    21185551.053                    -2676947.942 9  -2676947.938 8                  -2085932.940 8       536.000         357.000         280.000                  
G12  24665764.844    24665762.930    24665766.456                    -1732001.989 7  -1732002.004 6                  -1349614.641 7        91.000          26.000          66.000                  
G13  21690282.161    21690281.600    21690283.442                   -13609623.951 8 -13609623.947 7                 -10604909.128 8       361.000          80.000         195.000                  
G15  24490655.606    24490656.259    24490659.904                      385255.002 8    385254.992 6                    300182.466 7       102.000          36.000          62.000                  
G17  22979953.957    22979953.085    22979955.114                    -8808275.652 8  -8808275.655 8                  -6863598.254 8       263.000         155.000         351.000                  
G19  20510527.858    20510526.313    20510526.767                   -19716969.144 9 -19716969.146 8                 -15363876.747 8       649.000         406.000         445.000                  
G20  21000030.282    21000029.093    21000030.358                   -18550071.671 9 -18550071.674 8                 -14454592.615 8       502.000         200.000         186.000                  
G30  22911126.225    22911125.439    22911130.225                    -9639426.626 8  -9639426.628 8                  -7511250.423 9       224.000         121.000         535.000                  
> 2024 10 31 14 25  0.0000000  0 12
G05  22590173.568    22590173.134    22590174.585                   -12453534.325 8 -12453534.324 8                  -9704051.410 8       310.000         236.000         395.000                  
G06  20464405.526    20464405.593    20464409.376                   -22366361.703 9 -22366361.706 9                 -17428329.014 9       626.000        1189.000        1921.000                  
G07  23254248.069    23254247.307    23254249.437                    -5180278.269 8  -5180278.274 7                  -4036569.606 8       170.000          66.000         162.000                  
G09  23536502.124    23536502.301    23536505.828                    -3262131.292 8  -3262131.309 7                  -2541920.056 8       145.000          63.000         249.000                  
G11  21132727.663    21132727.434    21132728.410                    -2954532.222 9  -2954532.218 8                  -2302232.264 8       558.000         377.000         295.000                  
G12  24686065.437    24686066.029    24686070.527                    -1625308.246 7  -1625308.230 6                  -1266476.618 7        86.000          31.000          60.000                  
G13  21743673.044    21743672.381    21743674.117                   -13329053.029 8 -13329053.035 7                 -10386282.454 8       350.000          73.000         181.000                  
G15  24546216.444    24546216.691    24546220.492                      677230.162 7    677230.171 6                    527695.417 7        93.000          27.000          60.000                  
G17  23046356.795    23046356.369    23046358.381                    -8459323.450 8  -8459323.454 8                  -6591687.505 8       257.000         140.000         315.000                  
G19  20558691.238    20558689.700    20558690.192                   -19463868.512 9 -19463868.513 8                 -15166655.474 8       641.000         403.000         437.000                  
G20  20961644.770    20961643.554    20961644.782                   -18751788.706 9 -18751788.708 8                 -14611774.620 8       507.000         210.000         196.000                  
G30  22933984.303    22933983.496    22933988.383                    -9519305.845 8  -9519305.840 8                  -7417649.761 9       222.000         126.000         534.000                  
> 2024 10 31 14 25 10.0000000  0 12
G05  22581703.380    22581703.258    22581704.606                   -12498042.921 8 -12498042.922 8                  -9738733.326 8       308.000         223.000         387.000                  
G06  20435921.644    20435921.562    20435925.286                   -22516046.053 9 -22516046.057 9                 -17544966.091 9       626.000        1209.000        1935.000                  
G07  23240828.832    23240828.210    23240829.989                    -5250795.712 8  -5250795.718 7                  -4091518.114 8       172.000          75.000         161.000                  
G09  23482471.125    23482470.928    23482474.161                    -3546068.352 8  -3546068.357 7                  -2763169.510 8       150.000          80.000         261.000                  
G11  21080621.689    21080621.441    21080622.380                    -3228351.375 9  -3228351.371 8                  -2515597.730 8       590.000         434.000         334.000                  
G12  24706898.731    24706897.666    24706901.296                    -1515838.101 7  -1515838.102 6                  -1181175.161 7        88.000          31.000          58.000                  
G13  21797437.313    21797436.702    21797438.711                   -13046519.181 8 -13046519.180 7                 -10166126.224 8       342.000          76.000         177.000                  
G15  24601881.833    24601880.706    24601884.536                      969743.863 7    969743.862 6                    755627.991 7        88.000          29.000          58.000                  
G17  23113157.567    23113156.877    23113158.852                    -8108285.155 8  -8108285.158 8                  -6318151.236 8       253.000         139.000         272.000                  
G19  20607760.008    20607758.409    20607758.652                   -19206011.951 9 -19206011.953 8                 -14965728.284 8       634.000         390.000         421.000                  
G20  20923821.968    20923820.782    20923822.111                   -18950548.935 9 -18950548.934 8                 -14766652.613 8       501.000         209.000         214.000                  
G30  22957118.818    22957117.891    22957122.714                    -9397733.873 8  -9397733.873 8                  -7322918.304 9       225.000         133.000         516.000                  
> 2024 10 31 14 25 20.0000000  0 12
G05  22573651.323    22573651.174    22573652.720                   -12540355.834 8 -12540355.836 8                  -9771704.328 8       301.000         218.000         370.000                  
G06  20408392.477    20408392.201    20408395.859                   -22660713.327 9 -22660713.330 9                 -17657693.756 9       633.000        1217.000        1921.000                  
G07  23227616.217    23227616.332    23227617.727                    -5320225.759 8  -5320225.761 7                  -4145619.305 8       170.000          72.000         162.000                  
G09  23428645.972    23428646.429    23428650.005                    -3828915.398 8  -3828915.394 7                  -2983569.596 8       153.000          77.000         273.000                  
G11  21029238.366    21029238.475    21029239.315                    -3498370.793 9  -3498370.789 8                  -2726002.368 8       603.000         450.000         372.000                  
G12  24728248.536    24728248.388    24728252.481                    -1403636.729 7  -1403636.736 6                  -1093745.476 7        93.000          29.000          57.000                  
G13  21851563.093    21851562.776    21851564.596                   -12762086.951 8 -12762086.948 7                  -9944490.740 8       338.000          76.000         181.000                  
G15  24657637.948    24657637.323    24657641.190                     1262743.493 7   1262743.493 6                    983939.201 7        84.000          26.000          55.000                  
G17  23180336.900    23180336.121    23180338.011                    -7755255.329 8  -7755255.332 8                  -6043063.122 8       241.000         129.000         237.000                  
G19  20657714.814    20657713.341    20657713.593                   -18943496.635 9 -18943496.636 8                 -14761170.891 8       615.000         358.000         418.000                  
G20  20886563.882    20886562.724    20886564.048                   -19146340.183 9 -19146340.185 8                 -14919217.119 8       504.000         209.000         243.000                  
G30  22980520.291    22980519.562    22980524.277                    -9274757.509 8  -9274757.509 8                  -7227092.514 9       223.000         123.000         508.000                  
