     3.03           OBSERVATION DATA    M (MIXED)           RINEX VERSION / TYPE
BJPP                CNES                20241031 040306 UTC PGM / RUN BY / DATE 
MARKER                                                      MARKER NAME         
SPACECRAFT                                                  MARKER TYPE         
OBSERVER            CNES                                    OBSERVER / AGENCY   
RECNUM              BLACKJACK           RECVERS             REC # / TYPE / VERS 
ANTNUM              BLACKJACK                               ANT # / TYPE        
        0.0000        0.0000        0.0000                  ANTENNA: DELTA H/E/N
G   12 C1C C1W C2W C2X L1C L1W L2X L2W S1C S1W S2W S2X      SYS / # / OBS TYPES 
DBHZ                                                        SIGNAL STRENGTH UNIT
This rinex produced from the following file(s):             COMMENT             
/tmp/mesos_work/slaves/d197f515-9ebc-49f2-8adc-fe7a9d3e6458-COMMENT             
S28/frameworks/8c1b9f46-52ed-4aff-9edf-38d17bf6761e-2726/exeCOMMENT             
cutors/toil-23431/runs/c5131c82-2a72-4d9a-829f-6c6f97907821/COMMENT             
6d0a62cc293656b599688427fabeae52/b260/7902/tmpxwxd2p6_d9d1m7COMMENT             
g1/stga00e742f-82c0-4e83-9758-30f5a8ca4433/SWOT_KRX_20241031COMMENT             
T032153_20241031T002619_20241031T015940_O_APID1280.PTM_0    COMMENT             
  2024    10    31     0    25   50.0000000                 TIME OF FIRST OBS   
G L1C                                                       SYS / PHASE SHIFT   
G L1W -0.25000                                              SYS / PHASE SHIFT   
G L2W                                                       SYS / PHASE SHIFT   
G L2X  0.25000                                              SYS / PHASE SHIFT   
                                                            END OF HEADER       
> 2024 10 31 00 25 50.0000000  0  2
G08  22513086.638    22513086.074    22513090.134                   -10408847.271 8 -10408847.276 8                  -8110795.245 9       202.000         102.000         525.000                  
G09  22712536.138    22712536.029    22712538.999                   -10388510.644 8 -10388510.655 7                  -8094944.964 8       161.000          79.000         211.000                  
> 2024 10 31 00 26  0.0000000  0 11
G02  24382387.776    24382384.536    24382386.163                    -1527857.282 8  -1527857.274 6                  -1190540.761 6       117.000          22.000          34.000                  
G05  24472449.628    24472450.018    24472451.026                     -712083.956 8   -712083.954 6                   -554877.594 6       112.000          30.000          47.000                  
G07  20410335.537    20410335.002    20410335.146                   -24668298.202 9 -24668298.203 9                 -19222053.037 9       676.000        1043.000        1234.000                  
G08  22553738.380    22553737.197    22553741.116                   -10195225.297 8 -10195225.302 8                  -7944336.613 9       206.000         105.000         513.000                  
G09  22653831.602    22653830.657    22653834.263                   -10697006.299 8 -10697006.306 7                  -8335331.146 8       161.000          78.000         218.000                  
G13  22545285.085    22545284.397    22545285.205                    -9126287.395 8  -9126287.396 6                  -7111395.837 7       218.000          31.000          98.000                  
G14  20044123.324    20044123.253    20044124.104                   -24951194.970 9 -24951194.971 9                 -19442490.292 9       665.000         594.000         609.000                  
G17  22495329.208    22495328.577    22495330.067                    -9715575.608 8  -9715575.611 8                  -7570577.538 8       233.000         123.000         469.000                  
G21  23941840.551    23941838.231    23941840.646                    -1220904.192 7  -1220904.185 6                   -951354.453 6        70.000          20.000          26.000                  
G22  21351312.799    21351311.786    21351312.077                   -17273608.794 8 -17273608.796 8                 -13459953.534 8       410.000         133.000         143.000                  
G30  19886870.923    19886870.238    19886873.263                   -21031714.262 9 -21031714.262 9                 -16388350.304 9       904.000        1960.000        2063.000                  
> 2024 10 31 00 26 10.0000000  0 11
G02  24342763.267    24342761.021    24342762.181                    -1736084.753 8  -1736084.737 6                  -1352795.893 6       116.000          22.000          36.000                  
G05  24507230.118    24507229.283    24507231.322                     -529314.843 8   -529314.848 6                   -412460.240 6       111.000          40.000          47.000                  
G07  20415430.265    20415429.782    20415429.899                   -24641524.976 9 -24641524.977 9                 -19201190.794 9       678.000        1040.000        1205.000                  
G08  22595037.378    22595036.734    22595040.536                    -9978195.797 8  -9978195.800 8                  -7775222.766 9       208.000         106.000         511.000                  
G09  22595389.554    22595389.659    22595393.257                   -11004115.623 8 -11004115.629 7                  -8574637.080 8       164.000          74.000         222.000                  
G13  22596663.295    22596662.482    22596663.124                    -8856294.672 8  -8856294.673 6                  -6901011.964 7       216.000          36.000          95.000                  
G14  20050466.862    20050466.472    20050467.522                   -24917860.524 9 -24917860.525 9                 -19416515.418 9       659.000         590.000         597.000                  
G17  22423474.714    22423474.416    22423475.590                   -10093172.893 8 -10093172.900 8                  -7864809.127 9       248.000         133.000         501.000                  
G21  23923994.396    23923992.082    23923995.713                    -1314683.742 7  -1314683.733 6                  -1024429.433 6        75.000          22.000          23.000                  
G22  21341253.847    21341252.759    21341253.438                   -17326468.760 8 -17326468.756 8                 -13501143.133 8       414.000         138.000         148.000                  
G30  19913764.396    19913763.589    19913766.641                   -20890388.668 9 -20890388.668 9                 -16278226.487 9       894.000        1905.000        2057.000                  
> 2024 10 31 00 26 20.0000000  0 11
G02  24303624.546    24303622.789    24303624.180                    -1941759.883 8  -1941759.869 6                  -1513062.187 6       115.000          23.000          40.000                  
G05  24542093.206    24542091.519    24542093.528                     -346112.576 8   -346112.576 6                   -269705.355 6       108.000          30.000          47.000                  
G07  20421250.605    20421250.077    20421250.255                   -24610938.989 9 -24610938.990 9                 -19177357.584 9       674.000        1035.000        1211.000                  
G08  22636972.542    22636971.670    22636975.701                    -9757825.517 8  -9757825.524 7                  -7603505.719 9       205.000          99.000         504.000                  
G09  22537216.856    22537216.427    22537219.716                   -11309818.741 8 -11309818.739 7                  -8812847.269 8       168.000          84.000         231.000                  
G13  22648300.725    22648299.488    22648300.577                    -8584938.842 8  -8584938.830 6                  -6689565.943 7       214.000          36.000          95.000                  
G14  20057824.565    20057824.055    20057825.094                   -24879196.319 9 -24879196.320 9                 -19386387.485 9       658.000         583.000         590.000                  
G17  22352018.298    22352018.025    22352019.540                   -10468676.617 8 -10468676.616 8                  -8157409.365 9       258.000         144.000         530.000                  
G21  23906717.100    23906716.098    23906718.965                    -1405472.104 7  -1405472.102 6                  -1095173.642 6        82.000          19.000          23.000                  
G22  21332032.404    21332031.704    21332031.902                   -17374927.347 8 -17374927.349 8                 -13538903.094 8       422.000         141.000         155.000                  
G30  19941443.854    19941443.103    19941446.196                   -20744931.714 9 -20744931.713 9                 -16164883.428 9       881.000        1845.000        2111.000                  
> 2024 10 31 00 26 30.0000000  0 11
G02  24264983.988    24264981.612    24264981.967                    -2144819.102 8  -2144819.079 6                  -1671290.140 6       115.000          19.000          37.000                  
G05  24577037.990    24577038.019    24577040.238                     -162469.369 8   -162469.374 6                   -126606.876 6       106.000          34.000          41.000                  
G07  20427799.575    20427798.951    20427799.056                   -24576524.928 9 -24576524.927 9                 -19150541.456 9       679.000        1051.000        1212.000                  
G08  22679538.543    22679537.816    22679541.869                    -9534138.985 8  -9534138.993 8                  -7429204.586 8       206.000         101.000         480.000                  
G09  22479322.821    22479322.583    22479325.792                   -11614053.020 8 -11614053.024 7                  -9049912.904 8       176.000          90.000         233.000                  
G13  22700197.540    22700195.865    22700197.627                    -8312221.005 8  -8312221.007 6                  -6477058.614 7       210.000          30.000          92.000                  
G14  20066200.399    20066199.921    20066201.100                   -24835180.236 9 -24835180.239 9                 -19352089.270 9       635.000         548.000         588.000                  
G17  22280980.329    22280979.651    22280980.761                   -10841988.147 8 -10841988.151 8                  -8448301.404 9       272.000         167.000         536.000                  
G21  23890019.588    23890016.920    23890020.091                    -1493225.819 7  -1493225.845 6                  -1163553.138 6        85.000          20.000          26.000                  
G22  21323657.831    21323656.689    21323657.408                   -17418937.218 8 -17418937.219 8                 -13573196.522 8       423.000         139.000         152.000                  
G30  19969908.678    19969908.002    19969911.102                   -20595347.708 9 -20595347.707 9                 -16048324.488 9       870.000        1820.000        2146.000                  
> 2024 10 31 00 26 40.0000000  0 11
G02  24226840.605    24226838.733    24226839.608                    -2345260.279 8  -2345260.296 6                  -1827478.002 6       117.000          24.000          35.000                  
G05  24612058.464    24612058.343    24612059.931                       21561.459 8     21561.459 6                     16793.622 6       105.000          29.000          39.000                  
G07  20435067.714    20435067.299    20435067.468                   -24538329.276 9 -24538329.276 9                 -19120778.633 9       677.000        1042.000        1233.000                  
G08  22722719.483    22722718.780    22722722.785                    -9307222.200 8  -9307222.203 7                  -7252386.373 8       201.000          97.000         444.000                  
G09  22421708.585    22421708.448    22421711.514                   -11916816.794 8 -11916816.794 7                  -9285832.696 8       181.000          93.000         238.000                  
G13  22752340.686    22752340.340    22752340.938                    -8038203.289 8  -8038203.294 6                  -6263538.395 7       201.000          26.000          89.000                  
G14  20075587.132    20075586.747    20075587.967                   -24785852.762 9 -24785852.762 9                 -19313652.305 9       641.000         555.000         590.000                  
G17  22210365.564    22210364.935    22210366.298                   -11213069.617 8 -11213069.620 8                  -8737455.737 9       289.000         182.000         566.000                  
G21  23873894.424    23873891.199    23873895.119                    -1577963.210 7  -1577963.201 6                  -1229582.294 6        90.000          23.000          21.000                  
G22  21316126.868    21316125.770    21316126.215                   -17458513.131 8 -17458513.131 8                 -13604034.924 8       433.000         144.000         152.000                  
G30  19999146.484    19999145.747    19999148.835                   -20441702.744 9 -20441702.743 9                 -15928601.167 9       863.000        1791.000        2229.000                  
> 2024 10 31 00 26 50.0000000  0 11
G02  24189209.005    24189207.295    24189207.679                    -2543014.991 8  -2543014.955 6                  -1981572.568 6       118.000          22.000          29.000                  
G05  24647155.630    24647154.269    24647156.680                      205993.467 8    205993.469 6                    160506.730 6       103.000          33.000          35.000                  
G07  20443059.386    20443059.025    20443059.254                   -24496332.655 9 -24496332.654 9                 -19088054.016 9       674.000        1037.000        1240.000                  
G08  22766511.243    22766510.584    22766514.499                    -9077094.820 8  -9077094.820 7                  -7073066.397 8       202.000          96.000         418.000                  
G09  22364387.129    22364387.340    22364390.532                   -12218041.589 8 -12218041.589 8                  -9520553.287 8       192.000         114.000         238.000                  
G13  22804732.316    22804732.470    22804733.422                    -7762881.102 8  -7762881.127 6                  -6049001.713 7       198.000          29.000          86.000                  
G14  20085989.295    20085988.838    20085990.029                   -24731189.061 9 -24731189.061 9                 -19271057.240 9       641.000         554.000         585.000                  
G17  22140195.265    22140194.845    22140196.120                   -11581816.116 8 -11581816.118 8                  -9024790.619 9       308.000         205.000         604.000                  
G21  23858352.140    23858349.001    23858353.113                    -1659636.503 7  -1659636.502 6                  -1293223.845 6        94.000          24.000          21.000                  
G22  21309449.026    21309448.049    21309448.789                   -17493604.298 8 -17493604.297 8                 -13631378.716 8       438.000         158.000         161.000                  
G30  20029156.789    20029156.169    20029159.227                   -20283996.938 9 -20283996.937 9                 -15805713.556 9       851.000        1725.000        2279.000                  
> 2024 10 31 00 27  0.0000000  0 11
G02  24152089.645    24152087.133    24152086.827                    -2738080.489 8  -2738080.491 6                  -2133571.610 6       119.000          24.000          27.000                  
G05  24682317.585    24682317.581    24682319.313                      390775.042 8    390775.038 6                    304492.226 6       102.000          30.000          34.000                  
G07  20451765.611    20451765.184    20451765.361                   -24450581.531 9 -24450581.531 9                 -19052403.814 9       671.000        1025.000        1260.000                  
G08  22810897.930    22810896.977    22810901.053                    -8843842.075 8  -8843842.080 8                  -6891311.074 8       201.000         101.000         372.000                  
G09  22307360.184    22307359.589    22307362.475                   -12517723.988 8 -12517723.988 8                  -9754072.016 8       201.000         115.000         252.000                  
G13  22857362.187    22857361.161    22857362.485                    -7486314.979 8  -7486314.985 6                  -5833495.729 7       189.000          28.000          73.000                  
G14  20097398.795    20097398.604    20097399.737                   -24671230.967 9 -24671230.967 9                 -19224336.676 9       652.000         572.000         589.000                  
G17  22070477.227    22070476.747    22070477.845                   -11948187.679 8 -11948187.683 8                  -9310274.904 9       321.000         216.000         634.000                  
G21  23843389.300    23843387.643    23843390.613                    -1738263.672 7  -1738263.657 6                  -1354491.783 6        91.000          19.000          21.000                  
G22  21303622.123    21303620.937    21303621.600                   -17524226.083 8 -17524226.082 8                 -13655239.877 8       440.000         152.000         161.000                  
G30  20059927.462    20059926.778    20059929.907                   -20122296.273 9 -20122296.273 9                 -15679713.069 9       837.000        1689.000        2348.000                  
> 2024 10 31 00 27 10.0000000  0 11
G02  24115493.657    24115491.132    24115491.973                    -2930395.790 8  -2930395.786 6                  -2283427.631 6       120.000          24.000          31.000                  
G05  24717549.648    24717548.633    24717549.788                      575913.263 7    575913.269 6                    448755.604 6        99.000          23.000          40.000                  
G07  20461188.421    20461187.922    20461188.108                   -24401064.800 9 -24401064.802 9                 -19013819.380 9       665.000        1009.000        1231.000                  
G08  22855874.121    22855873.354    22855877.127                    -8607491.238 8  -8607491.246 7                  -6707141.659 8       198.000          97.000         343.000                  
G09  22250637.982    22250637.124    22250640.576                   -12815802.137 8 -12815802.136 8                  -9986340.676 8       209.000         128.000         266.000                  
G13  22910227.079    22910226.528    22910227.363                    -7208507.097 8  -7208507.077 6                  -5617022.146 7       192.000          29.000          71.000                  
G14  20109819.022    20109818.647    20109819.772                   -24605963.429 9 -24605963.429 9                 -19173478.886 9       664.000         591.000         568.000                  
G17  22001229.374    22001229.030    22001230.382                   -12312085.633 8 -12312085.635 8                  -9593831.705 9       319.000         215.000         654.000                  
G21  23829015.658    23829012.651    23829013.711                    -1813805.014 7  -1813805.017 6                  -1413355.185 6        94.000          23.000          22.000                  
G22  21298653.275    21298652.296    21298653.121                   -17550336.761 8 -17550336.761 8                 -13675585.895 8       441.000         156.000         162.000                  
G30  20091456.599    20091456.023    20091459.227                   -19956609.085 9 -19956609.084 9                 -15550606.199 9       825.000        1627.000        2403.000                  
> 2024 10 31 00 27 20.0000000  0 11
G02  24079424.789    24079422.768    24079424.681                    -3119931.889 8  -3119931.899 6                  -2431118.091 6       127.000          28.000          35.000                  
G05  24752842.653    24752842.157    24752843.541                      761383.985 7    761383.962 6                    593278.087 6        98.000          25.000          35.000                  
G07  20471323.644    20471323.212    20471323.523                   -24347803.376 9 -24347803.376 9                 -18972317.008 9       663.000         999.000        1244.000                  
G08  22901428.387    22901427.949    22901431.566                    -8368101.178 8  -8368101.185 7                  -6520604.028 8       193.000          96.000         312.000                  
G09  22194226.046    22194225.865    22194229.135                   -13112245.433 8 -13112245.435 8                 -10217335.430 8       219.000         146.000         300.000                  
G13  22963322.272    22963321.913    22963322.328                    -6929490.787 8  -6929490.795 6                  -5399606.942 7       188.000          30.000          69.000                  
G14  20123245.947    20123245.732    20123246.846                   -24535404.111 9 -24535404.110 9                 -19118497.634 9       664.000         603.000         596.000                  
G17  21932465.634    21932465.270    21932466.385                   -12673442.376 8 -12673442.377 8                  -9875408.340 9       316.000         219.000         665.000                  
G21  23815229.407    23815226.447    23815228.993                    -1886253.121 7  -1886253.118 6                  -1469808.244 6        96.000          24.000          24.000                  
G22  21294544.940    21294543.993    21294544.725                   -17571927.069 8 -17571927.068 8                 -13692409.544 8       450.000         156.000         172.000                  
G30  20123736.892    20123736.136    20123739.472                   -19786975.666 9 -19786975.665 9                 -15418424.347 9       807.000        1567.000        2451.000                  
> 2024 10 31 00 27 30.0000000  0 11
G02  24043890.470    24043887.904    24043889.063                    -3306670.507 8  -3306670.482 6                  -2576628.668 6       132.000          25.000          39.000                  
G05  24788192.410    24788193.114    24788193.733                      947152.683 7    947152.689 6                    738032.748 6        98.000          35.000          35.000                  
G07  20482165.469    20482165.071    20482165.373                   -24290828.973 9 -24290828.972 9                 -18927921.398 9       665.000         999.000        1238.000                  
G08  22947548.298    22947547.279    22947551.266                    -8125741.245 8  -8125741.253 7                  -6331752.217 8       185.000          88.000         279.000                  
G09  22138129.851    22138129.442    22138132.753                   -13407033.344 8 -13407033.347 8                 -10447040.269 8       228.000         151.000         327.000                  
G13  23016638.987    23016638.464    23016638.785                    -6649309.540 8  -6649309.550 6                  -5181283.998 7       183.000          31.000          60.000                  
G14  20137674.181    20137673.928    20137675.386                   -24459582.323 9 -24459582.321 9                 -19059415.751 9       663.000         602.000         600.000                  
G17  21864196.237    21864195.645    21864197.003                   -13032200.128 8 -13032200.131 8                 -10154959.796 9       324.000         224.000         658.000                  
G21  23802030.011    23802027.678    23802031.894                    -1955611.246 7  -1955611.246 6                  -1523853.591 6        94.000          21.000          21.000                  
G22  21291296.485    21291295.329    21291295.875                   -17588998.830 8 -17588998.831 8                 -13705712.253 8       455.000         150.000         174.000                  
G30  20156758.074    20156757.571    20156760.855                   -19613447.138 9 -19613447.138 9                 -15283207.346 9       788.000        1492.000        2411.000                  
> 2024 10 31 00 27 40.0000000  0 11
G02  24008898.682    24008897.501    24008897.966                    -3490550.616 8  -3490550.624 6                  -2719911.863 6       136.000          28.000          37.000                  
G05  24823602.516    24823601.759    24823603.899                     1133228.329 7   1133228.327 6                    883026.557 6        94.000          30.000          27.000                  
G07  20493716.128    20493715.550    20493715.859                   -24230131.151 9 -24230131.152 9                 -18880624.428 9       666.000        1021.000        1255.000                  
G08  22994227.432    22994226.953    22994231.006                    -7880438.026 8  -7880438.027 7                  -6140606.941 8       177.000          81.000         271.000                  
G09  22082360.647    22082360.477    22082363.811                   -13700102.211 8 -13700102.210 8                 -10675405.598 8       235.000         164.000         375.000                  
G13  23070177.273    23070176.398    23070177.798                    -6367963.755 8  -6367963.764 6                  -4962053.619 7       177.000          24.000          60.000                  
G14  20153106.668    20153106.397    20153107.442                   -24378485.719 9 -24378485.717 9                 -18996223.615 9       680.000         618.000         576.000                  
G17  21796440.567    21796440.115    21796441.287                   -13388257.912 8 -13388257.913 8                 -10432407.389 9       328.000         241.000         674.000                  
G21  23789427.690    23789424.205    23789427.228                    -2021840.353 7  -2021840.333 6                  -1575460.705 6        91.000          18.000          19.000                  
G22  21288915.192    21288914.091    21288914.751                   -17601512.110 8 -17601512.108 8                 -13715462.892 8       453.000         162.000         168.000                  
G30  20190519.187    20190518.528    20190521.815                   -19436032.148 9 -19436032.147 9                 -15144961.935 9       774.000        1431.000        2390.000                  
> 2024 10 31 00 27 50.0000000  0 11
G02  23974450.859    23974450.092    23974449.957                    -3671573.882 8  -3671573.893 6                  -2860968.908 6       143.000          25.000          39.000                  
G05  24859060.576    24859059.602    24859061.164                     1319557.572 7   1319557.587 6                   1028217.992 6        94.000          29.000          35.000                  
G07  20505965.060    20505964.579    20505964.900                   -24165762.329 9 -24165762.329 9                 -18830466.954 9       677.000        1040.000        1273.000                  
G08  23041450.517    23041449.945    23041454.116                    -7632280.542 8  -7632280.548 7                  -5947237.569 8       172.000          76.000         246.000                  
G09  22026919.438    22026918.514    22026921.993                   -13991450.482 8 -13991450.484 8                 -10902430.201 8       246.000         186.000         410.000                  
G13  23123926.007    23123924.893    23123926.040                    -6085515.839 8  -6085515.857 6                  -4741964.456 7       173.000          29.000          55.000                  
G14  20169532.815    20169532.359    20169533.639                   -24292165.565 9 -24292165.563 9                 -18928961.191 9       654.000         577.000         568.000                  
G17  21729206.475    21729205.681    21729207.042                   -13741576.731 8 -13741576.734 8                 -10707720.726 9       317.000         222.000         702.000                  
G21  23777415.067    23777412.355    23777415.380                    -2084964.244 7  -2084964.251 6                  -1624648.159 6        87.000          20.000          21.000                  
G22  21287397.041    21287395.987    21287396.451                   -17609490.124 8 -17609490.122 8                 -13721679.560 8       462.000         161.000         166.000                  
G30  20225006.092    20225005.455    20225008.751                   -19254802.203 9 -19254802.203 9                 -15003743.835 9       762.000        1394.000        2350.000                  
> 2024 10 31 00 28  0.0000000  0 11
G02  23940559.189    23940558.527    23940559.257                    -3849674.540 8  -3849674.523 6                  -2999748.619 6       147.000          22.000          50.000                  
G05  24894568.555    24894568.743    24894571.082                     1506155.583 7   1506155.582 6                   1173618.932 6        95.000          23.000          28.000                  
G07  20518915.419    20518915.027    20518915.360                   -24097707.514 9 -24097707.514 9                 -18777437.278 9       682.000        1068.000        1268.000                  
G08  23089212.885    23089212.142    23089215.958                    -7381290.076 8  -7381290.080 7                  -5751660.673 8       174.000          77.000         240.000                  
G09  21971817.874    21971817.383    21971820.959                   -14281008.560 8 -14281008.561 8                 -11128059.846 8       259.000         201.000         453.000                  
G13  23177884.437    23177883.818    23177884.933                    -5801960.187 8  -5801960.202 6                  -4521012.094 7       172.000          23.000          53.000                  
G14  20186955.833    20186955.656    20186956.816                   -24200606.484 9 -24200606.480 9                 -18857616.490 9       646.000         562.000         540.000                  
G17  21662513.420    21662512.899    21662514.250                   -14092049.285 8 -14092049.289 8                 -10980816.182 9       296.000         190.000         711.000                  
G21  23766001.792    23765998.886    23766001.713                    -2144939.396 7  -2144939.397 6                  -1671382.064 6        84.000          20.000          16.000                  
G22  21286750.415    21286749.184    21286749.695                   -17612889.416 8 -17612889.420 8                 -13724328.394 8       464.000         167.000         164.000                  
G30  20260218.307    20260217.597    20260220.924                   -19069761.309 9 -19069761.309 9                 -14859556.164 9       755.000        1370.000        2270.000                  
> 2024 10 31 00 28 10.0000000  0 12
G02  23907224.999    23907223.030    23907223.495                    -4024850.885 8  -4024850.893 6                  -3136249.632 6       149.000          24.000          47.000                  
G05  24930118.476    24930119.436    24930120.651                     1692973.874 7   1692973.882 6                   1319191.385 6        90.000          24.000          29.000                  
G07  20532557.932    20532557.563    20532557.805                   -24026015.892 9 -24026015.892 9                 -18721573.713 9       688.000        1085.000        1232.000                  
G08  23137498.018    23137496.868    23137500.942                    -7127551.678 8  -7127551.687 7                  -5553942.535 8       175.000          74.000         226.000                  
G09  21917058.713    21917058.097    21917061.726                   -14568770.345 8 -14568770.351 8                 -11352289.789 8       271.000         224.000         482.000                  
G13  23232043.697    23232042.019    23232043.691                    -5517354.824 8  -5517354.815 6                  -4299241.815 6       168.000          22.000          43.000                  
G14  20205366.555    20205366.224    20205367.405                   -24103858.081 9 -24103858.076 9                 -18782228.163 8       632.000         549.000         484.000                  
G17  21596370.721    21596370.195    21596371.350                   -14439631.797 8 -14439631.798 8                 -11251659.645 9       287.000         178.000         682.000                  
G19  24814003.259    24814002.652    24814020.079                     -437034.513 8   -437034.505 6                   -340550.878 6       113.000          26.000          18.000                  
G21  23755183.831    23755181.321    23755185.491                    -2201786.784 7  -2201786.800 6                  -1715678.753 6        85.000          21.000          22.000                  
G22  21286970.687    21286969.535    21286970.225                   -17611731.272 8 -17611731.274 8                 -13723425.976 8       457.000         166.000         162.000                  
G30  20296142.556    20296141.982    20296145.281                   -18880977.653 9 -18880977.653 9                 -14712452.056 9       744.000        1331.000        2148.000                  
> 2024 10 31 00 28 20.0000000  0 12
G02  23874455.855    23874453.861    23874455.309                    -4197053.092 8  -4197053.075 6                  -3270433.142 7       151.000          28.000          53.000                  
G05  24965710.381    24965711.533    24965713.045                     1880012.444 7   1880012.456 6                   1464935.511 6        92.000          24.000          28.000                  
G07  20546892.336    20546891.843    20546892.122                   -23950688.968 9 -23950688.969 9                 -18662877.443 9       693.000        1099.000        1262.000                  
G08  23186298.801    23186297.699    23186301.920                    -6871102.118 8  -6871102.119 7                  -5354111.804 8       168.000          76.000         241.000                  
G09  21862651.606    21862651.236    21862654.579                   -14854681.156 8 -14854681.160 8                 -11575077.414 9       286.000         243.000         537.000                  
G13  23286400.383    23286398.947    23286401.661                    -5231708.942 8  -5231708.926 6                  -4076660.714 6       160.000          24.000          47.000                  
G14  20224763.946    20224763.818    20224765.109                   -24001922.785 9 -24001922.779 9                 -18702798.095 8       631.000         545.000         478.000                  
G17  21530795.401    21530794.836    21530796.180                   -14784231.862 8 -14784231.863 8                 -11520179.120 9       297.000         188.000         658.000                  
G19  24743448.752    24743446.837    24743448.279                     -807803.718 8   -807803.736 6                   -629459.076 6       117.000          23.000          28.000                  
G21  23744967.269    23744964.168    23744967.290                    -2255479.360 7  -2255479.350 6                  -1757517.119 6        78.000          23.000          25.000                  
G22  21288063.178    21288062.203    21288062.898                   -17605989.557 8 -17605989.558 8                 -13718951.945 8       465.000         166.000         170.000                  
G30  20332775.388    20332774.715    20332777.995                   -18688471.406 9 -18688471.405 9                 -14562447.225 9       737.000        1310.000        2074.000                  
> 2024 10 31 00 28 30.0000000  0 12
G02  23842257.839    23842256.747    23842257.765                    -4366251.642 8  -4366251.625 6                  -3402276.162 7       155.000          23.000          63.000                  
G05  25001342.001    25001341.593    25001342.875                     2067252.098 7   2067252.104 6                   1610836.358 6        96.000          30.000          32.000                  
G07  20561914.234    20561913.692    20561913.969                   -23871748.540 9 -23871748.540 9                 -18601365.456 9       687.000        1086.000        1238.000                  
G08  23235604.409    23235603.699    23235607.734                    -6611998.022 8  -6611998.016 7                  -5152212.602 8       168.000          64.000         230.000                  
G09  21808603.468    21808603.148    21808606.359                   -15138706.010 8 -15138706.013 8                 -11796395.457 9       293.000         261.000         569.000                  
G13  23340949.817    23340948.040    23340949.647                    -4945051.573 8  -4945051.559 6                  -3853291.478 6       160.000          31.000          50.000                  
G14  20245144.343    20245144.131    20245145.162                   -23894824.109 9 -23894824.104 9                 -18619344.615 8       641.000         552.000         457.000                  
G17  21465801.580    21465801.239    21465802.109                   -15125776.481 8 -15125776.482 8                 -11786317.733 9       300.000         197.000         637.000                  
G19  24673029.929    24673029.497    24673030.436                    -1177849.648 8  -1177849.646 6                   -917806.389 6       125.000          23.000          28.000                  
G21  23735351.064    23735348.142    23735352.206                    -2306010.758 7  -2306010.762 6                  -1796892.268 6        79.000          19.000          22.000                  
G22  21290029.086    21290027.963    21290028.688                   -17595659.021 8 -17595659.023 8                 -13710902.202 8       465.000         163.000         166.000                  
G30  20370108.930    20370108.139    20370111.437                   -18492283.016 9 -18492283.014 9                 -14409573.190 9       729.000        1286.000        1924.000                  
> 2024 10 31 00 28 40.0000000  0 12
G02  23810636.920    23810635.138    23810636.342                    -4532423.640 8  -4532423.663 6                  -3531760.811 7       154.000          30.000          53.000                  
G05  25037006.258    25037005.486    25037006.516                     2254667.198 7   2254667.217 6                   1756873.903 6        85.000          25.000          26.000                  
G07  20577618.301    20577617.798    20577618.090                   -23789223.064 9 -23789223.064 9                 -18537059.936 9       684.000        1081.000        1262.000                  
G08  23285403.635    23285402.567    23285406.890                    -6350302.302 8  -6350302.316 7                  -4948293.947 8       165.000          65.000         221.000                  
G09  21754919.895    21754919.261    21754922.561                   -15420815.971 8 -15420815.972 8                 -12016221.376 9       302.000         272.000         602.000                  
G13  23395684.529    23395683.090    23395684.031                    -4657417.655 8  -4657417.659 6                  -3629161.246 6       152.000          25.000          42.000                  
G14  20266501.369    20266501.059    20266502.152                   -23782592.944 9 -23782592.938 9                 -18531891.798 8       642.000         556.000         451.000                  
G17  21401401.466    21401401.270    21401402.550                   -15464198.693 8 -15464198.695 8                 -12050023.301 9       296.000         196.000         661.000                  
G19  24602760.692    24602759.409    24602760.122                    -1547122.510 8  -1547122.502 6                  -1205551.259 6       131.000          27.000          39.000                  
G21  23726336.981    23726333.830    23726338.661                    -2353381.164 7  -2353381.158 6                  -1833804.327 6        82.000          19.000          20.000                  
G22  21292867.865    21292866.688    21292867.406                   -17580741.651 8 -17580741.650 8                 -13699278.302 8       466.000         169.000         165.000                  
G30  20408134.087    20408133.321    20408136.636                   -18292459.487 9 -18292459.486 9                 -14253866.582 9       729.000        1265.000        1869.000                  
> 2024 10 31 00 28 50.0000000  0 12
G02  23779600.826    23779598.630    23779599.444                    -4695522.430 8  -4695522.412 6                  -3658850.763 7       150.000          29.000          54.000                  
G05  25072702.890    25072702.691    25072704.173                     2442256.935 7   2442256.917 6                   1903047.475 6        86.000          25.000          27.000                  
G07  20594003.750    20594003.187    20594003.520                   -23703117.339 9 -23703117.339 9                 -18469964.590 9       683.000        1061.000        1252.000                  
G08  23335688.207    23335687.548    23335691.528                    -6086053.470 8  -6086053.475 7                  -4742385.847 8       169.000          69.000         226.000                  
G09  21701610.415    21701610.009    21701613.502                   -15700957.538 8 -15700957.540 8                 -12234513.485 9       307.000         284.000         640.000                  
G13  23450603.641    23450602.583    23450603.632                    -4368817.517 8  -4368817.530 6                  -3404278.185 6       145.000          25.000          38.000                  
G14  20288833.312    20288833.024    20288834.324                   -23665236.993 9 -23665236.987 9                 -18440445.639 8       625.000         522.000         438.000                  
G17  21337612.954    21337613.255    21337614.456                   -15799406.997 8 -15799407.000 8                 -12311224.525 9       306.000         203.000         672.000                  
G19  24532651.885    24532649.757    24532650.745                    -1915547.558 8  -1915547.556 6                  -1492635.570 6       137.000          33.000          36.000                  
G21  23717928.586    23717925.248    23717930.275                    -2397566.952 7  -2397566.954 6                  -1868234.836 6        87.000          20.000          24.000                  
G22  21296583.230    21296582.369    21296583.037                   -17561216.087 8 -17561216.089 8                 -13684063.607 8       460.000         161.000         153.000                  
G30  20446846.652    20446845.937    20446849.170                   -18089023.772 9 -18089023.771 9                 -14095345.283 9       726.000        1277.000        1752.000                  
> 2024 10 31 00 29  0.0000000  0 12
G02  23749150.072    23749146.960    23749148.548                    -4855542.929 8  -4855542.928 6                  -3783542.049 7       153.000          28.000          52.000                  
G05  25108426.568    25108426.062    25108428.034                     2629979.559 7   2629979.570 6                   2049324.677 6        84.000          23.000          26.000                  
G07  20611061.530    20611061.025    20611061.421                   -23613477.829 9 -23613477.829 9                 -18400115.624 9       669.000        1024.000        1230.000                  
G08  23386444.022    23386443.372    23386447.489                    -5819331.377 8  -5819331.379 7                  -4534550.526 8       163.000          72.000         213.000                  
G09  21648678.063    21648677.681    21648681.211                   -15979118.347 8 -15979118.349 8                 -12451262.153 9       313.000         289.000         677.000                  
G13  23505696.197    23505695.329    23505696.610                    -4079302.616 8  -4079302.624 6                  -3178682.302 6       139.000          24.000          35.000                  
G14  20312131.347    20312130.849    20312132.065                   -23542806.487 9 -23542806.479 9                 -18345045.283 8       655.000         579.000         421.000                  
G17  21274446.650    21274446.506    21274447.678                   -16131350.921 8 -16131350.923 8                 -12569882.089 9       324.000         224.000         631.000                  
G19  24462710.821    24462708.799    24462710.017                    -2283090.796 8  -2283090.790 6                  -1779032.738 6       142.000          24.000          37.000                  
G21  23710122.920    23710118.947    23710124.592                    -2438586.764 7  -2438586.783 6                  -1900198.349 6        91.000          26.000          25.000                  
G22  21301171.856    21301170.824    21301171.343                   -17537103.437 8 -17537103.437 8                 -13665274.560 8       457.000         154.000         160.000                  
G30  20486234.298    20486233.557    20486236.766                   -17882040.524 9 -17882040.523 9                 -13934059.675 9       713.000        1207.000        1643.000                  
> 2024 10 31 00 29 10.0000000  0 12
G02  23719294.628    23719292.729    23719294.050                    -5012428.809 8  -5012428.810 6                  -3905790.774 7       148.000          23.000          55.000                  
G05  25144175.630    25144176.318    25144177.082                     2817845.288 7   2817845.278 6                   2195713.357 6        82.000          27.000          25.000                  
G07  20628792.507    20628792.233    20628792.680                   -23520299.771 9 -23520299.772 9                 -18327509.373 9       662.000        1003.000        1256.000                  
G08  23437665.208    23437664.662    23437668.699                    -5550164.181 8  -5550164.177 7                  -4324809.941 8       162.000          66.000         220.000                  
G09  21596135.250    21596134.688    21596138.124                   -16255234.306 8 -16255234.306 8                 -12666417.430 9       321.000         303.000         729.000                  
G13  23560962.764    23560962.774    23560963.085                    -3788872.560 8  -3788872.569 6                  -2952373.297 6       130.000          22.000          34.000                  
G14  20336394.663    20336394.468    20336395.573                   -23415301.086 9 -23415301.080 9                 -18245690.461 8       686.000         630.000         447.000                  
G17  21211920.464    21211920.313    21211921.408                   -16459928.214 8 -16459928.217 8                 -12825916.312 9       335.000         255.000         609.000                  
G19  24392952.337    24392951.658    24392952.396                    -2649666.088 8  -2649666.086 6                  -2064675.693 6       146.000          24.000          40.000                  
G21  23702925.598    23702922.588    23702926.364                    -2476407.837 7  -2476407.837 6                  -1929669.311 6        95.000          21.000          22.000                  
G22  21306639.001    21306637.927    21306638.596                   -17508374.374 8 -17508374.376 8                 -13642888.301 8       445.000         157.000         158.000                  
G30  20526294.506    20526293.786    20526297.022                   -17671523.004 9 -17671523.005 9                 -13770020.089 9       691.000        1143.000        1637.000                  
> 2024 10 31 00 29 20.0000000  0 12
G02  23690035.842    23690034.732    23690035.960                    -5166182.919 8  -5166182.933 6                  -4025599.185 6       157.000          30.000          49.000                  
G05  25179944.132    25179943.231    25179946.183                     3005805.938 7   3005805.912 6                   2342175.993 6        81.000          22.000          23.000                  
G07  20647186.774    20647186.465    20647186.911                   -23423637.605 9 -23423637.604 9                 -18252188.222 9       652.000         978.000        1275.000                  
G08  23489334.932    23489333.969    23489338.407                    -5278638.664 8  -5278638.673 7                  -4113231.718 8       164.000          57.000         225.000                  
G09  21543981.939    21543981.551    21543985.182                   -16529299.739 8 -16529299.743 8                 -12879974.897 9       328.000         316.000         793.000                  
G13  23616393.600    23616393.093    23616393.869                    -3497585.332 8  -3497585.351 6                  -2725396.389 6       128.000          24.000          30.000                  
G14  20361612.742    20361612.482    20361613.631                   -23282780.166 9 -23282780.158 9                 -18142427.442 8       685.000         632.000         477.000                  
G17  21150043.082    21150043.052    21150044.258                   -16785095.247 8 -16785095.250 8                 -13079293.190 9       356.000         266.000         656.000                  
G19  24323385.442    24323383.855    24323385.133                    -3015245.285 8  -3015245.281 6                  -2349542.483 6       148.000          29.000          45.000                  
G21  23696333.440    23696329.802    23696333.472                    -2511056.758 8  -2511056.757 6                  -1956668.546 6       101.000          21.000          26.000                  
G22  21312978.667    21312977.419    21312978.369                   -17475058.632 8 -17475058.633 8                 -13616928.007 8       445.000         153.000         165.000                  
G30  20567013.244    20567012.777    20567016.106                   -17457543.401 9 -17457543.400 9                 -13603282.777 9       673.000        1082.000        1655.000                  
> 2024 10 31 00 29 30.0000000  0 12
G02  23661383.215    23661381.523    23661381.710                    -5316756.492 8  -5316756.481 6                  -4142929.251 7       157.000          32.000          52.000                  
G05  25215731.450    25215730.457    25215732.001                     3193865.497 7   3193865.494 6                   2488715.668 6        77.000          25.000          28.000                  
G07  20666243.601    20666243.151    20666243.622                   -23323494.229 9 -23323494.230 9                 -18174154.455 9       643.000         926.000        1276.000                  
G08  23541446.895    23541446.043    23541450.055                    -5004789.445 8  -5004789.460 7                  -3899842.826 8       158.000          67.000         217.000                  
G09  21492230.182    21492229.967    21492233.397                   -16801256.852 8 -16801256.857 8                 -13091889.515 9       342.000         341.000         822.000                  
G13  23671985.146    23671985.159    23671986.133                    -3205446.645 8  -3205446.655 6                  -2497755.987 6       126.000          18.000          31.000                  
G14  20387783.437    20387783.196    20387784.318                   -23145252.247 9 -23145252.239 9                 -18035262.865 8       686.000         630.000         464.000                  
G17  21088833.750    21088833.202    21088834.303                   -17106756.097 8 -17106756.100 8                 -13329937.979 9       390.000         321.000         730.000                  
G19  24254022.996    24254020.556    24254022.450                    -3379747.809 8  -3379747.791 6                  -2633570.315 6       157.000          32.000          46.000                  
G21  23690349.187    23690345.138    23690348.377                    -2542508.802 8  -2542508.773 6                  -1981176.660 6       110.000          20.000          24.000                  
G22  21320194.959    21320194.097    21320195.062                   -17437135.331 8 -17437135.330 8                 -13587377.409 8       454.000         161.000         170.000                  
G30  20608387.325    20608386.719    20608390.002                   -17240122.134 9 -17240122.133 9                 -13433863.649 9       652.000        1028.000        1558.000                  
> 2024 10 31 00 29 40.0000000  0 12
G02  23633341.568    23633339.526    23633340.112                    -5464120.453 8  -5464120.457 6                  -4257758.306 6       161.000          25.000          50.000                  
G05  25251533.239    25251532.883    25251534.496                     3382009.060 7   3382009.061 6                   2635320.817 6        78.000          21.000          24.000                  
G07  20685958.485    20685957.927    20685958.560                   -23219892.014 9 -23219892.013 9                 -18093425.486 9       633.000         917.000        1280.000                  
G08  23593990.305    23593989.687    23593993.888                    -4728670.297 8  -4728670.299 7                  -3684685.150 8       155.000          68.000         203.000                  
G09  21440887.248    21440886.726    21440890.172                   -17071066.907 8 -17071066.908 8                 -13302131.101 9       354.000         369.000         855.000                  
G13  23727735.072    23727734.686    23727735.836                    -2912481.232 8  -2912481.229 6                  -2269471.392 6       121.000          21.000          35.000                  
G14  20414901.489    20414901.228    20414902.373                   -23002746.109 9 -23002746.101 9                 -17924219.158 8       667.000         603.000         469.000                  
G17  21028305.622    21028305.110    21028306.195                   -17424833.961 8 -17424833.965 8                 -13577790.831 9       409.000         355.000         778.000                  
G19  24184877.003    24184875.304    24184876.459                    -3743111.706 8  -3743111.685 6                  -2916710.915 7       167.000          28.000          53.000                  
G21  23684972.630    23684970.088    23684973.353                    -2570759.037 8  -2570759.021 6                  -2003189.866 6       110.000          25.000          27.000                  
G22  21328288.777    21328287.800    21328288.532                   -17394603.970 8 -17394603.970 8                 -13554236.120 8       452.000         163.000         168.000                  
G30  20650408.561    20650407.904    20650411.251                   -17019299.099 9 -17019299.099 9                 -13261793.795 9       634.000         965.000        1478.000                  
> 2024 10 31 00 29 50.0000000  0 12
G02  23605910.674    23605908.928    23605909.189                    -5608266.024 8  -5608266.018 6                  -4370079.540 6       164.000          28.000          42.000                  
G05  25287345.343    25287344.574    25287347.758                     3570202.494 7   3570202.502 6                   2781964.807 6        77.000          29.000          18.000                  
G07  20706323.320    20706322.815    20706323.511                   -23112873.630 9 -23112873.630 9                 -18010034.571 9       637.000         934.000        1290.000                  
G08  23646952.962    23646951.695    23646955.773                    -4450354.603 8  -4450354.615 6                  -3467815.878 8       150.000          50.000         188.000                  
G09  21389955.805    21389955.627    21389959.246                   -17338710.794 8 -17338710.794 8                 -13510684.768 9       369.000         406.000         891.000                  
G13  23783634.166    23783632.729    23783633.943                    -2618733.195 8  -2618733.185 6                  -2040576.980 6       112.000          24.000          31.000                  
G14  20442957.291    20442957.185    20442958.320                   -22855311.275 9 -22855311.267 9                 -17809334.913 8       661.000         591.000         465.000                  
G17  20968469.774    20968469.247    20968470.620                   -17739271.845 8 -17739271.849 8                 -13822807.333 9       418.000         382.000         798.000                  
G19  24115956.107    24115953.883    24115954.980                    -4105294.256 8  -4105294.274 6                  -3198930.989 7       176.000          39.000          57.000                  
G21  23680202.175    23680200.831    23680203.889                    -2595822.803 8  -2595822.789 6                  -2022720.154 6       113.000          24.000          28.000                  
G22  21337255.284    21337253.945    21337255.040                   -17347484.682 8 -17347484.681 8                 -13517519.822 8       449.000         155.000         158.000                  
G30  20693065.705    20693065.080    20693068.419                   -16795134.119 9 -16795134.118 9                 -13087119.825 9       622.000         924.000        1426.000                  
> 2024 10 31 00 30  0.0000000  0 12
G02  23579102.411    23579100.149    23579101.008                    -5749146.289 8  -5749146.296 6                  -4479856.358 6       172.000          24.000          42.000                  
G05  25323168.759    25323167.450    25323170.532                     3758450.071 7   3758450.087 6                   2928650.989 6        72.000          24.000          26.000                  
G07  20727337.676    20727337.082    20727337.770                   -23002443.518 9 -23002443.518 9                 -17923985.173 9       641.000         930.000        1257.000                  
G08  23700324.861    23700324.113    23700329.060                    -4169877.115 8  -4169877.107 7                  -3249262.087 8       139.000          51.000         184.000                  
G09  21339448.444    21339448.044    21339451.454                   -17604130.713 8 -17604130.716 8                 -13717505.477 9       378.000         429.000         902.000                  
G13  23839679.871    23839678.841    23839679.776                    -2324207.919 8  -2324207.933 6                  -1811076.957 6       104.000          21.000          23.000                  
G14  20471949.105    20471948.773    20471949.873                   -22702959.742 9 -22702959.734 9                 -17690619.479 8       662.000         581.000         436.000                  
G17  20909345.062    20909344.588    20909345.987                   -18049973.970 8 -18049973.972 8                 -14064912.866 9       458.000         451.000         815.000                  
G19  24047275.229    24047273.289    24047274.595                    -4466213.782 8  -4466213.753 6                  -3480166.879 7       186.000          37.000          67.000                  
G21  23676044.362    23676041.910    23676044.691                    -2617677.504 8  -2617677.488 6                  -2039749.838 6       117.000          23.000          29.000                  
G22  21347098.130    21347097.144    21347097.869                   -17295760.038 8 -17295760.037 8                 -13477214.945 8       446.000         154.000         152.000                  
G30  20736355.038    20736354.264    20736357.483                   -16567648.656 9 -16567648.655 9                 -12909858.474 9       616.000         909.000        1367.000                  
> 2024 10 31 00 30 10.0000000  0 12
G02  23552915.253    23552913.929    23552914.275                    -5886759.633 8  -5886759.633 6                  -4587087.570 6       178.000          29.000          41.000                  
G05  25358992.509    25358992.503    25358993.916                     3946712.007 7   3946711.981 6                   3075348.334 6        72.000          19.000          24.000                  
G07  20748991.549    20748991.045    20748991.650                   -22888651.241 9 -22888651.241 9                 -17835315.914 9       640.000         933.000        1247.000                  
G08  23754094.942    23754093.861    23754098.418                    -3887317.095 8  -3887317.100 6                  -3029085.553 8       127.000          41.000         166.000                  
G09  21289366.452    21289365.934    21289369.361                   -17867313.437 8 -17867313.439 8                 -13922582.915 9       399.000         471.000         949.000                  
G13  23895864.027    23895864.002    23895866.383                    -2028955.246 7  -2028955.259 6                  -1581010.069 6       100.000          22.000          32.000                  
G14  20501865.346    20501865.101    20501866.104                   -22545749.158 9 -22545749.150 9                 -17568117.764 8       648.000         569.000         405.000                  
G17  20850941.299    20850940.746    20850941.798                   -18356889.332 8 -18356889.333 9                 -14304067.676 9       494.000         538.000         851.000                  
G19  23978842.203    23978840.010    23978841.145                    -4825832.837 8  -4825832.829 6                  -3760389.421 7       197.000          37.000          70.000                  
G21  23672491.609    23672489.511    23672491.637                    -2636345.872 8  -2636345.869 6                  -2054296.680 6       117.000          28.000          28.000                  
G22  21357811.981    21357810.727    21357811.896                   -17239458.525 8 -17239458.527 8                 -13433343.675 8       439.000         147.000         161.000                  
G30  20780263.284    20780262.584    20780265.835                   -16336909.045 9 -16336909.046 9                 -12730061.425 9       611.000         901.000        1356.000                  
> 2024 10 31 00 30 20.0000000  0 12
G02  23527359.770    23527358.409    23527358.578                    -6021053.748 8  -6021053.743 6                  -4691732.345 6       188.000          36.000          45.000                  
G05  25394823.436    25394822.338    25394826.479                     4135000.064 7   4135000.068 6                   3222066.023 6        69.000          22.000          30.000                  
G07  20771285.584    20771285.114    20771285.673                   -22771495.550 9 -22771495.550 9                 -17744025.814 9       644.000         959.000        1210.000                  
G08  23808255.132    23808254.363    23808258.485                    -3602702.436 8  -3602702.427 6                  -2807308.013 8       124.000          41.000         159.000                  
G09  21239722.583    21239722.110    21239725.333                   -18128194.409 8 -18128194.411 9                 -14125866.785 9       420.000         514.000         982.000                  
G13  23952188.292    23952187.515    23952189.684                    -1732973.507 7  -1732973.512 6                  -1350375.114 6        97.000          21.000          29.000                  
G14  20532704.501    20532704.226    20532705.413                   -22383686.974 9 -22383686.965 8                 -17441835.591 8       605.000         485.000         380.000                  
G17  20793277.049    20793276.656    20793277.816                   -18659915.798 9 -18659915.800 9                 -14540192.189 9       509.000         564.000         850.000                  
G19  23910673.181    23910671.136    23910672.462                    -5184062.057 8  -5184062.079 6                  -4039528.986 7       209.000          44.000          66.000                  
G21  23669549.476    23669548.480    23669551.271                    -2651799.959 8  -2651799.959 6                  -2066338.861 6       120.000          26.000          27.000                  
G22  21369401.205    21369399.819    21369400.605                   -17178558.177 8 -17178558.179 8                 -13385888.899 8       437.000         156.000         172.000                  
G30  20824787.889    20824787.280    20824790.537                   -16102930.571 9 -16102930.570 9                 -12547740.583 9       612.000         905.000        1343.000                  
> 2024 10 31 00 30 30.0000000  0 12
G02  23502435.201    23502433.278    23502433.486                    -6152036.633 8  -6152036.609 6                  -4793796.942 7       190.000          34.000          52.000                  
G05  25430650.920    25430648.698    25430652.641                     4323265.986 7   4323265.985 6                   3368766.451 6        65.000          17.000          22.000                  
G07  20794208.502    20794208.085    20794208.461                   -22651035.335 9 -22651035.335 9                 -17650160.756 9       643.000         942.000        1138.000                  
G08  23862789.670    23862788.913    23862793.571                    -3316120.772 8  -3316120.789 6                  -2583997.733 8       119.000          39.000         148.000                  
G09  21190517.458    21190516.860    21190520.191                   -18386768.854 8 -18386768.857 9                 -14327353.364 9       434.000         555.000        1011.000                  
G13  24008640.226    24008638.401    24008640.563                    -1436320.732 7  -1436320.730 6                  -1119217.302 6        92.000          15.000          27.000                  
G14  20564454.248    20564454.058    20564455.117                   -22216841.397 9 -22216841.388 8                 -17311826.108 8       609.000         498.000         335.000                  
G17  20736361.016    20736360.563    20736361.624                   -18959011.274 9 -18959011.278 9                 -14773253.599 9       519.000         567.000         809.000                  
G19  23842774.069    23842772.321    23842773.741                    -5540871.494 8  -5540871.488 7                  -4317562.228 7       217.000          51.000          78.000                  
G21  23667215.468    23667213.376    23667215.304                    -2664072.177 8  -2664072.211 6                  -2075901.704 6       125.000          20.000          23.000                  
G22  21381857.554    21381856.515    21381857.609                   -17113097.916 8 -17113097.918 8                 -13334880.949 8       427.000         140.000         167.000                  
G30  20869914.610    20869913.916    20869917.192                   -15865788.506 9 -15865788.506 9                 -12362954.616 9       603.000         878.000        1321.000                  
> 2024 10 31 00 30 40.0000000  0 12
G02  23478148.818    23478147.383    23478148.360                    -6279659.451 8  -6279659.465 6                  -4893243.321 6       190.000          33.000          50.000                  
G05  25466473.511    25466472.588    25466476.049                     4511519.527 7   4511519.507 6                   3515457.203 6        65.000          20.000          24.000                  
G07  20817759.766    20817759.282    20817759.764                   -22527272.538 9 -22527272.537 9                 -17553722.259 9       631.000         913.000        1109.000                  
G08  23917692.976    23917692.103    23917697.045                    -3027602.176 8  -3027602.175 6                  -2359178.171 8       118.000          33.000         132.000                  
G09  21141763.115    21141762.623    21141765.903                   -18642974.603 8 -18642974.606 9                 -14526994.203 9       443.000         585.000        1139.000                  
G13  24065218.747    24065217.046    24065219.038                    -1138997.303 7  -1138997.292 6                   -887536.931 6        84.000          21.000          23.000                  
G14  20597112.031    20597111.767    20597112.770                   -22045224.274 9 -22045224.265 9                 -17178098.530 8       629.000         520.000         314.000                  
G17  20680212.083    20680211.599    20680212.605                   -19254076.313 9 -19254076.315 9                 -15003174.403 9       538.000         612.000         816.000                  
G19  23775162.687    23775161.119    23775162.214                    -5896173.501 8  -5896173.493 6                  -4594420.845 7       222.000          50.000          72.000                  
G21  23665489.700    23665487.595    23665490.931                    -2673138.410 8  -2673138.404 6                  -2082966.391 6       121.000          25.000          22.000                  
G22  21395185.367    21395184.374    21395185.194                   -17043060.564 8 -17043060.566 8                 -13280306.442 8       420.000         136.000         173.000                  
G30  20915640.015    20915639.238    20915642.385                   -15625500.950 9 -15625500.949 9                 -12175717.620 9       597.000         855.000        1310.000                  
> 2024 10 31 00 30 50.0000000  0 12
G02  23454504.660    23454503.416    23454503.958                    -6403911.072 8  -6403911.091 6                  -4990062.796 7       189.000          40.000          51.000                  
G05  25502289.611    25502289.172    25502291.647                     4699733.557 7   4699733.531 6                   3662117.205 6        64.000          21.000          22.000                  
G07  20841932.161    20841931.609    20841931.958                   -22400246.362 9 -22400246.363 9                 -17454740.867 9       624.000         900.000        1054.000                  
G08  23972952.909    23972951.564    23972956.009                    -2737213.435 8  -2737213.434 6                  -2132901.342 8       117.000          40.000         116.000                  
G09  21093464.042    21093463.785    21093467.255                   -18896786.338 8 -18896786.339 9                 -14724769.573 9       452.000         613.000        1248.000                  
G13  24121918.478    24121916.250    24121917.665                     -841040.302 7   -841040.301 6                   -655362.821 6        81.000          20.000          23.000                  
G14  20630668.349    20630668.057    20630669.004                   -21868885.219 9 -21868885.209 9                 -17040691.535 8       624.000         528.000         279.000                  
G17  20624841.915    20624841.353    20624842.283                   -19545048.497 9 -19545048.499 9                 -15229905.957 9       565.000         693.000         830.000                  
G19  23707846.410    23707845.546    23707847.085                    -6249916.811 8  -6249916.818 6                  -4870064.887 7       226.000          50.000          85.000                  
G21  23664372.282    23664371.096    23664371.716                    -2679012.002 8  -2679012.036 6                  -2087543.276 6       122.000          23.000          23.000                  
G22  21409380.108    21409379.039    21409380.179                   -16968466.724 8 -16968466.726 8                 -13222181.423 8       407.000         133.000         165.000                  
G30  20961953.299    20961952.517    20961955.776                   -15382123.008 9 -15382123.007 9                 -11986072.534 9       588.000         822.000        1271.000                  
> 2024 10 31 00 31  0.0000000  0 12
G02  23431505.673    23431504.092    23431504.470                    -6524773.660 8  -6524773.659 6                  -5084241.483 7       190.000          37.000          54.000                  
G05  25538094.060    25538094.414    25538096.925                     4887888.800 7   4887888.783 6                   3808731.335 6        64.000          19.000          24.000                  
G07  20866719.195    20866718.756    20866719.171                   -22269989.246 9 -22269989.246 9                 -17353241.860 9       625.000         881.000        1067.000                  
G08  24028556.273    24028555.032    24028559.880                    -2445014.071 8  -2445014.086 6                  -1905213.667 8       113.000          31.000         117.000                  
G09  21045627.262    21045626.869    21045630.374                   -19148171.489 8 -19148171.491 9                 -14920654.098 9       463.000         634.000        1390.000                  
G13  24178731.473    24178730.169    24178732.851                     -542479.369 7   -542479.404 6                   -422718.165 6        74.000          23.000          26.000                  
G14  20665114.711    20665114.589    20665115.607                   -21687867.571 9 -21687867.563 9                 -16899638.885 8       622.000         512.000         274.000                  
G17  20570263.695    20570263.310    20570264.150                   -19831858.470 9 -19831858.473 9                 -15453394.222 9       602.000         777.000         888.000                  
G19  23640839.217    23640838.056    23640839.049                    -6602042.604 8  -6602042.588 6                  -5144448.535 7       233.000          50.000          87.000                  
G21  23663861.079    23663859.487    23663860.791                    -2681699.726 8  -2681699.723 6                  -2089637.704 6       116.000          22.000          22.000                  
G22  21424439.120    21424437.991    21424439.239                   -16889330.880 8 -16889330.879 8                 -13160517.182 8       404.000         118.000         178.000                  
G30  21008845.514    21008844.701    21008847.999                   -15135702.734 9 -15135702.732 9                 -11794056.796 9       575.000         805.000        1301.000                  
> 2024 10 31 00 31 10.0000000  0 12
G02  23409158.336    23409156.288    23409157.010                    -6642209.730 8  -6642209.734 6                  -5175750.129 7       190.000          28.000          64.000                  
G05  25573887.167    25573887.248    25573891.936                     5075985.933 7   5075985.918 6                   3955300.163 6        63.000          25.000          29.000                  
G07  20892118.840    20892118.338    20892118.834                   -22136513.679 9 -22136513.679 9                 -17249234.975 9       619.000         867.000        1042.000                  
G08  24084497.554    24084496.363    24084501.034                    -2151043.097 8  -2151043.094 6                  -1676145.515 8       108.000          37.000         101.000                  
G09  20998261.919    20998261.678    20998265.125                   -19397077.315 8 -19397077.317 9                 -15114606.685 9       468.000         647.000        1429.000                  
G13  24235662.655    24235657.655    24235661.158                     -243323.697 7   -243323.715 6                   -189610.014 6        71.000          22.000          17.000                  
G14  20700447.301    20700446.865    20700447.986                   -21502195.340 9 -21502195.331 8                 -16754959.284 8       611.000         498.000         275.000                  
G17  20516494.663    20516494.268    20516495.101                   -20114416.864 9 -20114416.866 9                 -15673569.572 9       630.000         859.000         944.000                  
G19  23574155.314    23574153.546    23574154.819                    -6952471.297 8  -6952471.293 7                  -5417509.778 7       235.000          57.000          96.000                  
G21  23663959.344    23663955.769    23663958.238                    -2681188.870 8  -2681188.877 6                  -2089239.714 6       113.000          32.000          19.000                  
G22  21440363.566    21440362.517    21440363.561                   -16805648.291 8 -16805648.292 8                 -13095310.022 8       404.000         131.000         166.000                  
G30  21056311.561    21056310.725    21056313.863                   -14886268.059 9 -14886268.059 9                 -11599692.177 9       565.000         767.000        1282.000                  
> 2024 10 31 00 31 20.0000000  0 12
G02  23387462.223    23387460.401    23387461.156                    -6756222.985 8  -6756223.004 6                  -5264591.665 7       181.000          34.000          63.000                  
G05  25609664.520    25609662.291    25609666.272                     5263985.845 7   5263985.839 6                   4101793.229 6        59.000          24.000          25.000                  
G07  20918120.829    20918120.174    20918120.642                   -21999873.249 9 -21999873.249 9                 -17142761.962 9       606.000         838.000        1013.000                  
G08  24140761.741    24140759.641    24140763.830                    -1855379.866 8  -1855379.878 6                  -1445758.742 7       110.000          35.000          94.000                  
G09  20951371.071    20951370.564    20951374.049                   -19643491.505 8 -19643491.508 9                 -15306617.743 9       481.000         679.000        1465.000                  
G13  24292690.906    24292689.557    24292692.947                       56377.176 7     56377.194 6                     43922.918 6        66.000          16.000          22.000                  
G14  20736652.765    20736652.415    20736653.558                   -21311933.847 9 -21311933.837 8                 -16606703.634 8       600.000         484.000         275.000                  
G17  20463544.013    20463543.492    20463544.249                   -20392675.199 9 -20392675.201 9                 -15890394.226 9       662.000         931.000        1066.000                  
G19  23507801.430    23507799.558    23507800.907                    -7301163.753 8  -7301163.754 7                  -5689218.113 7       241.000          60.000          99.000                  
G21  23664658.379    23664656.609    23664658.579                    -2677507.590 8  -2677507.581 6                  -2086371.273 6       106.000          21.000          19.000                  
G22  21457145.879    21457144.870    21457146.129                   -16717455.681 8 -16717455.681 8                 -13026588.558 8       401.000         124.000         160.000                  
G30  21104337.647    21104337.109    21104340.447                   -14633887.527 9 -14633887.526 9                 -11403032.085 9       549.000         724.000        1276.000                  
> 2024 10 31 00 31 30.0000000  0 12
G02  23366425.911    23366424.760    23366426.592                    -6866765.260 8  -6866765.241 6                  -5350728.563 7       177.000          31.000          63.000                  
G05  25645423.325    25645421.636    25645425.732                     5451901.642 7   5451901.649 6                   4248220.710 6        59.000          25.000          22.000                  
G07  20944724.627    20944724.060    20944724.588                   -21860069.156 9 -21860069.157 9                 -17033823.769 9       603.000         831.000         965.000                  
G08  24197340.116    24197339.059    24197344.293                    -1558051.036 8  -1558051.021 6                  -1214074.091 7       106.000          30.000          93.000                  
G09  20904966.387    20904966.024    20904969.410                   -19887349.359 8 -19887349.362 9                 -15496636.851 9       491.000         704.000        1483.000                  
G13  24349828.152    24349824.229    24349827.510                      356626.495 7    356626.475 6                    277882.954 6        64.000          25.000          19.000                  
G14  20773729.284    20773728.836    20773729.963                   -21117096.843 9 -21117096.836 8                 -16454882.653 8       599.000         478.000         256.000                  
G17  20411430.651    20411430.129    20411430.915                   -20666532.884 9 -20666532.887 9                 -16103789.808 9       677.000         985.000        1179.000                  
G19  23441795.233    23441793.710    23441794.611                    -7648027.652 8  -7648027.650 7                  -5959501.618 7       248.000          73.000         100.000                  
G21  23665967.539    23665964.570    23665968.977                    -2670632.467 8  -2670632.481 6                  -2081014.151 6       104.000          21.000          19.000                  
G22  21474789.364    21474788.671    21474789.479                   -16624738.406 8 -16624738.409 8                 -12954341.383 8       393.000         124.000         156.000                  
G30  21152921.572    21152921.038    21152924.525                   -14378577.274 9 -14378577.274 9                 -11204089.093 9       530.000         680.000        1250.000                  
> 2024 10 31 00 31 40.0000000  0 12
G02  23346049.842    23346047.631    23346049.107                    -6973848.956 8  -6973848.943 6                  -5434170.470 7       171.000          32.000          80.000                  
G05  25681157.902    25681156.371    25681160.840                     5639687.124 7   5639687.111 6                   4394546.686 6        55.000          20.000          24.000                  
G07  20971918.981    20971918.349    20971918.734                   -21717162.815 9 -21717162.815 9                 -16922468.238 9       603.000         818.000         947.000                  
G08  24254220.777    24254219.842    24254224.241                    -1259142.992 8  -1259143.000 6                   -981158.918 7       103.000          32.000          85.000                  
G09  20859049.189    20859048.768    20859052.170                   -20128646.049 8 -20128646.051 9                 -15684660.255 9       497.000         735.000        1569.000                  
G13  24407053.214    24407053.695    24407056.281                      657367.724 7    657367.713 6                    512226.734 6        55.000          19.000          15.000                  
G14  20811662.087    20811661.741    20811662.650                   -20917758.735 9 -20917758.726 8                 -16299554.318 8       611.000         491.000         258.000                  
G17  20360162.317    20360161.775    20360162.754                   -20935949.573 9 -20935949.575 9                 -16313724.884 9       658.000         919.000        1327.000                  
G19  23376143.666    23376142.024    23376142.973                    -7993030.449 8  -7993030.447 7                  -6228334.930 8       258.000          63.000         103.000                  
G21  23667877.296    23667873.892    23667875.833                    -2660600.586 7  -2660600.592 6                  -2073197.142 6        98.000          19.000          17.000                  
G22  21493285.053    21493284.165    21493285.382                   -16527542.862 8 -16527542.861 8                 -12878604.650 8       385.000         110.000         159.000                  
G30  21202048.777    21202048.019    21202051.572                   -14120413.432 9 -14120413.431 9                 -11002922.526 9       517.000         643.000        1281.000                  
> 2024 10 31 00 31 50.0000000  0 12
G02  23326338.924    23326336.198    23326337.888                    -7077431.105 8  -7077431.103 6                  -5514883.901 7       173.000          28.000          71.000                  
G05  25716867.521    25716867.689    25716873.820                     5827352.531 7   5827352.539 6                   4540779.050 6        57.000          28.000          18.000                  
G07  20999702.361    20999701.786    20999702.331                   -21571160.061 9 -21571160.062 9                 -16808699.928 9       599.000         816.000         908.000                  
G08  24311396.823    24311395.144    24311399.327                     -958685.861 7   -958685.864 6                   -747036.692 7       100.000          33.000          80.000                  
G09  20813631.033    20813630.499    20813633.920                   -20367320.812 9 -20367320.815 9                 -15870640.610 9       509.000         761.000        1622.000                  
G13  24464379.114    24464376.569    24464378.219                      958600.555 7    958600.566 6                    746952.055 6        55.000          18.000          19.000                  
G14  20850447.566    20850447.334    20850448.446                   -20713938.682 9 -20713938.675 8                 -16140733.558 8       580.000         458.000         262.000                  
G17  20309757.410    20309756.841    20309757.922                   -21200829.210 9 -21200829.212 9                 -16520124.598 9       644.000         892.000        1458.000                  
G19  23310863.169    23310861.097    23310861.894                    -8336083.066 8  -8336083.062 7                  -6495648.633 8       272.000          72.000         113.000                  
G21  23670389.989    23670387.696    23670389.414                    -2647393.585 7  -2647393.584 6                  -2062906.131 6        97.000          21.000          20.000                  
G22  21512634.869    21512634.134    21512635.008                   -16425860.309 8 -16425860.311 8                 -12799371.558 8       378.000         119.000         153.000                  
G30  21251714.749    21251714.228    21251717.736                   -13859416.142 9 -13859416.141 9                 -10799548.084 9       509.000         621.000        1245.000                  
> 2024 10 31 00 32  0.0000000  0 12
G02  23307295.336    23307292.994    23307294.370                    -7177505.405 8  -7177505.408 6                  -5592863.947 7       176.000          33.000          86.000                  
G05  25752552.623    25752551.834    25752557.712                     6014871.735 7   6014871.724 6                   4686897.394 6        52.000          25.000          24.000                  
G07  21028066.821    21028066.480    21028066.954                   -21422102.798 9 -21422102.798 9                 -16692551.491 9       593.000         808.000         878.000                  
G08  24368853.864    24368852.659    24368857.229                     -656745.410 7   -656745.410 6                   -511758.645 7        99.000          28.000          79.000                  
G09  20768716.575    20768715.931    20768719.333                   -20603348.807 9 -20603348.809 9                 -16054558.552 9       515.000         789.000        1695.000                  
G13  24521790.473    24521785.662    24521790.380                     1260289.137 7   1260289.138 6                    982032.586 6        54.000          25.000          21.000                  
G14  20890075.488    20890075.162    20890076.489                   -20505692.488 9 -20505692.481 8                 -15978463.868 8       543.000         388.000         277.000                  
G17  20260226.920    20260226.670    20260227.840                   -21461112.050 9 -21461112.052 9                 -16722942.404 9       647.000         902.000        1554.000                  
G19  23245963.028    23245961.706    23245962.306                    -8677132.050 8  -8677132.055 7                  -6761401.067 8       278.000          75.000         120.000                  
G21  23673504.764    23673501.996    23673503.831                    -2631029.724 7  -2631029.712 6                  -2050155.170 6        96.000          25.000          21.000                  
G22  21532833.169    21532831.747    21532833.351                   -16319718.918 8 -16319718.915 8                 -12716664.051 8       373.000         110.000         146.000                  
G30  21301909.827    21301908.890    21301912.441                   -13595641.479 8 -13595641.479 9                 -10594009.461 9       499.000         591.000        1236.000                  
> 2024 10 31 00 32 10.0000000  0 11
G02  23288920.717    23288919.130    23288920.237                    -7274061.666 8  -7274061.655 6                  -5668102.663 7       173.000          32.000          80.000                  
G07  21057005.663    21057005.319    21057005.758                   -21270028.635 9 -21270028.635 9                 -16574052.216 9       592.000         807.000         838.000                  
G08  24426580.977    24426580.298    24426585.534                     -353382.530 7   -353382.512 6                   -275372.234 7        94.000          26.000          72.000                  
G09  20724310.810    20724310.506    20724313.987                   -20836700.615 9 -20836700.617 9                 -16236391.153 9       526.000         813.000        1780.000                  
G13  24579279.603    24579276.074    24579284.430                     1562402.220 6   1562402.236 6                   1217462.826 6        50.000          17.000          17.000                  
G14  20930535.978    20930535.522    20930536.928                   -20293072.082 9 -20293072.075 8                 -15812785.707 8       531.000         374.000         277.000                  
G17  20211583.679    20211583.185    20211584.390                   -21716734.568 9 -21716734.571 9                 -16922128.802 9       646.000         899.000        1589.000                  
G19  23181455.824    23181454.021    23181455.343                    -9016118.895 8  -9016118.894 7                  -7025546.644 8       282.000          79.000         129.000                  
G21  23677216.054    23677213.515    23677215.976                    -2611523.129 7  -2611523.098 6                  -2034955.359 6        96.000          18.000          16.000                  
G22  21553874.922    21553873.778    21553875.091                   -16209143.247 8 -16209143.250 8                 -12630501.271 8       371.000         111.000         139.000                  
G30  21352622.947    21352622.350    21352625.828                   -13329140.933 8 -13329140.933 9                 -10386346.782 9       485.000         564.000        1193.000                  
> 2024 10 31 00 32 20.0000000  0 10
G02  23271224.850    23271222.389    23271224.272                    -7367057.014 8  -7367057.002 6                  -5740566.649 7       174.000          37.000          86.000                  
G07  21086517.792    21086517.291    21086517.772                   -21114942.182 9 -21114942.182 9                 -16453205.706 9       585.000         792.000         794.000                  
G08  24484575.590    24484574.295    24484579.018                      -48624.678 7    -48624.681 6                    -37898.830 7        96.000          30.000          68.000                  
G09  20680426.864    20680426.432    20680429.809                   -21067313.729 9 -21067313.731 9                 -16416089.707 9       537.000         851.000        1812.000                  
G14  20971825.077    20971824.735    20971825.955                   -20076096.887 9 -20076096.880 8                 -15643714.213 8       532.000         367.000         273.000                  
G17  20163845.463    20163845.016    20163846.294                   -21967600.447 9 -21967600.449 9                 -17117608.735 9       667.000         949.000        1615.000                  
G19  23117358.984    23117357.298    23117358.205                    -9352951.699 8  -9352951.699 7                  -7288013.748 8       287.000          77.000         133.000                  
G21  23681530.303    23681527.517    23681529.386                    -2588855.508 7  -2588855.534 6                  -2017292.386 6        96.000          19.000          24.000                  
G22  21575761.933    21575760.870    21575762.012                   -16094125.540 8 -16094125.545 8                 -12540877.170 8       364.000         104.000         144.000                  
G30  21403851.658    21403850.925    21403854.542                   -13059932.816 8 -13059932.815 9                 -10176574.312 9       471.000         534.000        1147.000                  
> 2024 10 31 00 32 30.0000000  0 11
G02  23254200.960    23254199.149    23254200.632                    -7456515.434 8  -7456515.430 6                  -5810274.594 7       177.000          34.000          79.000                  
G04  23345036.296    23345036.269    23345052.174                     -349757.431 8   -349757.438 6                   -272541.042 6       147.000          39.000          18.000                  
G07  21116589.512    21116588.960    21116589.443                   -20956914.577 9 -20956914.578 9                 -16330067.402 9       574.000         752.000         747.000                  
G08  24542817.428    24542815.827    24542820.837                      257434.803 7    257434.781 6                    200588.778 7        91.000          30.000          66.000                  
G09  20637063.113    20637062.613    20637066.053                   -21295191.883 9 -21295191.885 9                 -16593657.125 9       549.000         891.000        1863.000                  
G14  21013926.533    21013926.114    21013927.538                   -19854853.119 9 -19854853.115 8                 -15471316.570 8       522.000         359.000         268.000                  
G17  20117018.017    20117017.667    20117018.900                   -22213680.046 9 -22213680.048 9                 -17309359.097 9       681.000         992.000        1634.000                  
G19  23053676.684    23053675.207    23053676.147                    -9687604.462 8  -9687604.462 7                  -7548782.135 8       297.000          90.000         137.000                  
G21  23686434.961    23686433.333    23686435.943                    -2563075.346 7  -2563075.350 6                  -1997204.149 6        97.000          21.000          19.000                  
G22  21598483.389    21598482.047    21598483.563                   -15974725.130 8 -15974725.135 7                 -12447837.991 8       352.000          93.000         148.000                  
G30  21455579.459    21455578.774    21455582.417                   -12788101.586 8 -12788101.587 9                  -9964757.864 9       456.000         504.000        1101.000                  
> 2024 10 31 00 32 40.0000000  0 11
G02  23237860.801    23237857.965    23237859.058                    -7542389.660 8  -7542389.655 6                  -5877189.668 7       185.000          38.000          77.000                  
G04  23287728.160    23287727.916    23287731.544                     -650912.688 8   -650912.684 6                   -507206.527 7       151.000          36.000          57.000                  
G07  21147221.132    21147220.581    21147221.021                   -20795945.020 9 -20795945.020 9                 -16204636.678 9       565.000         730.000         704.000                  
G08  24601302.093    24601300.570    24601305.434                      564774.974 7    564774.948 6                    440074.339 7        91.000          24.000          64.000                  
G09  20594232.665    20594232.355    20594235.703                   -21520266.762 9 -21520266.765 9                 -16769040.183 9       556.000         923.000        1884.000                  
G14  21056837.106    21056836.938    21056838.230                   -19629355.500 9 -19629355.494 8                 -15295604.242 8       505.000         334.000         249.000                  
G17  20071120.954    20071120.421    20071121.505                   -22454872.027 9 -22454872.029 9                 -17497300.932 9       713.000        1089.000        1549.000                  
G19  22990428.558    22990426.512    22990427.284                   -10019978.705 8 -10019978.714 7                  -7807775.058 8       308.000          94.000         154.000                  
G21  23691938.081    23691935.229    23691937.740                    -2534159.528 7  -2534159.522 6                  -1974672.576 6        94.000          21.000          25.000                  
G22  21622040.858    21622039.829    21622041.155                   -15850930.218 8 -15850930.215 7                 -12351374.525 8       339.000          85.000         156.000                  
G30  21507804.301    21507803.402    21507807.146                   -12513659.476 8 -12513659.474 8                  -9750906.974 9       439.000         467.000        1089.000                  
> 2024 10 31 00 32 50.0000000  0 11
G02  23222197.882    23222196.355    23222196.882                    -7624694.651 8  -7624694.651 6                  -5941323.520 7       184.000          31.000          83.000                  
G04  23230628.449    23230628.074    23230631.434                     -950976.348 8   -950976.339 6                   -741022.417 7       157.000          46.000          60.000                  
G07  21178400.738    21178400.327    21178400.852                   -20632094.507 9 -20632094.507 9                 -16076961.059 9       554.000         700.000         679.000                  
G08  24660014.404    24660014.125    24660019.279                      873313.681 7    873313.701 6                    680493.801 7        89.000          23.000          63.000                  
G09  20551937.200    20551936.795    20551940.163                   -21742531.696 9 -21742531.698 9                 -16942233.670 9       571.000         949.000        1937.000                  
G14  21100543.011    21100542.575    21100543.725                   -19399680.935 8 -19399680.930 8                 -15116637.156 8       493.000         316.000         229.000                  
G17  20026160.977    20026160.545    20026161.629                   -22691137.651 9 -22691137.654 9                 -17681404.050 9       737.000        1175.000        1481.000                  
G19  22927620.360    22927618.365    22927619.238                   -10350037.226 8 -10350037.233 7                  -8064963.519 8       316.000          98.000         165.000                  
G21  23698029.792    23698027.376    23698029.748                    -2502147.054 7  -2502147.049 6                  -1949727.888 6       100.000          23.000          20.000                  
G22  21646424.808    21646423.429    21646425.116                   -15722791.479 8 -15722791.480 7                 -12251526.272 8       332.000          83.000         157.000                  
G30  21560511.688    21560510.929    21560514.701                   -12236680.350 8 -12236680.350 8                  -9535079.195 9       425.000         435.000        1061.000                  
> 2024 10 31 00 33  0.0000000  0 11
G02  23207223.224    23207221.480    23207222.400                    -7703387.615 8  -7703387.613 6                  -6002642.834 7       179.000          35.000          80.000                  
G04  23173746.712    23173746.582    23173750.591                    -1249887.647 8  -1249887.654 6                   -973940.363 7       160.000          43.000          55.000                  
G07  21210128.263    21210127.811    21210128.490                   -20465365.750 9 -20465365.750 9                 -15947042.654 9       542.000         668.000         656.000                  
G08  24718953.737    24718950.666    24718956.384                     1183027.415 7   1183027.405 6                    921828.838 7        85.000          25.000          60.000                  
G09  20510188.625    20510188.237    20510191.668                   -21961921.735 9 -21961921.737 9                 -17113186.983 9       572.000         965.000        1946.000                  
G14  21145039.722    21145039.420    21145040.859                   -19165848.464 8 -19165848.457 8                 -14934430.159 8       477.000         297.000         222.000                  
G17  19982156.987    19982156.606    19982157.689                   -22922380.409 9 -22922380.411 9                 -17861593.248 9       756.000        1228.000        1490.000                  
G19  22865270.814    22865269.288    22865270.244                   -10677684.086 8 -10677684.084 8                  -8320272.768 8       318.000         102.000         177.000                  
G21  23704715.350    23704712.576    23704714.654                    -2467019.246 8  -2467019.234 6                  -1922355.766 6       104.000          24.000          17.000                  
G22  21671636.490    21671635.361    21671637.297                   -15590302.144 8 -15590302.153 7                 -12148287.948 8       323.000          83.000         159.000                  
G30  21613698.949    21613698.288    21613702.047                   -11957179.502 8 -11957179.502 8                  -9317286.447 9       406.000         402.000        1006.000                  
> 2024 10 31 00 33 10.0000000  0 11
G02  23192932.961    23192931.258    23192932.353                    -7778484.529 8  -7778484.549 6                  -6061160.030 7       185.000          31.000          80.000                  
G04  23117085.938    23117085.776    23117089.120                    -1547643.722 8  -1547643.715 6                  -1205958.160 7       159.000          47.000          56.000                  
G07  21242391.830    21242391.376    21242391.978                   -20295819.826 9 -20295819.826 9                 -15814929.058 9       520.000         628.000         649.000                  
G08  24778095.863    24778095.612    24778100.926                     1493834.884 7   1493834.887 6                   1164016.120 7        79.000          29.000          65.000                  
G09  20468988.497    20468988.096    20468991.493                   -22178430.196 9 -22178430.199 9                 -17281894.916 9       578.000         992.000        1994.000                  
G14  21190313.330    21190312.891    21190314.078                   -18927935.826 8 -18927935.822 8                 -14749043.816 8       457.000         274.000         209.000                  
G17  19939116.075    19939115.677    19939116.741                   -23148562.579 9 -23148562.581 9                 -18037839.139 9       779.000        1307.000        1519.000                  
G19  22803387.988    22803386.613    22803387.245                   -11002881.373 8 -11002881.375 8                  -8573673.268 8       319.000         104.000         173.000                  
G21  23711985.550    23711982.026    23711984.523                    -2428816.080 8  -2428816.083 6                  -1892587.310 6       111.000          26.000          23.000                  
G22  21697666.642    21697665.468    21697667.230                   -15453514.403 8 -15453514.404 7                 -12041700.230 8       316.000          84.000         158.000                  
G30  21667352.154    21667351.539    21667355.270                   -11675230.323 8 -11675230.321 8                  -9097585.915 9       389.000         359.000         949.000                  
> 2024 10 31 00 33 20.0000000  0 11
G02  23179333.821    23179331.939    23179332.805                    -7849951.956 8  -7849951.942 6                  -6116849.096 7       196.000          34.000          86.000                  
G04  23060654.820    23060654.428    23060657.571                    -1844191.279 8  -1844191.263 6                  -1437034.277 7       166.000          45.000          57.000                  
G07  21275189.509    21275188.944    21275189.551                   -20123467.739 9 -20123467.738 9                 -15680628.849 9       509.000         597.000         617.000                  
G08  24837443.802    24837442.772    24837448.540                     1805705.396 7   1805705.397 6                   1407031.735 7        75.000          25.000          56.000                  
G09  20428347.554    20428347.097    20428350.540                   -22392000.278 9 -22392000.281 9                 -17448313.213 9       595.000        1045.000        2005.000                  
G14  21236357.647    21236357.425    21236358.570                   -18685971.010 8 -18685971.009 8                 -14560499.949 8       450.000         268.000         212.000                  
G17  19897054.885    19897054.257    19897055.339                   -23369596.963 9 -23369596.966 9                 -18210073.782 9       762.000        1247.000        1514.000                  
G19  22741987.908    22741986.183    22741987.062                   -11325540.655 8 -11325540.658 7                  -8825096.120 8       318.000          98.000         175.000                  
G21  23719840.847    23719839.291    23719841.804                    -2387527.811 8  -2387527.786 6                  -1860414.865 6       113.000          23.000          19.000                  
G22  21724513.968    21724512.781    21724514.109                   -15312431.079 8 -15312431.087 7                 -11931765.311 8       316.000          80.000         159.000                  
G30  21721466.708    21721466.268    21721470.023                   -11390855.897 8 -11390855.897 8                  -8875995.586 9       365.000         323.000         893.000                  
> 2024 10 31 00 33 30.0000000  0 11
G02  23166423.834    23166422.353    23166423.448                    -7917792.118 8  -7917792.112 6                  -6169711.721 7       204.000          35.000          88.000                  
G04  23004456.702    23004456.995    23004460.986                    -2139511.749 8  -2139511.743 6                  -1667154.229 7       166.000          43.000          61.000                  
G07  21308512.408    21308511.737    21308512.492                   -19948355.639 9 -19948355.641 9                 -15544177.992 9       505.000         590.000         625.000                  
G08  24896981.806    24896980.212    24896986.079                     2118573.610 7   2118573.599 6                   1650824.710 7        74.000          25.000          58.000                  
G09  20388269.689    20388269.373    20388272.907                   -22602610.254 9 -22602610.256 9                 -17612424.946 9       607.000        1091.000        2126.000                  
G14  21283161.037    21283160.795    21283162.100                   -18440017.434 8 -18440017.430 8                 -14368847.962 8       451.000         273.000         211.000                  
G17  19855982.528    19855982.079    19855983.325                   -23585432.182 9 -23585432.184 9                 -18378257.132 9       731.000        1128.000        1688.000                  
G19  22681081.173    22681079.439    22681080.672                   -11645608.196 8 -11645608.199 8                  -9074499.450 8       317.000         101.000         171.000                  
G21  23728281.660    23728278.419    23728281.761                    -2343180.288 8  -2343180.257 6                  -1825858.624 6       113.000          21.000          18.000                  
G22  21752171.676    21752170.419    21752171.915                   -15167090.783 8 -15167090.790 7                 -11818513.282 8       314.000          77.000         153.000                  
G30  21776032.257    21776031.359    21776035.338                   -11104114.082 8 -11104114.083 8                  -8652560.549 9       337.000         285.000         863.000                  
> 2024 10 31 00 33 40.0000000  0 11
G02  23154206.158    23154203.991    23154205.493                    -7981998.515 8  -7981998.521 6                  -6219742.871 7       202.000          39.000          91.000                  
G04  22948498.323    22948498.231    22948501.512                    -2433576.913 8  -2433576.909 7                  -1896296.026 7       169.000          56.000          69.000                  
G07  21342353.459    21342352.821    21342353.738                   -19770520.324 9 -19770520.325 9                 -15405605.158 9       503.000         575.000         615.000                  
G08  24956698.625    24956696.070    24956702.784                     2432384.014 7   2432384.008 6                   1895351.818 7        71.000          24.000          59.000                  
G09  20348761.355    20348760.856    20348764.413                   -22810229.088 9 -22810229.091 9                 -17774205.927 9       618.000        1141.000        2102.000                  
G14  21330713.286    21330713.123    21330714.493                   -18190129.478 8 -18190129.475 8                 -14174130.225 8       439.000         257.000         204.000                  
G17  19815911.128    19815910.785    19815912.167                   -23796008.269 9 -23796008.272 9                 -18542342.466 9       709.000        1080.000        1801.000                  
G19  22620679.408    22620677.631    22620678.941                   -11963020.579 8 -11963020.583 7                  -9321833.843 8       312.000         100.000         170.000                  
G21  23737300.026    23737297.095    23737300.122                    -2295790.657 8  -2295790.666 6                  -1788931.989 6       116.000          20.000          21.000                  
G22  21780633.373    21780632.277    21780634.021                   -15017523.282 8 -15017523.284 7                 -11701967.332 8       308.000          74.000         162.000                  
G30  21831038.929    21831037.863    21831042.007                   -10815053.181 8 -10815053.180 8                  -8427318.441 9       320.000         260.000         812.000                  
> 2024 10 31 00 33 50.0000000  0 11
G02  23142683.961    23142682.568    23142684.062                    -8042546.204 8  -8042546.196 6                  -6266923.102 7       202.000          35.000          94.000                  
G04  22892787.584    22892787.309    22892791.339                    -2726339.218 8  -2726339.206 6                  -2124422.632 7       168.000          46.000          73.000                  
G07  21376709.291    21376708.850    21376709.610                   -19589979.578 8 -19589979.578 9                 -15264924.210 9       492.000         562.000         650.000                  
G08  25016585.753    25016585.333    25016591.432                     2747100.589 7   2747100.605 6                   2140584.993 7        68.000          26.000          56.000                  
G09  20309831.557    20309831.095    20309834.657                   -23014806.793 9 -23014806.795 9                 -17933617.206 9       632.000        1179.000        2142.000                  
G14  21379007.435    21379007.061    21379008.663                   -17936342.846 8 -17936342.841 8                 -13976374.572 8       410.000         226.000         195.000                  
G17  19776855.349    19776855.165    19776856.554                   -24001247.167 9 -24001247.169 9                 -18702268.962 9       704.000        1063.000        1988.000                  
G19  22560798.547    22560797.398    22560798.376                   -12277695.170 8 -12277695.176 7                  -9567034.905 8       311.000          95.000         190.000                  
G21  23746897.567    23746894.666    23746896.986                    -2245357.064 8  -2245357.068 6                  -1749633.432 6       108.000          24.000          19.000                  
G22  21809897.231    21809896.370    21809898.261                   -14863740.281 8 -14863740.280 7                 -11582136.595 8       302.000          73.000         152.000                  
G30  21886481.066    21886480.385    21886484.414                   -10523702.256 8 -10523702.254 8                  -8200291.916 9       312.000         232.000         806.000                  
> 2024 10 31 00 34  0.0000000  0 11
G02  23131855.849    23131853.488    23131854.995                    -8099451.315 8  -8099451.300 6                  -6311264.979 7       209.000          45.000          80.000                  
G04  22837326.641    22837325.860    22837329.807                    -3017791.169 8  -3017791.178 6                  -2351528.215 7       174.000          50.000          69.000                  
G07  21411568.937    21411568.451    21411569.252                   -19406791.545 8 -19406791.546 9                 -15122180.455 9       481.000         528.000         631.000                  
G08  25076631.605    25076632.064    25076638.115                     3062647.456 7   3062647.452 6                   2386465.065 7        66.000          23.000          56.000                  
G09  20271482.149    20271481.856    20271485.318                   -23216333.778 9 -23216333.780 9                 -18090651.306 9       648.000        1235.000        2099.000                  
G14  21428028.646    21428028.409    21428030.284                   -17678733.874 8 -17678733.871 8                 -13775640.484 8       396.000         210.000         184.000                  
G17  19738822.780    19738822.196    19738823.744                   -24201111.836 9 -24201111.838 9                 -18858007.754 9       709.000        1074.000        2072.000                  
G19  22501447.088    22501445.630    22501447.006                   -12589589.369 8 -12589589.373 8                  -9810069.432 8       308.000         103.000         197.000                  
G21  23757066.501    23757063.450    23757066.886                    -2191918.627 8  -2191918.633 6                  -1707993.458 6       105.000          24.000          24.000                  
G22  21839953.921    21839952.480    21839954.493                   -14705794.524 8 -14705794.524 7                 -11459062.159 8       306.000          72.000         158.000                  
G30  21942345.818    21942345.454    21942349.530                   -10230130.427 8 -10230130.424 8                  -7971534.830 9       299.000         215.000         769.000                  
> 2024 10 31 00 34 10.0000000  0 11
G02  23121726.809    23121725.487    23121726.789                    -8152679.287 8  -8152679.295 6                  -6352741.595 7       210.000          45.000          94.000                  
G04  22782125.648    22782125.391    22782129.062                    -3307873.629 8  -3307873.633 6                  -2577566.683 7       176.000          50.000          73.000                  
G07  21446931.306    21446930.688    21446931.476                   -19220962.911 8 -19220962.913 8                 -14977379.098 9       462.000         498.000         640.000                  
G08  25136832.746    25136832.209    25136839.078                     3379000.506 7   3379000.487 6                   2632973.296 6        61.000          19.000          48.000                  
G09  20233725.081    20233724.774    20233728.252                   -23414749.207 9 -23414749.208 9                 -18245260.826 9       663.000        1287.000        2157.000                  
G14  21477773.411    21477772.517    21477774.663                   -17417327.811 8 -17417327.808 8                 -13571947.635 8       382.000         190.000         189.000                  
G17  19701829.246    19701828.693    19701830.204                   -24395514.929 9 -24395514.931 9                 -19009490.777 9       734.000        1150.000        2218.000                  
G19  22442643.080    22442641.365    22442642.742                   -12898609.015 8 -12898609.007 8                 -10050864.048 8       312.000         105.000         197.000                  
G21  23767808.717    23767806.825    23767809.864                    -2135463.845 7  -2135463.846 6                  -1664003.105 6        99.000          24.000          19.000                  
G22  21870801.406    21870800.381    21870802.300                   -14543688.059 8 -14543688.055 7                 -11332745.632 8       299.000          70.000         161.000                  
G30  21998630.297    21998629.669    21998633.945                    -9934355.204 8  -9934355.204 8                  -7741060.832 9       281.000         188.000         745.000                  
> 2024 10 31 00 34 20.0000000  0 11
G02  23112292.650    23112291.473    23112293.118                    -8202255.922 8  -8202255.928 6                  -6391373.057 7       213.000          45.000          99.000                  
G04  22727185.958    22727185.536    22727189.146                    -3596587.107 8  -3596587.117 6                  -2802538.442 7       180.000          46.000          72.000                  
G07  21482782.748    21482782.431    21482783.494                   -19032560.421 8 -19032560.422 8                 -14830572.154 9       447.000         462.000         653.000                  
G08  25197174.897    25197170.318    25197177.226                     3696076.174 7   3696076.134 6                   2880044.471 6        62.000          20.000          44.000                  
G09  20196560.115    20196559.865    20196563.437                   -23610052.317 9 -23610052.320 9                 -18397445.177 9       672.000        1337.000        2201.000                  
G14  21528223.194    21528222.793    21528224.928                   -17152210.085 8 -17152210.083 8                 -13365362.599 8       353.000         168.000         183.000                  
G17  19665879.699    19665879.449    19665880.921                   -24584430.027 9 -24584430.029 9                 -19156697.447 9       743.000        1198.000        2256.000                  
G19  22384392.112    22384390.667    22384391.716                   -13204719.682 8 -13204719.676 8                 -10289391.946 8       328.000         108.000         199.000                  
G21  23779117.372    23779114.659    23779118.752                    -2076041.169 7  -2076041.180 6                  -1617700.236 6        95.000          18.000          21.000                  
G22  21902429.385    21902428.282    21902430.254                   -14377483.415 8 -14377483.409 7                 -11203235.727 8       290.000          67.000         147.000                  
G30  22055319.330    22055318.321    22055322.906                    -9636453.810 8  -9636453.810 8                  -7508930.097 9       262.000         165.000         716.000                  
> 2024 10 31 00 34 30.0000000  0 11
G02  23103559.687    23103557.892    23103560.092                    -8248149.659 8  -8248149.644 6                  -6427134.770 7       215.000          33.000          94.000                  
G04  22672516.171    22672516.396    22672520.710                    -3883873.642 8  -3883873.630 7                  -3026398.321 7       188.000          63.000          82.000                  
G07  21519123.019    21519122.523    21519123.875                   -18841592.651 8 -18841592.650 8                 -14681766.313 9       434.000         435.000         694.000                  
G08  25257642.929    25257642.198    25257648.109                     4013849.586 7   4013849.586 6                   3127659.250 6        61.000          20.000          45.000                  
G09  20159998.960    20159998.515    20160002.115                   -23802184.251 9 -23802184.254 9                 -18547158.501 9       682.000        1365.000        2313.000                  
G14  21579374.677    21579374.216    21579376.561                   -16883408.185 8 -16883408.182 8                 -13155906.794 8       336.000         154.000         180.000                  
G17  19630990.878    19630990.423    19630991.855                   -24767773.453 9 -24767773.455 9                 -19299562.561 9       755.000        1243.000        2240.000                  
G19  22326712.573    22326710.639    22326712.186                   -13507828.548 8 -13507828.551 8                 -10525580.803 8       338.000         115.000         199.000                  
G21  23790993.116    23790988.741    23790992.848                    -2013641.623 7  -2013641.623 6                  -1569077.829 6        91.000          24.000          18.000                  
G22  21934836.133    21934834.598    21934837.057                   -14207185.659 8 -14207185.665 7                 -11070536.412 8       290.000          66.000         139.000                  
G30  22112409.433    22112408.347    22112413.016                    -9336444.960 8  -9336444.956 8                  -7275157.206 9       246.000         155.000         684.000                  
> 2024 10 31 00 34 40.0000000  0 11
G02  23095526.481    23095524.679    23095526.687                    -8290368.559 8  -8290368.576 6                  -6460033.037 7       221.000          48.000          92.000                  
G04  22618123.200    22618123.350    22618127.318                    -4169713.998 8  -4169713.991 7                  -3249131.344 7       191.000          60.000          79.000                  
G07  21555942.135    21555941.754    21555943.215                   -18648107.151 8 -18648107.149 8                 -14530998.634 9       422.000         400.000         709.000                  
G08  25318234.745    25318233.498    25318240.609                     4332257.251 7   4332257.214 6                   3375768.074 6        58.000          23.000          44.000                  
G09  20124044.662    20124044.278    20124047.932                   -23991125.361 9 -23991125.362 9                 -18694385.486 9       686.000        1384.000        2375.000                  
G14  21631214.533    21631214.272    21631216.454                   -16610988.787 8 -16610988.786 8                 -12943632.185 8       323.000         133.000         177.000                  
G17  19597170.331    19597170.014    19597171.410                   -24945501.606 9 -24945501.607 9                 -19438052.154 9       787.000        1313.000        2193.000                  
G19  22269614.181    22269612.792    22269614.191                   -13807881.621 8 -13807881.623 8                 -10759388.546 8       340.000         112.000         201.000                  
G21  23803427.963    23803423.718    23803429.266                    -1948295.484 7  -1948295.467 6                  -1518159.387 6        88.000          20.000          19.000                  
G22  21968013.110    21968012.301    21968014.352                   -14032839.547 8 -14032839.541 7                 -10934682.556 8       288.000          65.000         146.000                  
G30  22169889.359    22169888.461    22169893.135                    -9034386.137 8  -9034386.132 8                  -7039786.966 9       236.000         129.000         638.000                  
> 2024 10 31 00 34 50.0000000  0 11
G02  23088192.069    23088190.118    23088192.265                    -8328912.916 8  -8328912.906 6                  -6490068.060 7       225.000          47.000          96.000                  
G04  22564010.591    22564010.160    22564014.820                    -4454080.221 8  -4454080.231 7                  -3470715.715 7       193.000          60.000          91.000                  
G07  21593233.132    21593232.774    21593234.163                   -18452142.864 8 -18452142.865 8                 -14378299.463 9       405.000         381.000         702.000                  
G08  25378938.156    25378936.053    25378943.637                     4651244.238 7   4651244.246 6                   3624328.028 6        61.000          22.000          40.000                  
G09  20088702.910    20088702.599    20088706.340                   -24176847.604 9 -24176847.606 9                 -18839104.292 9       691.000        1416.000        2420.000                  
G14  21683731.439    21683731.083    21683733.754                   -16335010.257 8 -16335010.252 8                 -12728584.258 8       307.000         134.000         186.000                  
G17  19564428.513    19564427.723    19564429.218                   -25117563.643 9 -25117563.645 9                 -19572126.618 9       789.000        1323.000        2168.000                  
G19  22213109.531    22213107.967    22213109.396                   -14104816.303 8 -14104816.303 8                 -10990766.394 8       337.000         116.000         203.000                  
G21  23816418.205    23816415.635    23816421.084                    -1880024.998 7  -1880024.987 6                  -1464962.332 6        82.000          20.000          19.000                  
G22  22001953.883    22001952.291    22001954.751                   -13854481.875 8 -13854481.867 7                 -10795702.837 8       293.000          64.000         145.000                  
G30  22227750.258    22227749.336    22227754.119                    -8730326.065 8  -8730326.069 8                  -6802857.348 9       226.000         126.000         598.000                  
> 2024 10 31 00 35  0.0000000  0 11
G02  23081561.816    23081560.321    23081562.018                    -8363757.316 8  -8363757.325 6                  -6517220.038 7       228.000          43.000          93.000                  
G04  22510188.452    22510188.338    22510192.226                    -4736917.649 8  -4736917.641 7                  -3691108.814 7       203.000          60.000          92.000                  
G07  21630993.537    21630992.990    21630994.592                   -18253712.362 8 -18253712.362 8                 -14223678.606 9       387.000         344.000         690.000                  
G08  25439747.526    25439742.608    25439751.103                     4970783.880 7   4970783.888 6                   3873318.533 6        58.000          23.000          35.000                  
G09  20053984.054    20053983.828    20053987.614                   -24359296.765 9 -24359296.767 9                 -18981272.666 9       701.000        1446.000        2508.000                  
G14  21736920.132    21736920.091    21736922.171                   -16055504.775 8 -16055504.771 8                 -12510788.089 8       311.000         131.000         182.000                  
G17  19532778.606    19532778.304    19532779.795                   -25283883.408 9 -25283883.411 9                 -19701726.606 9       790.000        1351.000        2136.000                  
G19  22157215.651    22157213.874    22157215.326                   -14398543.536 8 -14398543.540 8                 -11219644.967 8       349.000         124.000         204.000                  
G21  23829967.705    23829965.333    23829969.563                    -1808826.430 7  -1808826.436 6                  -1409483.660 6        76.000          22.000          19.000                  
G22  22036655.798    22036654.762    22036656.705                   -13672123.730 8 -13672123.727 7                 -10653605.907 8       292.000          70.000         148.000                  
G30  22285988.809    22285987.225    22285991.820                    -8424286.761 8  -8424286.759 8                  -6564385.508 9       215.000         120.000         532.000                  
> 2024 10 31 00 35 10.0000000  0 11
G02  23075629.023    23075627.735    23075629.828                    -8394934.742 8  -8394934.739 6                  -6541514.652 7       221.000          47.000          91.000                  
G04  22456657.441    22456656.743    22456661.139                    -5018229.268 8  -5018229.260 7                  -3910312.972 8       202.000          59.000         102.000                  
G07  21669209.466    21669209.077    21669210.881                   -18052885.999 8 -18052885.999 8                 -14067190.881 9       373.000         312.000         667.000                  
G08  25500640.240    25500638.241    25500646.861                     5290791.426 7   5290791.432 6                   4122673.496 6        54.000          21.000          33.000                  
G09  20019887.558    20019887.137    20019891.049                   -24538476.637 9 -24538476.640 9                 -19120893.564 9       705.000        1464.000        2573.000                  
G14  21790763.151    21790762.472    21790764.561                   -15772562.439 8 -15772562.439 8                 -12290313.890 8       295.000         116.000         166.000                  
G17  19502225.296    19502224.800    19502226.302                   -25444443.783 9 -25444443.785 9                 -19826838.777 9       804.000        1389.000        2114.000                  
G19  22101937.420    22101935.902    22101937.309                   -14689032.020 8 -14689032.024 8                 -11445999.862 8       351.000         121.000         210.000                  
G21  23844065.147    23844060.462    23844065.743                    -1734754.308 7  -1734754.327 6                  -1351765.965 6        72.000          26.000          20.000                  
G22  22072105.720    22072104.497    22072106.776                   -13485834.525 8 -13485834.522 7                 -10508445.837 8       288.000          69.000         146.000                  
G30  22344587.437    22344586.429    22344590.970                    -8116347.773 8  -8116347.771 8                  -6324433.442 8       206.000         106.000         491.000                  
> 2024 10 31 00 35 20.0000000  0 12
G02  23070401.291    23070399.379    23070401.586                    -8422411.520 8  -8422411.523 6                  -6562925.665 7       217.000          44.000          93.000                  
G04  22403428.594    22403428.086    22403432.332                    -5297950.421 8  -5297950.415 7                  -4128277.807 8       209.000          70.000         105.000                  
G06  24688361.656    24688362.548    24688384.891                     -444013.066 7   -444013.049 6                   -345987.747 6       100.000          34.000          19.000                  
G07  21707881.523    21707880.717    21707882.483                   -17849666.593 8 -17849666.594 8                 -13908838.481 9       362.000         307.000         654.000                  
G08  25561623.330    25561620.192    25561630.979                     5611248.872 7   5611248.862 6                   4372378.770 6        56.000          21.000          34.000                  
G09  19986424.987    19986424.761    19986428.662                   -24714323.828 9 -24714323.830 9                 -19257917.575 9       710.000        1485.000        2630.000                  
G14  21845254.729    21845254.338    21845256.426                   -15486206.062 8 -15486206.055 7                 -12067179.448 8       270.000          99.000         166.000                  
G17  19472783.523    19472783.139    19472784.768                   -25599161.508 9 -25599161.510 9                 -19947398.247 9       811.000        1414.000        2156.000                  
G19  22047294.641    22047293.196    22047294.647                   -14976182.973 8 -14976182.979 8                 -11669754.094 8       355.000         134.000         223.000                  
G21  23858708.936    23858704.816    23858710.299                    -1657796.171 7  -1657796.179 6                  -1291799.413 6        69.000          20.000          19.000                  
G22  22108303.536    22108301.952    22108304.299                   -13295616.904 8 -13295616.909 7                 -10360224.703 8       287.000          67.000         137.000                  
G30  22403545.081    22403544.744    22403549.453                    -7806520.917 8  -7806520.916 7                  -6083010.350 8       192.000          91.000         445.000                  
> 2024 10 31 00 35 30.0000000  0 12
G02  23065872.412    23065870.321    23065872.480                    -8446214.056 8  -8446214.058 6                  -6581473.651 7       219.000          42.000          87.000                  
G04  22350503.200    22350502.859    22350506.917                    -5576075.642 8  -5576075.648 7                  -4344999.054 8       208.000          65.000         108.000                  
G06  24621909.971    24621910.461    24621918.755                     -793215.631 8   -793215.638 6                   -618091.359 7       109.000          39.000          76.000                  
G07  21746996.430    21746995.991    21746997.917                   -17644116.367 8 -17644116.366 8                 -13748669.880 9       353.000         288.000         653.000                  
G08  25622676.517    25622674.834    25622684.142                     5932080.746 7   5932080.751 6                   4622375.586 6        53.000          20.000          34.000                  
G09  19953597.541    19953597.295    19953601.189                   -24886834.560 9 -24886834.563 9                 -19392341.752 9       721.000        1534.000        2681.000                  
G14  21900380.547    21900380.251    21900382.823                   -15196518.010 8 -15196518.008 7                 -11841448.932 8       261.000          94.000         162.000                  
G17  19444458.241    19444457.691    19444459.311                   -25748014.010 9 -25748014.013 9                 -20063387.424 9       830.000        1468.000        2208.000                  
G19  21993294.450    21993292.689    21993294.499                   -15259957.093 8 -15259957.091 8                 -11890877.031 8       361.000         127.000         241.000                  
G21  23873894.412    23873890.264    23873897.936                    -1577999.369 7  -1577999.363 6                  -1229621.134 6        63.000          21.000          21.000                  
G22  22145236.536    22145235.140    22145237.675                   -13101533.539 8 -13101533.545 7                 -10208991.339 8       278.000          65.000         143.000                  
G30  22462849.281    22462849.030    22462853.830                    -7494877.154 8  -7494877.150 7                  -5840171.521 8       186.000          79.000         412.000                  
> 2024 10 31 00 35 40.0000000  0 12
G02  23062043.426    23062041.907    23062044.218                    -8466335.269 8  -8466335.254 6                  -6597153.120 7       220.000          45.000          89.000                  
G04  22297889.305    22297888.657    22297893.143                    -5852564.947 8  -5852564.947 7                  -4560445.556 8       211.000          80.000         106.000                  
G06  24555541.948    24555542.377    24555550.289                    -1141983.124 8  -1141983.130 6                   -889858.167 7       111.000          46.000          88.000                  
G07  21786550.220    21786549.568    21786551.627                   -17436263.202 8 -17436263.201 8                 -13586706.800 9       355.000         290.000         653.000                  
G08  25683794.747    25683791.634    25683802.744                     6253245.811 7   6253245.833 6                   4872631.816 6        53.000          20.000          29.000                  
G09  19921412.295    19921411.822    19921415.886                   -25055971.079 9 -25055971.083 9                 -19524136.674 9       730.000        1578.000        2724.000                  
G14  21956132.054    21956131.263    21956134.078                   -14903546.419 8 -14903546.415 7                 -11613159.832 8       248.000          86.000         155.000                  
G17  19417259.252    19417258.834    19417260.448                   -25890945.880 9 -25890945.881 9                 -20174763.126 9       825.000        1478.000        2253.000                  
G19  21939950.526    21939949.216    21939951.003                   -15540280.432 8 -15540280.435 8                 -12109311.053 8       351.000         122.000         247.000                  
G21  23889620.655    23889612.468    23889621.288                    -1495377.387 7  -1495377.367 6                  -1165241.438 6        60.000          20.000          19.000                  
G22  22182899.773    22182898.229    22182901.008                   -12903613.207 8 -12903613.215 7                 -10054768.148 8       275.000          59.000         140.000                  
G30  22522492.903    22522492.079    22522497.007                    -7181452.856 8  -7181452.859 7                  -5595945.298 8       170.000          78.000         384.000                  
> 2024 10 31 00 35 50.0000000  0 12
G02  23058918.008    23058916.077    23058918.621                    -8482762.407 8  -8482762.405 6                  -6609954.069 7       220.000          39.000          80.000                  
G04  22245595.792    22245594.833    22245599.124                    -6127371.931 8  -6127371.924 7                  -4774581.125 8       219.000          78.000         114.000                  
G06  24489268.796    24489269.237    24489277.307                    -1490251.960 8  -1490251.954 6                  -1161236.359 7       110.000          47.000          96.000                  
G07  21826537.761    21826537.285    21826539.242                   -17226128.599 8 -17226128.599 8                 -13422965.999 9       352.000         289.000         643.000                  
G08  25744968.913    25744965.786    25744978.758                     6574709.601 6   6574709.582 6                   5123120.519 6        50.000          21.000          26.000                  
G09  19889877.235    19889876.832    19889880.889                   -25221689.650 9 -25221689.653 9                 -19653268.251 9       746.000        1625.000        2735.000                  
G14  22012499.346    22012499.023    22012501.834                   -14607333.276 8 -14607333.273 7                 -11382344.873 8       235.000          73.000         160.000                  
G17  19391198.469    19391198.113    19391199.800                   -26027896.818 9 -26027896.820 9                 -20281478.357 9       821.000        1435.000        2288.000                  
G19  21887279.214    21887277.685    21887279.438                   -15817073.239 8 -15817073.241 8                 -12324993.998 8       349.000         114.000         260.000                  
G21  23905877.572    23905871.228    23905882.620                    -1409937.868 7  -1409937.863 6                  -1098663.074 6        63.000          19.000          16.000                  
G22  22221289.032    22221287.737    22221290.438                   -12701879.096 8 -12701879.092 7                  -9897573.207 8       272.000          59.000         138.000                  
G30  22582468.939    22582467.965    22582473.383                    -6866277.802 8  -6866277.804 7                  -5350354.874 8       158.000          59.000         372.000                  
> 2024 10 31 00 36  0.0000000  0 11
G02  23056490.129    23056488.971    23056491.195                    -8495523.137 8  -8495523.136 6                  -6619898.069 7       221.000          48.000          84.000                  
G04  22193623.203    22193622.613    22193626.974                    -6400489.677 8  -6400489.671 7                  -4987400.379 8       215.000          66.000         119.000                  
G06  24423095.102    24423094.900    24423103.044                    -1837997.756 8  -1837997.765 6                  -1432206.893 8       116.000          48.000         105.000                  
G07  21866947.776    21866947.166    21866949.412                   -17013773.805 8 -17013773.807 8                 -13257495.179 9       351.000         282.000         635.000                  
G09  19858993.334    19858992.911    19858997.013                   -25383986.561 9 -25383986.564 9                 -19779733.584 9       752.000        1672.000        2730.000                  
G14  22069468.837    22069467.999    22069471.035                   -14307960.303 8 -14307960.289 7                 -11149067.727 8       231.000          77.000         161.000                  
G17  19366279.492    19366279.095    19366280.881                   -26158847.692 9 -26158847.695 9                 -20383518.206 9       811.000        1420.000        2330.000                  
G19  21835286.788    21835285.070    21835287.187                   -16090295.458 8 -16090295.463 8                 -12537894.637 8       348.000         122.000         276.000                  
G21  23922662.283    23922657.089    23922667.030                    -1321727.970 7  -1321727.999 6                  -1029929.977 6        64.000          21.000          17.000                  
G22  22260392.153    22260390.313    22260393.105                   -12496394.561 8 -12496394.566 7                  -9737455.869 8       268.000          56.000         147.000                  
G30  22642765.274    22642764.136    22642769.737                    -6549421.220 8  -6549421.211 6                  -5103454.185 8       142.000          44.000         346.000                  
> 2024 10 31 00 36 10.0000000  0 11
G02  23054763.105    23054761.616    23054764.187                    -8504599.130 8  -8504599.131 6                  -6626970.818 7       226.000          41.000          86.000                  
G04  22141982.063    22141981.697    22141985.942                    -6671864.276 8  -6671864.268 7                  -5198861.281 8       214.000          70.000         129.000                  
G06  24357034.715    24357034.044    24357042.293                    -2185148.691 8  -2185148.707 6                  -1702713.852 8       123.000          49.000         115.000                  
G07  21907777.576    21907777.354    21907779.419                   -16799213.036 8 -16799213.036 8                 -13090305.422 9       346.000         273.000         629.000                  
G09  19828770.139    19828769.735    19828773.803                   -25542811.519 9 -25542811.521 9                 -19903493.481 9       769.000        1742.000        2717.000                  
G14  22127032.668    22127032.055    22127035.142                   -14005462.394 8 -14005462.394 7                 -10913355.572 8       236.000          79.000         173.000                  
G17  19342514.549    19342514.222    19342515.945                   -26283733.997 9 -26283733.999 9                 -20480832.401 9       810.000        1409.000        2322.000                  
G19  21783990.475    21783988.672    21783990.814                   -16359860.504 8 -16359860.508 8                 -12747945.506 8       339.000         115.000         282.000                  
G21  23939975.602    23939969.726    23939981.202                    -1230750.036 7  -1230750.037 6                   -959041.245 6        65.000          23.000          20.000                  
G22  22300205.392    22300203.625    22300206.350                   -12287176.622 8 -12287176.627 7                  -9574429.384 8       261.000          60.000         156.000                  
G30  22703377.157    22703375.890    22703381.964                    -6230905.126 8  -6230905.155 6                  -4855260.395 8       129.000          43.000         315.000                  
> 2024 10 31 00 36 20.0000000  0 11
G02  23053735.509    23053733.225    23053736.358                    -8510005.933 8  -8510005.919 6                  -6631184.435 7       222.000          43.000          85.000                  
G04  22090676.877    22090676.864    22090681.458                    -6941474.960 8  -6941474.958 7                  -5408947.664 8       211.000          63.000         135.000                  
G06  24291094.059    24291093.713    24291102.050                    -2531665.796 8  -2531665.804 7                  -1972726.858 8       132.000          56.000         131.000                  
G07  21949018.121    21949017.851    21949020.167                   -16582493.746 8 -16582493.746 8                 -12921433.696 9       350.000         289.000         636.000                  
G09  19799210.587    19799210.235    19799214.437                   -25698147.884 9 -25698147.886 9                 -20024534.974 9       779.000        1792.000        2676.000                  
G14  22185177.766    22185177.630    22185180.693                   -13699907.756 8 -13699907.756 7                 -10675261.552 8       232.000          76.000         177.000                  
G17  19319909.327    19319908.847    19319910.761                   -26402526.042 9 -26402526.044 9                 -20573397.805 9       807.000        1400.000        2336.000                  
G19  21733400.183    21733398.528    21733400.704                   -16625714.933 8 -16625714.931 8                 -12955104.947 8       330.000         108.000         285.000                  
G21  23957811.369    23957803.352    23957813.140                    -1137038.618 7  -1137038.642 6                   -886018.346 6        65.000          22.000          21.000                  
G22  22340719.219    22340717.440    22340720.639                   -12074275.957 8 -12074275.964 7                  -9408533.235 8       256.000          54.000         154.000                  
G30  22764295.282    22764293.038    22764299.277                    -5910784.562 8  -5910784.569 6                  -4605816.371 8       123.000          38.000         296.000                  
> 2024 10 31 00 36 30.0000000  0 11
G02  23053404.637    23053402.696    23053406.050                    -8511744.820 8  -8511744.823 6                  -6632539.896 7       218.000          41.000          83.000                  
G04  22039714.275    22039713.843    22039718.674                    -7209285.765 8  -7209285.756 7                  -5617631.502 8       209.000          72.000         137.000                  
G06  24225284.536    24225284.283    24225292.528                    -2877494.513 8  -2877494.521 7                  -2242203.401 8       135.000          58.000         141.000                  
G07  21990663.678    21990663.354    21990665.656                   -16363648.280 8 -16363648.279 8                 -12750905.206 9       355.000         279.000         651.000                  
G09  19770321.148    19770320.762    19770324.878                   -25849964.368 9 -25849964.371 9                 -20142833.685 9       797.000        1841.000        2667.000                  
G14  22243894.385    22243894.501    22243898.144                   -13391349.601 8 -13391349.604 7                 -10434827.130 8       227.000          74.000         181.000                  
G17  19298471.935    19298471.527    19298473.425                   -26515180.721 9 -26515180.723 9                 -20661180.831 9       814.000        1408.000        2338.000                  
G19  21683528.791    21683527.144    21683529.438                   -16887790.579 8 -16887790.577 8                 -13159319.855 8       342.000         113.000         289.000                  
G21  23976161.276    23976153.586    23976162.258                    -1040614.443 7  -1040614.460 6                   -810885.759 6        68.000          18.000          20.000                  
G22  22381926.980    22381925.294    22381928.525                   -11857728.887 8 -11857728.881 7                  -9239795.729 8       245.000          56.000         150.000                  
G30  22825510.061    22825508.478    22825514.434                    -5589099.169 8  -5589099.163 6                  -4355153.007 8       117.000          39.000         260.000                  
> 2024 10 31 00 36 40.0000000  0 11
G02  23053770.843    23053769.492    23053772.242                    -8509820.519 8  -8509820.508 6                  -6631040.887 7       214.000          40.000          89.000                  
G04  21989100.990    21989100.066    21989104.727                    -7475263.287 8  -7475263.287 7                  -5824886.774 8       205.000          66.000         143.000                  
G06  24159615.336    24159616.078    24159624.159                    -3222582.488 8  -3222582.495 7                  -2511102.699 8       140.000          58.000         154.000                  
G07  22032707.009    22032706.422    22032708.987                   -16142711.564 8 -16142711.562 8                 -12578747.161 9       346.000         277.000         672.000                  
G09  19742106.706    19742106.334    19742110.443                   -25998232.730 9 -25998232.732 9                 -20258367.604 9       812.000        1936.000        2660.000                  
G14  22303172.720    22303172.123    22303175.852                   -13079843.821 8 -13079843.825 7                 -10192095.838 8       230.000          71.000         182.000                  
G17  19278209.947    19278209.463    19278211.306                   -26621659.292 9 -26621659.294 9                 -20744151.281 9       824.000        1447.000        2292.000                  
G19  21634389.166    21634387.589    21634389.553                   -17146022.356 8 -17146022.355 8                 -13360539.518 8       346.000         121.000         285.000                  
G21  23995022.447    23995014.962    23995026.220                     -941499.883 7   -941499.874 6                   -733654.450 6        72.000          23.000          21.000                  
G22  22423820.933    22423819.730    22423822.813                   -11637574.779 8 -11637574.766 7                  -9068247.526 8       241.000          53.000         164.000                  
G30  22887014.390    22887013.061    22887019.372                    -5265891.025 8  -5265891.039 6                  -4103303.078 8       114.000          33.000         233.000                  
> 2024 10 31 00 36 50.0000000  0 11
G02  23054831.598    23054829.815    23054833.364                    -8504247.893 8  -8504247.896 6                  -6626698.985 7       213.000          39.000          85.000                  
G04  21938840.471    21938839.405    21938844.384                    -7739383.404 8  -7739383.410 7                  -6030694.683 8       202.000          70.000         144.000                  
G06  24094097.033    24094096.725    24094104.802                    -3566886.296 8  -3566886.297 7                  -2779390.927 8       149.000          71.000         166.000                  
G07  22075139.699    22075139.045    22075141.761                   -15919727.927 8 -15919727.929 8                 -12404994.101 9       344.000         274.000         689.000                  
G09  19714571.107    19714570.552    19714574.700                   -26142934.511 9 -26142934.515 9                 -20371122.354 9       824.000        1984.000        2622.000                  
G14  22362999.219    22362998.821    22363002.446                   -12765455.699 8 -12765455.692 7                  -9947118.572 8       230.000          69.000         189.000                  
G17  19259128.548    19259127.961    19259129.829                   -26721933.978 9 -26721933.980 9                 -20822287.521 9       838.000        1523.000        2328.000                  
G19  21585991.064    21585989.703    21585991.767                   -17400354.643 8 -17400354.648 8                 -13558720.584 8       343.000         112.000         285.000                  
G21  24014389.850    24014382.380    24014392.350                     -839728.691 7   -839728.688 6                   -654353.204 6        71.000          23.000          22.000                  
G22  22466391.961    22466390.870    22466394.410                   -11413862.877 8 -11413862.867 7                  -8893927.004 8       239.000          55.000         164.000                  
G30  22948799.341    22948798.749    22948804.300                    -4941211.269 8  -4941211.259 6                  -3850306.438 8       112.000          38.000         211.000                  
> 2024 10 31 00 37  0.0000000  0 11
G02  23056588.792    23056586.391    23056589.893                    -8495019.621 8  -8495019.637 6                  -6619508.502 7       218.000          46.000          90.000                  
G04  21888941.880    21888941.688    21888946.368                    -8001598.917 8  -8001598.914 7                  -6235018.451 8       208.000          67.000         148.000                  
G06  24028739.658    24028739.848    24028747.345                    -3910339.051 8  -3910339.050 7                  -3047015.975 8       152.000          69.000         179.000                  
G07  22117957.658    22117957.361    22117960.101                   -15694718.543 8 -15694718.543 8                 -12229662.516 9       338.000         269.000         688.000                  
G09  19687721.616    19687721.285    19687725.432                   -26284028.761 9 -26284028.764 9                 -20481066.020 9       831.000        2038.000        2571.000                  
G14  22423365.723    22423365.786    22423369.476                   -12448227.471 8 -12448227.465 7                  -9699928.228 8       239.000          79.000         188.000                  
G17  19241236.784    19241236.261    19241238.121                   -26815955.880 9 -26815955.883 9                 -20895551.445 9       838.000        1511.000        2405.000                  
G19  21538350.218    21538348.796    21538350.865                   -17650709.215 8 -17650709.216 8                 -13753802.098 8       355.000         116.000         268.000                  
G21  24034259.496    24034253.904    24034263.822                     -735311.538 7   -735311.542 6                   -572990.186 6        75.000          21.000          19.000                  
G22  22509634.926    22509634.154    22509637.864                   -11186619.899 8 -11186619.900 6                  -8716854.978 8       243.000          44.000         158.000                  
G30  23010858.799    23010857.980    23010864.283                    -4615087.771 8  -4615087.776 6                  -3596184.798 8       106.000          31.000         198.000                  
> 2024 10 31 00 37 10.0000000  0 11
G02  23059034.548    23059032.964    23059036.259                    -8482165.116 8  -8482165.117 6                  -6609492.352 7       223.000          43.000          91.000                  
G04  21839408.713    21839408.240    21839413.215                    -8261898.684 8  -8261898.678 7                  -6437849.404 8       205.000          73.000         149.000                  
G06  23963550.517    23963550.257    23963557.995                    -4252909.563 8  -4252909.560 7                  -3313953.546 8       158.000          75.000         194.000                  
G07  22161150.770    22161150.000    22161152.909                   -15467740.658 8 -15467740.659 8                 -12052797.026 9       331.000         257.000         691.000                  
G09  19661559.630    19661559.327    19661563.479                   -26421511.089 9 -26421511.092 9                 -20588195.182 9       851.000        2119.000        2520.000                  
G14  22484259.084    22484258.359    22484262.070                   -12128237.557 8 -12128237.547 7                  -9450585.918 8       246.000          85.000         195.000                  
G17  19224536.908    19224536.406    19224538.468                   -26903713.943 9 -26903713.946 9                 -20963934.436 9       814.000        1432.000        2500.000                  
G19  21491474.454    21491472.655    21491474.737                   -17897044.418 8 -17897044.419 8                 -13945751.610 8       372.000         128.000         262.000                  
G21  24054627.347    24054618.604    24054632.166                     -628295.543 7   -628295.543 6                   -489600.142 6        75.000          22.000          16.000                  
G22  22553538.689    22553537.167    22553541.240                   -10955909.230 8 -10955909.246 6                  -8537080.839 8       244.000          46.000         145.000                  
G30  23073181.632    23073180.368    23073186.721                    -4287584.270 8  -4287584.256 6                  -3340987.837 8       105.000          29.000         183.000                  
> 2024 10 31 00 37 20.0000000  0 11
G02  23062171.740    23062170.394    23062173.952                    -8465679.343 8  -8465679.348 6                  -6596646.614 7       218.000          38.000          96.000                  
G04  21790247.977    21790247.970    21790253.288                    -8520236.082 8  -8520236.077 7                  -6639151.201 8       209.000          73.000         147.000                  
G06  23898541.751    23898541.564    23898549.067                    -4594530.732 8  -4594530.740 7                  -3580151.355 8       162.000          85.000         198.000                  
G07  22204713.669    22204713.077    22204716.172                   -15238816.022 8 -15238816.023 8                 -11874414.571 9       323.000         253.000         675.000                  
G09  19636092.638    19636092.176    19636096.366                   -26555342.131 9 -26555342.133 9                 -20692479.166 9       865.000        2203.000        2484.000                  
G14  22545668.673    22545668.269    22545672.027                   -11805528.854 8 -11805528.853 8                  -9199125.060 8       266.000         101.000         202.000                  
G17  19209037.575    19209037.133    19209039.270                   -26985163.457 9 -26985163.459 9                 -21027401.665 9       800.000        1382.000        2593.000                  
G19  21445377.940    21445376.250    21445378.111                   -18139283.474 8 -18139283.475 8                 -14134509.298 8       389.000         149.000         249.000                  
G21  24075481.894    24075476.851    24075489.179                     -518692.912 7   -518692.922 6                   -404171.388 6        77.000          22.000          18.000                  
G22  22598096.433    22598094.638    22598098.929                   -10721759.131 8 -10721759.132 6                  -8354626.614 8       243.000          46.000         150.000                  
G30  23135760.964    23135759.533    23135766.229                    -3958728.757 8  -3958728.759 6                  -3084737.347 8       102.000          33.000         172.000                  
> 2024 10 31 00 37 30.0000000  0 11
G02  23065998.840    23065997.146    23066000.889                    -8445568.927 8  -8445568.937 6                  -6580976.446 7       214.000          38.000          91.000                  
G04  21741468.755    21741468.456    21741473.378                    -8776575.480 8  -8776575.476 7                  -6838896.094 8       214.000          75.000         150.000                  
G06  23833724.476    23833724.264    23833731.846                    -4935146.154 8  -4935146.164 7                  -3845565.461 8       167.000          91.000         208.000                  
G07  22248640.860    22248640.570    22248643.758                   -15007977.357 8 -15007977.354 8                 -11694540.651 9       313.000         232.000         659.000                  
G09  19611325.385    19611325.094    19611329.312                   -26685494.149 9 -26685494.152 9                 -20793896.360 9       871.000        2237.000        2488.000                  
G14  22607585.783    22607585.526    22607588.972                   -11480155.336 8 -11480155.333 7                  -8945587.716 8       273.000          97.000         191.000                  
G17  19194744.808    19194744.423    19194746.519                   -27060272.585 9 -27060272.588 9                 -21085928.326 9       782.000        1315.000        2620.000                  
G19  21400073.191    21400071.635    21400073.380                   -18377361.242 8 -18377361.242 8                 -14320024.406 8       413.000         166.000         244.000                  
G21  24096827.535    24096822.877    24096830.843                     -406527.176 7   -406527.150 6                   -316741.739 6        72.000          19.000          22.000                  
G22  22643301.147    22643299.840    22643303.268                   -10484209.334 8 -10484209.329 7                  -8169523.254 8       241.000          51.000         144.000                  
G30  23198590.729    23198589.070    23198595.811                    -3628560.045 7  -3628560.031 6                  -2827463.596 8       100.000          27.000         169.000                  
> 2024 10 31 00 37 40.0000000  0 11
G02  23070510.261    23070508.992    23070512.679                    -8421860.477 8  -8421860.466 6                  -6562502.586 7       218.000          45.000          89.000                  
G04  21693072.582    21693071.665    21693076.633                    -9030900.375 8  -9030900.371 7                  -7037071.232 8       225.000          76.000         148.000                  
G06  23769105.598    23769105.268    23769112.724                    -5274718.112 8  -5274718.114 7                  -4110166.477 8       176.000          96.000         210.000                  
G07  22292923.109    22292922.294    22292925.731                   -14775276.461 8 -14775276.463 8                 -11513215.632 9       311.000         222.000         657.000                  
G09  19587260.177    19587259.670    19587263.861                   -26811959.027 9 -26811959.029 9                 -20892440.443 9       884.000        2278.000        2501.000                  
G14  22669996.076    22669995.499    22669999.484                   -11152190.023 8 -11152190.016 7                  -8690030.785 8       271.000          96.000         190.000                  
G17  19181660.619    19181660.193    19181662.362                   -27129030.646 9 -27129030.648 9                 -21139506.092 9       760.000        1245.000        2616.000                  
G19  21355569.078    21355567.382    21355569.296                   -18611232.150 8 -18611232.152 8                 -14502261.417 8       433.000         185.000         239.000                  
G21  24118651.835    24118647.791    24118655.052                     -291841.487 7   -291841.473 6                   -227349.121 6        73.000          24.000          22.000                  
G22  22689141.071    22689139.487    22689143.404                   -10243319.129 8 -10243319.128 6                  -7981816.973 8       239.000          49.000         141.000                  
G30  23261658.088    23261657.116    23261664.259                    -3297135.785 7  -3297135.777 6                  -2569211.495 8        95.000          34.000         154.000                  
> 2024 10 31 00 37 50.0000000  0 11
G02  23075706.760    23075705.373    23075708.628                    -8394555.034 8  -8394555.045 6                  -6541225.845 7       217.000          36.000          91.000                  
G04  21645067.603    21645066.979    21645071.490                    -9283168.004 8  -9283167.997 7                  -7233643.285 8       234.000          86.000         147.000                  
G06  23704697.884    23704697.570    23704704.905                    -5613182.274 8  -5613182.278 7                  -4373904.287 8       181.000         100.000         237.000                  
G07  22337554.049    22337553.607    22337557.115                   -14540738.721 8 -14540738.724 8                 -11330459.306 9       306.000         218.000         627.000                  
G09  19563902.663    19563902.214    19563906.471                   -26934702.992 9 -26934702.994 9                 -20988085.104 9       881.000        2275.000        2496.000                  
G14  22732889.912    22732889.767    22732893.625                   -10821679.637 8 -10821679.636 7                  -8432490.678 8       265.000          87.000         187.000                  
G17  19169791.614    19169791.146    19169793.440                   -27191402.529 9 -27191402.532 9                 -21188107.608 9       744.000        1208.000        2617.000                  
G19  21311879.044    21311877.459    21311879.062                   -18840824.815 8 -18840824.814 8                 -14681164.729 8       453.000         194.000         240.000                  
G21  24140953.642    24140948.279    24140955.224                     -174653.119 7   -174653.111 6                   -136009.092 6        74.000          25.000          16.000                  
G22  22735610.363    22735608.927    22735613.164                    -9999122.069 8  -9999122.081 7                  -7791533.910 8       235.000          51.000         133.000                  
G30  23324959.331    23324958.352    23324965.773                    -2964487.089 8  -2964487.078 6                  -2310005.295 8       102.000          34.000         150.000                  
> 2024 10 31 00 38  0.0000000  0 11
G02  23081586.700    23081584.288    23081588.333                    -8363660.173 8  -8363660.162 6                  -6517152.134 7       207.000          39.000          87.000                  
G04  21597461.375    21597460.490    21597465.240                    -9533341.163 8  -9533341.157 7                  -7428583.280 8       243.000          87.000         141.000                  
G06  23640511.172    23640511.315    23640518.681                    -5950479.492 8  -5950479.500 8                  -4636732.790 8       185.000         107.000         251.000                  
G07  22382528.808    22382528.524    22382531.959                   -14304395.158 8 -14304395.160 8                 -11146295.840 9       306.000         219.000         604.000                  
G09  19541258.622    19541258.189    19541262.365                   -27053698.347 9 -27053698.349 9                 -21080808.762 9       880.000        2282.000        2478.000                  
G14  22796258.877    22796258.357    22796262.722                   -10488676.441 8 -10488676.443 7                  -8173008.120 8       258.000          89.000         181.000                  
G17  19159143.391    19159142.736    19159145.033                   -27247360.620 9 -27247360.622 9                 -21231711.354 9       763.000        1242.000        2662.000                  
G19  21269015.608    21269013.817    21269015.508                   -19066074.222 8 -19066074.223 8                 -14856683.675 8       456.000         201.000         259.000                  
G21  24163724.420    24163720.601    24163726.417                      -54985.343 7    -54985.332 6                    -42739.890 6        72.000          23.000          18.000                  
G22  22782701.957    22782700.303    22782704.187                    -9751657.663 8  -9751657.638 6                  -7598704.845 8       229.000          42.000         133.000                  
G30  23388487.983    23388486.192    23388493.446                    -2630650.413 8  -2630650.425 6                  -2049873.393 8       103.000          31.000         138.000                  
> 2024 10 31 00 38 10.0000000  0 11
G02  23088142.657    23088141.364    23088145.279                    -8329205.401 8  -8329205.404 6                  -6490304.444 7       209.000          37.000          94.000                  
G04  21550256.224    21550255.462    21550260.090                    -9781404.106 8  -9781404.099 7                  -7621878.926 8       252.000          94.000         146.000                  
G06  23576554.924    23576554.529    23576562.140                    -6286571.653 8  -6286571.658 8                  -4898622.286 8       190.000         117.000         270.000                  
G07  22427837.734    22427837.201    22427840.739                   -14066298.043 8 -14066298.041 8                 -10960765.957 9       311.000         215.000         567.000                  
G09  19519328.841    19519328.543    19519332.674                   -27168939.449 9 -27168939.452 9                 -21170607.015 9       879.000        2294.000        2503.000                  
G14  22860088.162    22860087.615    22860091.979                   -10153253.995 8 -10153253.994 7                  -7911640.431 8       258.000          89.000         169.000                  
G17  19149716.233    19149715.692    19149717.833                   -27296900.777 9 -27296900.779 9                 -21270314.103 9       784.000        1324.000        2651.000                  
G19  21226986.460    21226984.886    21226986.580                   -19286937.196 8 -19286937.200 8                 -15028784.603 8       455.000         192.000         287.000                  
G21  24186960.563    24186956.678    24186965.324                       67116.947 7     67116.951 6                     52426.568 6        68.000          23.000          17.000                  
G22  22830403.233    22830402.183    22830405.758                    -9500987.108 8  -9500987.105 6                  -7403377.483 8       220.000          43.000         136.000                  
G30  23452229.544    23452228.947    23452236.257                    -2295683.318 8  -2295683.316 6                  -1788860.643 8       105.000          27.000         129.000                  
> 2024 10 31 00 38 20.0000000  0 12
G02  23095376.067    23095374.629    23095378.972                    -8291192.865 8  -8291192.873 6                  -6460684.443 7       209.000          38.000          88.000                  
G03  24498378.745    24498379.007    24498396.926                     -361285.370 7   -361285.386 6                   -281522.729 6        91.000          29.000          43.000                  
G04  21503460.587    21503460.472    21503465.109                   -10027312.862 8 -10027312.862 8                  -7813495.977 8       263.000         104.000         142.000                  
G06  23512839.851    23512840.406    23512847.460                    -6621392.122 8  -6621392.124 8                  -5159520.862 8       197.000         125.000         280.000                  
G07  22473475.742    22473474.986    22473478.479                   -13826471.508 8 -13826471.508 8                 -10773888.469 9       311.000         219.000         542.000                  
G09  19498120.031    19498119.612    19498123.796                   -27280393.026 9 -27280393.028 9                 -21257453.938 9       877.000        2268.000        2579.000                  
G14  22924368.767    22924368.215    22924373.063                    -9815457.563 8  -9815457.545 7                  -7648422.876 8       244.000          76.000         163.000                  
G17  19141516.044    19141515.539    19141517.669                   -27339992.664 9 -27339992.666 9                 -21303892.208 9       789.000        1353.000        2652.000                  
G19  21185805.596    21185804.178    21185805.977                   -19503342.995 8 -19503342.996 8                 -15197412.391 8       457.000         203.000         322.000                  
G21  24210656.496    24210652.599    24210662.265                      191636.518 7    191636.529 6                    149454.628 6        63.000          23.000          19.000                  
G22  22878707.970    22878706.272    22878710.816                    -9247143.790 8  -9247143.767 6                  -7205577.825 8       213.000          38.000         119.000                  
G30  23516182.666    23516181.657    23516188.617                    -1959614.913 8  -1959614.934 6                  -1526989.743 8       106.000          30.000         130.000                  
> 2024 10 31 00 38 30.0000000  0 12
G02  23103283.597    23103281.856    23103285.508                    -8249643.715 8  -8249643.732 6                  -6428308.628 7       204.000          31.000          77.000                  
G03  24439173.575    24439173.927    24439183.298                     -672401.428 7   -672401.433 6                   -523948.592 7        93.000          33.000          92.000                  
G04  21457081.028    21457080.477    21457084.980                   -10271041.570 8 -10271041.564 8                  -8003414.280 8       274.000         109.000         138.000                  
G06  23449377.065    23449377.069    23449383.917                    -6954891.881 8  -6954891.889 8                  -5419390.307 8       211.000         130.000         298.000                  
G07  22519434.412    22519433.898    22519437.384                   -13584957.449 8 -13584957.448 8                 -10585696.023 9       314.000         230.000         513.000                  
G09  19477634.458    19477634.194    19477638.446                   -27388044.472 9 -27388044.474 9                 -21341338.153 9       868.000        2237.000        2677.000                  
G14  22989089.774    22989089.200    22989093.676                    -9475350.347 8  -9475350.339 7                  -7383404.721 8       232.000          76.000         149.000                  
G17  19134544.954    19134544.495    19134546.645                   -27376625.823 9 -27376625.826 9                 -21332437.532 9       799.000        1384.000        2690.000                  
G19  21145483.314    21145481.532    21145483.268                   -19715239.714 8 -19715239.715 8                 -15362526.607 8       456.000         200.000         340.000                  
G21  24234805.912    24234800.894    24234811.140                      318537.557 7    318537.574 6                    248340.108 6        61.000          19.000          21.000                  
G22  22927606.941    22927605.479    22927609.609                    -8990179.512 8  -8990179.527 6                  -7005346.249 8       206.000          34.000         112.000                  
G30  23580335.426    23580334.197    23580341.760                    -1622492.055 8  -1622492.043 6                  -1264297.183 8       108.000          36.000         129.000                  
> 2024 10 31 00 38 40.0000000  0 12
G02  23111861.018    23111860.174    23111863.673                    -8204565.072 8  -8204565.069 6                  -6393182.556 7       196.000          37.000          69.000                  
G03  24380185.160    24380184.678    24380193.255                     -982387.087 7   -982387.084 6                   -765494.923 7        92.000          31.000          93.000                  
G04  21411123.261    21411122.955    21411127.126                   -10512549.805 8 -10512549.800 8                  -8191602.330 8       281.000         128.000         150.000                  
G06  23386177.369    23386177.133    23386183.997                    -7287007.043 8  -7287007.049 8                  -5678180.842 8       213.000         142.000         314.000                  
G07  22565709.126    22565708.616    22565712.206                   -13341783.135 8 -13341783.136 8                 -10396209.874 8       316.000         225.000         491.000                  
G09  19457878.195    19457877.701    19457881.998                   -27491865.216 9 -27491865.219 9                 -21422237.398 9       859.000        2193.000        2773.000                  
G14  23054240.585    23054240.036    23054244.838                    -9132980.881 8  -9132980.879 7                  -7116623.767 8       223.000          64.000         128.000                  
G17  19128807.196    19128806.867    19128808.990                   -27406777.522 9 -27406777.524 9                 -21355932.351 9       805.000        1395.000        2779.000                  
G19  21106030.766    21106029.384    21106031.080                   -19922561.589 8 -19922561.591 8                 -15524075.999 8       457.000         204.000         368.000                  
G21  24259404.635    24259398.420    24259410.977                      447798.358 7    447798.360 6                    349068.023 6        56.000          21.000          19.000                  
G22  22977092.905    22977091.071    22977095.366                    -8730131.813 8  -8730131.804 6                  -6802711.996 8       202.000          42.000         108.000                  
G30  23644681.970    23644681.649    23644689.285                    -1284346.790 8  -1284346.799 6                  -1000807.958 8       110.000          29.000         118.000                  
> 2024 10 31 00 38 50.0000000  0 12
G02  23121104.567    23121103.615    23121107.020                    -8155991.393 8  -8155991.390 6                  -6355333.062 7       192.000          32.000          63.000                  
G03  24321415.037    24321414.121    24321422.468                    -1291225.457 7  -1291225.480 6                  -1006147.272 7        97.000          28.000          89.000                  
G04  21365591.065    21365590.614    21365594.459                   -10751823.719 8 -10751823.720 8                  -8378049.341 8       292.000         127.000         156.000                  
G06  23323248.166    23323248.068    23323254.669                    -7617699.925 8  -7617699.927 8                  -5935863.104 8       215.000         151.000         323.000                  
G07  22612289.703    22612289.149    22612292.774                   -13097002.154 8 -13097002.154 8                 -10205471.766 8       316.000         229.000         463.000                  
G09  19438850.648    19438850.405    19438854.732                   -27591853.847 9 -27591853.849 9                 -21500150.571 9       853.000        2147.000        2808.000                  
G14  23119807.989    23119807.335    23119812.072                    -8788424.038 8  -8788424.034 7                  -6848138.370 8       216.000          62.000         124.000                  
G17  19124301.788    19124301.437    19124303.666                   -27430453.380 9 -27430453.382 9                 -21374381.055 9       785.000        1334.000        2889.000                  
G19  21067456.625    21067454.987    21067456.976                   -20125270.086 8 -20125270.085 8                 -15682030.545 8       461.000         193.000         375.000                  
G21  24284441.798    24284435.914    24284449.240                      579371.714 7    579371.697 6                    451593.061 6        53.000          23.000          17.000                  
G22  23027152.865    23027151.337    23027155.476                    -8467064.965 8  -8467064.972 6                  -6597725.142 7       194.000          40.000          99.000                  
G30  23709215.451    23709213.047    23709220.129                     -945237.328 8   -945237.327 6                   -736567.427 8       105.000          34.000         116.000                  
> 2024 10 31 00 39  0.0000000  0 12
G02  23131014.058    23131012.740    23131016.795                    -8103915.346 8  -8103915.348 6                  -6314754.413 7       190.000          37.000          67.000                  
G03  24262873.425    24262872.853    24262881.298                    -1598857.026 7  -1598857.035 6                  -1245859.258 7        94.000          35.000          90.000                  
G04  21320494.026    21320494.016    21320497.944                   -10988806.952 8 -10988806.947 8                  -8562711.398 8       300.000         128.000         158.000                  
G06  23260605.405    23260604.714    23260611.578                    -7946889.887 8  -7946889.889 8                  -6192374.266 8       226.000         155.000         343.000                  
G07  22659174.286    22659173.379    22659177.019                   -12850625.481 8 -12850625.484 8                 -10013490.260 8       318.000         225.000         442.000                  
G09  19420561.100    19420560.637    19420564.909                   -27687967.008 9 -27687967.010 9                 -21575043.889 9       854.000        2148.000        2834.000                  
G14  23185784.630    23185784.724    23185789.541                    -8441711.990 8  -8441711.991 7                  -6577973.588 8       207.000          66.000         115.000                  
G17  19121035.304    19121034.902    19121037.226                   -27447618.571 9 -27447618.575 9                 -21387756.503 9       765.000        1252.000        2945.000                  
G19  21029775.440    21029773.921    21029775.702                   -20323284.825 8 -20323284.827 8                 -15836327.612 8       473.000         214.000         388.000                  
G21  24309917.353    24309912.453    24309926.496                      713252.227 7    713252.223 6                    555915.170 6        51.000          23.000          21.000                  
G22  23077782.915    23077781.511    23077786.549                    -8201000.838 8  -8201000.839 6                  -6390402.742 7       188.000          34.000          89.000                  
G30  23773925.676    23773924.343    23773931.371                     -605179.092 8   -605179.089 6                   -471587.586 8       106.000          40.000         108.000                  
> 2024 10 31 00 39 10.0000000  0 11
G02  23141581.847    23141580.056    23141584.278                    -8048383.031 8  -8048383.048 6                  -6271482.567 7       190.000          34.000          71.000                  
G03  24204562.312    24204562.532    24204570.762                    -1905274.977 7  -1905274.999 6                  -1484625.579 7        92.000          28.000          86.000                  
G04  21275833.724    21275833.744    21275837.960                   -11223495.987 8 -11223495.986 8                  -8745585.758 8       310.000         147.000         169.000                  
G06  23198252.950    23198252.780    23198259.745                    -8274548.803 8  -8274548.803 8                  -6447692.398 8       228.000         167.000         363.000                  
G07  22706349.952    22706349.135    22706352.855                   -12602716.851 8 -12602716.854 8                  -9820315.017 8       314.000         230.000         421.000                  
G09  19403006.845    19403006.382    19403010.659                   -27780214.832 9 -27780214.834 9                 -21646925.244 9       858.000        2167.000        2855.000                  
G14  23252156.667    23252156.313    23252161.405                    -8092929.541 8  -8092929.540 7                  -6306195.509 7       202.000          56.000         100.000                  
G17  19119004.148    19119003.606    19119005.901                   -27458293.139 9 -27458293.142 9                 -21396074.315 9       754.000        1235.000        2978.000                  
G19  20992992.771    20992991.137    20992992.885                   -20516579.198 8 -20516579.197 8                 -15986946.449 8       493.000         234.000         397.000                  
G22  23128969.721    23128968.332    23128973.025                    -7932014.583 8  -7932014.587 6                  -6180803.343 7       178.000          35.000          87.000                  
G30  23838804.903    23838803.204    23838810.812                     -264239.956 8   -264239.973 6                   -205921.359 8       101.000          30.000         110.000                  
> 2024 10 31 00 39 20.0000000  0 11
G02  23152809.287    23152807.847    23152811.491                    -7989382.635 8  -7989382.618 6                  -6225508.287 7       191.000          32.000          60.000                  
G03  24146497.443    24146496.148    24146503.682                    -2210413.767 7  -2210413.758 6                  -1722395.152 7        98.000          32.000          90.000                  
G04  21231622.427    21231621.906    21231626.250                   -11455828.791 8 -11455828.789 8                  -8926624.074 8       320.000         146.000         178.000                  
G06  23136209.517    23136209.296    23136215.458                    -8600589.639 8  -8600589.642 8                  -6701749.699 8       234.000         164.000         390.000                  
G07  22753816.097    22753815.519    22753819.130                   -12353281.165 8 -12353281.167 8                  -9625949.849 8       317.000         224.000         408.000                  
G09  19386197.182    19386196.797    19386201.034                   -27868549.435 9 -27868549.437 9                 -21715757.325 9       856.000        2160.000        2887.000                  
G14  23318917.005    23318917.014    23318921.999                    -7742102.694 8  -7742102.696 7                  -6032824.397 7       192.000          53.000          98.000                  
G17  19118214.882    19118214.389    19118216.657                   -27462440.433 9 -27462440.435 9                 -21399305.933 9       760.000        1255.000        2989.000                  
G19  20957124.311    20957122.766    20957124.296                   -20705068.760 9 -20705068.760 8                 -16133821.270 8       533.000         279.000         392.000                  
G22  23180709.886    23180707.750    23180712.423                    -7660122.921 8  -7660122.894 6                  -5968939.982 7       177.000          29.000          81.000                  
G30  23903850.058    23903848.801    23903856.045                       77571.068 7     77571.051 6                     60424.265 7        96.000          27.000         100.000                  
> 2024 10 31 00 39 30.0000000  0 11
G02  23164688.401    23164686.641    23164691.312                    -7926958.887 8  -7926958.894 6                  -6176866.425 7       187.000          38.000          59.000                  
G03  24088674.734    24088674.438    24088682.392                    -2514263.704 8  -2514263.718 6                  -1959160.430 7       102.000          31.000          97.000                  
G04  21187860.396    21187860.340    21187864.347                   -11685799.287 8 -11685799.283 8                  -9105821.624 8       330.000         158.000         182.000                  
G06  23074479.777    23074479.185    23074485.344                    -8924980.902 8  -8924980.908 8                  -6954521.611 8       233.000         173.000         400.000                  
G07  22801561.564    22801560.822    22801564.543                   -12102379.023 8 -12102379.025 8                  -9430441.975 8       314.000         218.000         392.000                  
G09  19370130.669    19370130.269    19370134.451                   -27952979.584 9 -27952979.586 9                 -21781546.965 9       864.000        2193.000        2948.000                  
G14  23386051.521    23386050.196    23386055.388                    -7389313.186 8  -7389313.188 7                  -5757923.929 7       188.000          53.000          92.000                  
G17  19118663.768    19118663.136    19118665.387                   -27460081.943 9 -27460081.945 9                 -21397468.102 9       765.000        1249.000        2954.000                  
G19  20922175.468    20922173.929    20922175.248                   -20888725.859 9 -20888725.861 8                 -16276930.525 8       567.000         308.000         394.000                  
G22  23232987.633    23232986.229    23232991.002                    -7385398.707 8  -7385398.714 6                  -5754869.417 7       175.000          26.000          75.000                  
G30  23969048.343    23969047.001    23969054.462                      420189.405 7    420189.407 6                    327398.945 7        88.000          29.000          93.000                  
> 2024 10 31 00 39 40.0000000  0 11
G02  23177216.901    23177215.218    23177218.842                    -7861121.339 8  -7861121.332 6                  -6125564.428 7       185.000          35.000          59.000                  
G03  24031107.800    24031107.325    24031114.927                    -2816778.865 8  -2816778.869 6                  -2194885.629 8       109.000          33.000         107.000                  
G04  21144556.061    21144555.624    21144559.623                   -11913365.451 8 -11913365.447 8                  -9283145.641 8       341.000         171.000         193.000                  
G06  23013076.556    23013076.219    23013082.156                    -9247654.790 8  -9247654.794 8                  -7205955.296 8       244.000         182.000         427.000                  
G07  22849580.795    22849580.511    22849584.318                   -11850034.938 8 -11850034.939 8                  -9233810.490 8       305.000         216.000         392.000                  
G09  19354812.145    19354811.722    19354815.921                   -28033478.634 9 -28033478.636 9                 -21844273.395 9       858.000        2162.000        3038.000                  
G14  23453549.750    23453549.552    23453554.360                    -7034606.466 8  -7034606.450 6                  -5481529.527 7       184.000          45.000          73.000                  
G17  19120352.797    19120352.258    19120354.526                   -27451205.220 9 -27451205.222 9                 -21390551.114 9       778.000        1299.000        2899.000                  
G19  20888158.217    20888156.545    20888157.935                   -21067487.677 9 -21067487.680 8                 -16416225.250 8       583.000         316.000         389.000                  
G22  23285798.170    23285796.603    23285801.242                    -7107878.944 8  -7107878.963 6                  -5538620.490 7       170.000          24.000          73.000                  
G30  24034395.655    24034393.515    24034401.766                      763586.795 7    763586.815 6                    594980.667 7        81.000          25.000          87.000                  
> 2024 10 31 00 39 50.0000000  0 11
G02  23190388.898    23190388.178    23190391.959                    -7791897.815 8  -7791897.787 6                  -6071623.952 7       188.000          34.000          56.000                  
G03  23973799.056    23973799.640    23973806.640                    -3117931.056 8  -3117931.049 6                  -2429548.768 8       113.000          41.000         108.000                  
G04  21101713.624    21101713.022    21101716.932                   -12138503.033 8 -12138503.032 8                  -9458577.244 8       358.000         185.000         190.000                  
G06  22952009.133    22952009.337    22952015.278                    -9568560.908 8  -9568560.906 8                  -7456011.487 8       248.000         184.000         454.000                  
G07  22897866.926    22897866.533    22897870.507                   -11596290.945 8 -11596290.945 8                  -9036088.138 8       294.000         206.000         390.000                  
G09  19340243.135    19340242.854    19340246.999                   -28110038.323 9 -28110038.325 9                 -21903930.178 9       856.000        2153.000        3086.000                  
G14  23521401.317    23521401.078    23521406.612                    -6678045.483 8  -6678045.455 7                  -5203690.231 7       181.000          51.000          69.000                  
G17  19123280.890    19123280.462    19123282.566                   -27435817.504 9 -27435817.507 9                 -21378560.604 9       794.000        1369.000        2813.000                  
G19  20855080.896    20855079.292    20855080.283                   -21241310.092 9 -21241310.092 8                 -16551671.077 8       578.000         323.000         364.000                  
G22  23339130.100    23339128.782    23339133.308                    -6827618.505 8  -6827618.503 6                  -5320235.941 7       161.000          29.000          71.000                  
G30  24099880.813    24099879.478    24099887.970                     1107717.670 7   1107717.679 6                    863133.921 7        75.000          24.000          86.000                  
> 2024 10 31 00 40  0.0000000  0 11
G02  23204206.382    23204204.991    23204208.866                    -7719290.529 8  -7719290.546 6                  -6015046.755 7       183.000          43.000          56.000                  
G03  23916761.105    23916760.971    23916768.088                    -3417665.539 8  -3417665.542 6                  -2663107.181 8       118.000          40.000         117.000                  
G04  21059342.826    21059342.194    21059346.165                   -12361161.530 8 -12361161.524 8                  -9632077.073 8       364.000         196.000         201.000                  
G06  22891293.241    22891293.520    22891299.396                    -9887622.209 8  -9887622.215 8                  -7704630.155 8       248.000         191.000         483.000                  
G07  22946416.238    22946415.867    22946420.099                   -11341162.440 8 -11341162.438 8                  -8837286.916 8       286.000         177.000         401.000                  
G09  19326430.352    19326429.962    19326434.151                   -28182624.734 9 -28182624.735 9                 -21960490.882 9       854.000        2147.000        3095.000                  
G14  23589599.734    23589599.241    23589604.386                    -6319666.581 8  -6319666.572 6                  -4924434.363 7       175.000          41.000          54.000                  
G17  19127451.055    19127450.820    19127452.918                   -27413901.714 9 -27413901.716 9                 -21361483.271 9       804.000        1393.000        2729.000                  
G19  20822956.350    20822954.915    20822955.810                   -21410123.585 9 -21410123.587 8                 -16683213.840 8       583.000         331.000         371.000                  
G22  23392978.605    23392976.674    23392981.997                    -6544646.074 8  -6544646.082 6                  -5099738.126 7       156.000          25.000          69.000                  
G30  24165503.708    24165501.764    24165510.578                     1452563.028 7   1452563.030 6                   1131843.919 7        74.000          27.000          75.000                  
> 2024 10 31 00 40 10.0000000  0 11
G02  23218656.311    23218654.951    23218659.102                    -7643353.117 8  -7643353.140 6                  -5955874.606 7       180.000          31.000          62.000                  
G03  23859992.172    23859993.351    23860000.046                    -3715978.398 8  -3715978.398 6                  -2895557.829 8       124.000          40.000         120.000                  
G04  21017443.852    21017443.257    21017447.030                   -12581341.425 8 -12581341.424 8                  -9803645.501 8       381.000         211.000         200.000                  
G06  22830933.774    22830933.895    22830939.564                   -10204812.265 8 -10204812.268 8                  -7951790.691 8       253.000         201.000         494.000                  
G07  22995217.078    22995216.245    22995220.430                   -11084715.642 8 -11084715.644 8                  -8637458.412 8       270.000         172.000         385.000                  
G09  19313370.227    19313369.823    19313373.990                   -28251255.533 9 -28251255.535 9                 -22013969.269 9       855.000        2150.000        3087.000                  
G14  23658127.010    23658126.021    23658130.765                    -5959556.723 8  -5959556.720 6                  -4643829.668 7       163.000          38.000          60.000                  
G17  19132856.985    19132856.555    19132858.664                   -27385493.727 9 -27385493.730 9                 -21339347.058 9       793.000        1352.000        2675.000                  
G19  20791788.386    20791787.039    20791788.183                   -21573910.549 9 -21573910.549 8                 -16810839.808 8       570.000         316.000         384.000                  
G22  23447327.503    23447324.927    23447330.331                    -6259041.327 8  -6259041.305 6                  -4877189.118 7       156.000          28.000          69.000                  
G30  24231246.862    24231246.797    24231256.213                     1798053.405 7   1798053.411 6                   1401056.532 7        71.000          25.000          77.000                  
> 2024 10 31 00 40 20.0000000  0 11
G02  23233742.415    23233740.109    23233744.259                    -7564076.672 8  -7564076.678 6                  -5894100.516 7       172.000          31.000          60.000                  
G03  23803508.616    23803508.854    23803515.427                    -4012802.464 8  -4012802.458 6                  -3126848.355 8       128.000          42.000         130.000                  
G04  20976027.842    20976027.859    20976031.363                   -12798980.111 8 -12798980.111 8                  -9973233.742 8       402.000         239.000         201.000                  
G06  22770947.286    22770947.411    22770952.963                   -10520041.190 8 -10520041.191 8                  -8197423.061 8       253.000         201.000         493.000                  
G07  23044267.185    23044266.751    23044271.092                   -10826953.373 8 -10826953.375 8                  -8436604.823 8       268.000         168.000         372.000                  
G09  19301071.353    19301070.968    19301075.074                   -28315885.874 9 -28315885.876 9                 -22064330.398 9       854.000        2139.000        3094.000                  
G14  23726978.600    23726977.842    23726983.194                    -5597739.417 8  -5597739.412 6                  -4361894.473 7       147.000          33.000          53.000                  
G17  19139503.085    19139502.551    19139504.631                   -27350568.354 9 -27350568.356 9                 -21312132.344 9       774.000        1305.000        2668.000                  
G19  20761592.376    20761590.808    20761592.069                   -21732591.253 9 -21732591.256 8                 -16934486.853 8       560.000         305.000         416.000                  
G22  23502173.358    23502171.811    23502177.063                    -5970820.968 8  -5970820.986 6                  -4652601.930 7       149.000          32.000          62.000                  
G30  24297113.137    24297113.655    24297122.914                     2144182.791 7   2144182.798 6                   1670767.108 7        69.000          25.000          68.000                  
> 2024 10 31 00 40 30.0000000  0 11
G02  23249453.616    23249451.942    23249456.127                    -7481510.328 8  -7481510.320 6                  -5829762.840 7       171.000          31.000          53.000                  
G03  23747309.554    23747309.096    23747316.110                    -4308127.936 8  -4308127.941 6                  -3356971.148 8       134.000          43.000         136.000                  
G04  20935096.984    20935096.888    20935100.176                   -13014072.542 8 -13014072.543 8                 -10140837.874 8       421.000         254.000         205.000                  
G06  22711340.379    22711340.281    22711345.618                   -10833276.288 8 -10833276.293 8                  -8441501.794 8       252.000         192.000         498.000                  
G07  23093556.844    23093556.450    23093560.651                   -10567935.574 8 -10567935.574 8                  -8234772.838 8       260.000         155.000         368.000                  
G09  19289531.187    19289530.788    19289534.868                   -28376529.091 9 -28376529.093 9                 -22111584.659 9       856.000        2180.000        3070.000                  
G14  23796140.069    23796138.730    23796144.857                    -5234295.327 8  -5234295.314 6                  -4078691.612 7       133.000          29.000          53.000                  
G17  19147382.608    19147382.223    19147384.285                   -27309159.755 9 -27309159.758 9                 -21279865.748 9       759.000        1245.000        2651.000                  
G19  20732371.849    20732370.306    20732371.599                   -21886144.453 9 -21886144.457 8                 -17054138.427 8       539.000         278.000         457.000                  
G22  23557503.979    23557501.865    23557507.510                    -5680059.107 8  -5680059.122 6                  -4426034.291 7       145.000          27.000          63.000                  
G30  24363092.538    24363089.618    24363099.876                     2490888.154 7   2490888.135 6                   1940926.517 7        69.000          27.000          58.000                  
> 2024 10 31 00 40 40.0000000  0 11
G02  23265789.992    23265786.930    23265790.318                    -7395666.823 8  -7395666.840 6                  -5762871.468 7       174.000          30.000          59.000                  
G03  23691404.148    23691404.340    23691410.378                    -4601907.848 8  -4601907.841 7                  -3585889.611 8       139.000          52.000         151.000                  
G04  20894658.721    20894658.339    20894661.712                   -13226576.673 8 -13226576.670 8                 -10306425.136 8       428.000         268.000         210.000                  
G06  22652126.078    22652125.706    22652131.189                   -11144447.490 8 -11144447.492 8                  -8683972.295 9       249.000         199.000         501.000                  
G07  23143081.097    23143080.315    23143084.775                   -10307685.018 8 -10307685.017 8                  -8031980.195 8       255.000         146.000         350.000                  
G09  19278754.201    19278753.756    19278757.725                   -28433162.065 9 -28433162.067 9                 -22155714.036 9       872.000        2237.000        3079.000                  
G14  23865601.799    23865601.083    23865607.332                    -4869267.762 8  -4869267.802 6                  -3794254.828 6       124.000          27.000          47.000                  
G17  19156496.222    19156495.683    19156497.753                   -27261267.150 9 -27261267.153 9                 -21242546.652 9       754.000        1210.000        2669.000                  
G19  20704137.775    20704136.498    20704137.855                   -22034512.919 9 -22034512.921 8                 -17169749.928 8       531.000         275.000         492.000                  
G22  23613311.105    23613309.278    23613314.159                    -5386792.798 8  -5386792.772 6                  -4197515.081 7       141.000          26.000          56.000                  
G30  24429173.994    24429170.145    24429180.979                     2838143.831 7   2838143.859 6                   2211514.751 7        65.000          25.000          57.000                  
> 2024 10 31 00 40 50.0000000  0 11
G02  23282743.538    23282741.897    23282745.940                    -7306567.553 8  -7306567.553 6                  -5693443.074 7       170.000          28.000          63.000                  
G03  23635800.511    23635800.584    23635806.641                    -4894103.283 8  -4894103.284 7                  -3813573.431 8       141.000          59.000         164.000                  
G04  20854719.384    20854718.825    20854721.908                   -13436458.755 8 -13436458.753 8                 -10469969.224 8       441.000         282.000         215.000                  
G06  22593316.329    22593315.923    22593321.269                   -11453492.674 8 -11453492.679 8                  -8924786.154 9       250.000         190.000         518.000                  
G07  23192834.133    23192833.125    23192837.401                   -10046232.351 8 -10046232.352 8                  -7828250.769 8       252.000         145.000         342.000                  
G09  19268743.006    19268742.532    19268746.441                   -28485770.601 9 -28485770.604 9                 -22196707.474 9       887.000        2314.000        3083.000                  
G14  23935355.964    23935355.023    23935361.306                    -4502707.861 8  -4502707.837 6                  -3508623.975 6       119.000          27.000          41.000                  
G17  19166841.854    19166841.314    19166843.275                   -27206899.782 9 -27206899.785 9                 -21200182.271 9       746.000        1204.000        2671.000                  
G19  20676899.948    20676898.457    20676899.733                   -22177648.713 9 -22177648.715 8                 -17281284.010 9       545.000         287.000         508.000                  
G22  23669584.696    23669583.673    23669588.779                    -5091067.453 8  -5091067.470 6                  -3967079.704 7       140.000          28.000          55.000                  
G30  24495352.385    24495350.087    24495360.578                     3185916.352 7   3185916.370 6                   2482505.794 6        64.000          27.000          48.000                  
> 2024 10 31 00 41  0.0000000  0 11
G02  23300308.773    23300307.464    23300310.488                    -7214261.238 8  -7214261.236 6                  -5621515.628 7       168.000          29.000          60.000                  
G03  23580501.890    23580500.858    23580506.630                    -5184701.983 8  -5184701.992 7                  -4040013.068 8       143.000          55.000         181.000                  
G04  20815279.933    20815279.521    20815282.550                   -13643711.892 8 -13643711.891 8                 -10631464.776 8       449.000         286.000         216.000                  
G06  22534917.848    22534917.649    22534922.845                   -11760376.190 8 -11760376.193 8                  -9163915.596 9       248.000         194.000         550.000                  
G07  23242804.338    23242803.731    23242807.826                    -9783634.724 8  -9783634.722 8                  -7623629.100 8       244.000         142.000         327.000                  
G09  19259495.061    19259494.566    19259498.412                   -28534367.898 9 -28534367.900 9                 -22234575.259 9       905.000        2403.000        3058.000                  
G14  24005387.449    24005386.252    24005392.706                    -4134693.162 8  -4134693.177 6                  -3221859.465 6       109.000          24.000          40.000                  
G17  19178412.231    19178411.849    19178413.714                   -27146095.762 9 -27146095.764 9                 -21152802.303 9       770.000        1274.000        2699.000                  
G19  20650661.549    20650659.967    20650661.159                   -22315531.718 9 -22315531.721 8                 -17388725.000 9       558.000         302.000         533.000                  
G22  23726313.725    23726312.003    23726317.419                    -4792955.136 8  -4792955.108 6                  -3734784.292 6       135.000          26.000          48.000                  
G30  24561618.375    24561616.193    24561626.992                     3534145.901 7   3534145.911 6                   2753852.995 6        60.000          23.000          33.000                  
> 2024 10 31 00 41 10.0000000  0 11
G02  23318485.433    23318484.463    23318487.415                    -7118737.906 8  -7118737.887 6                  -5547081.369 7       164.000          31.000          68.000                  
G03  23525518.782    23525518.684    23525524.064                    -5473632.369 8  -5473632.355 7                  -4265152.746 8       146.000          57.000         203.000                  
G04  20776353.736    20776353.268    20776356.179                   -13848270.051 8 -13848270.049 8                 -10790860.349 8       450.000         298.000         225.000                  
G06  22476948.746    22476948.565    22476953.844                   -12065002.927 8 -12065002.931 8                  -9401286.527 9       247.000         192.000         587.000                  
G07  23292993.072    23292992.506    23292996.744                    -9519889.837 8  -9519889.835 8                  -7418113.404 8       239.000         134.000         307.000                  
G09  19251018.920    19251018.563    19251022.312                   -28578908.647 9 -28578908.649 9                 -22269282.091 9       914.000        2479.000        3060.000                  
G14  24075691.822    24075690.634    24075696.949                    -3765241.621 8  -3765241.601 6                  -2933975.289 6       102.000          27.000          40.000                  
G17  19191211.259    19191210.890    19191212.659                   -27078835.783 9 -27078835.786 9                 -21100391.715 9       777.000        1316.000        2734.000                  
G19  20625437.462    20625436.045    20625436.901                   -22448083.846 9 -22448083.848 8                 -17492012.060 9       568.000         311.000         529.000                  
G22  23783494.132    23783492.459    23783497.531                    -4492468.779 8  -4492468.775 6                  -3500638.881 6       131.000          29.000          50.000                  
G30  24627971.244    24627969.075    24627979.549                     3882832.267 7   3882832.259 6                   3025556.245 6        55.000          20.000          37.000                  
> 2024 10 31 00 41 20.0000000  0 11
G02  23337264.425    23337263.220    23337266.659                    -7020051.524 8  -7020051.531 6                  -5470182.360 7       163.000          30.000          77.000                  
G03  23470855.085    23470855.392    23470861.114                    -5760886.269 8  -5760886.257 7                  -4488986.117 8       145.000          54.000         214.000                  
G04  20737940.601    20737939.946    20737943.008                   -14050130.863 8 -14050130.864 8                 -10948154.101 8       454.000         300.000         236.000                  
G06  22419415.109    22419415.077    22419420.085                   -12367341.038 8 -12367341.039 8                  -9636874.130 9       246.000         193.000         611.000                  
G07  23343387.783    23343388.074    23343392.072                    -9255058.703 8  -9255058.707 8                  -7211751.232 8       236.000         132.000         287.000                  
G09  19243311.206    19243310.904    19243314.609                   -28619411.734 9 -28619411.736 9                 -22300842.692 9       928.000        2545.000        3042.000                  
G14  24146253.812    24146252.645    24146259.889                    -3394434.354 7  -3394434.328 6                  -2645034.579 6        94.000          22.000          37.000                  
G17  19205229.952    19205229.569    19205231.338                   -27005166.071 9 -27005166.072 9                 -21042986.521 9       779.000        1319.000        2709.000                  
G19  20601230.462    20601228.751    20601229.803                   -22575291.749 9 -22575291.751 8                 -17591134.789 9       574.000         319.000         542.000                  
G22  23841111.772    23841110.461    23841114.911                    -4189684.832 8  -4189684.828 6                  -3264703.085 6       132.000          28.000          39.000                  
G30  24694401.787    24694397.734    24694407.872                     4231912.104 6   4231912.105 6                   3297566.114 6        49.000          26.000          23.000                  
> 2024 10 31 00 41 30.0000000  0 10
G02  23356643.038    23356641.231    23356644.288                    -6918219.383 8  -6918219.390 6                  -5390832.069 7       155.000          28.000          66.000                  
G03  23416520.233    23416520.235    23416525.166                    -6046418.012 8  -6046418.026 7                  -4711477.606 8       146.000          58.000         238.000                  
G04  20700048.087    20700047.885    20700050.330                   -14249254.635 8 -14249254.633 8                 -11103315.106 8       462.000         311.000         241.000                  
G06  22362330.191    22362330.277    22362335.235                   -12667321.057 8 -12667321.062 8                  -9870624.298 9       251.000         192.000         605.000                  
G07  23393985.633    23393985.811    23393989.776                    -8989164.533 8  -8989164.533 8                  -7004560.681 8       232.000         120.000         273.000                  
G09  19236375.409    19236375.010    19236378.618                   -28655859.308 9 -28655859.311 9                 -22329243.157 9       939.000        2598.000        3072.000                  
G14  24217066.604    24217064.731    24217071.487                    -3022314.720 7  -3022314.714 6                  -2355071.209 6        83.000          25.000          30.000                  
G17  19220466.446    19220466.040    19220467.672                   -26925097.257 9 -26925097.260 9                 -20980595.021 9       779.000        1307.000        2659.000                  
G19  20578049.752    20578048.301    20578049.060                   -22697105.724 9 -22697105.725 8                 -17686054.458 9       578.000         316.000         555.000                  
G22  23899159.159    23899157.816    23899163.119                    -3884642.277 8  -3884642.272 6                  -3027007.328 6       124.000          21.000          47.000                  
> 2024 10 31 00 41 40.0000000  0 10
G02  23376611.418    23376610.643    23376614.424                    -6813274.539 8  -6813274.525 6                  -5309056.306 7       156.000          31.000          79.000                  
G03  23362518.464    23362518.254    23362523.211                    -6330197.388 8  -6330197.382 7                  -4932603.658 8       145.000          55.000         253.000                  
G04  20662681.025    20662680.849    20662683.673                   -14445617.355 8 -14445617.353 8                 -11256324.661 8       464.000         319.000         261.000                  
G06  22305705.119    22305704.765    22305709.523                   -12964888.818 8 -12964888.819 8                 -10102494.810 9       255.000         203.000         609.000                  
G07  23444778.854    23444778.344    23444782.395                    -8722245.836 8  -8722245.834 8                  -6796571.764 8       230.000         114.000         253.000                  
G09  19230211.557    19230211.160    19230214.730                   -28688249.765 9 -28688249.767 9                 -22354482.241 9       940.000        2616.000        3096.000                  
G14  24288117.351    24288115.989    24288122.135                    -2648941.230 7  -2648941.222 6                  -2064130.743 6        76.000          26.000          31.000                  
G17  19236915.271    19236914.695    19236916.356                   -26838657.492 9 -26838657.494 9                 -20913239.150 9       768.000        1269.000        2568.000                  
G19  20555901.757    20555900.295    20555900.808                   -22813492.962 9 -22813492.965 8                 -17776745.519 9       578.000         334.000         524.000                  
G22  23957626.063    23957624.225    23957629.554                    -3577395.579 8  -3577395.586 6                  -2787593.981 6       126.000          25.000          40.000                  
> 2024 10 31 00 41 50.0000000  0 10
G02  23397170.459    23397169.392    23397172.281                    -6705237.061 8  -6705237.052 6                  -5224870.686 7       155.000          27.000          70.000                  
G03  23308857.279    23308857.498    23308862.883                    -6612180.573 8  -6612180.580 7                  -5152330.149 8       147.000          55.000         277.000                  
G04  20625847.138    20625846.712    20625849.280                   -14639181.648 8 -14639181.649 8                 -11407153.647 8       469.000         323.000         263.000                  
G06  22249551.267    22249551.155    22249555.721                   -13259976.476 8 -13259976.480 8                 -10332432.809 9       259.000         201.000         624.000                  
G07  23495762.722    23495761.516    23495765.315                    -8454327.393 8  -8454327.388 8                  -6587803.800 8       224.000         117.000         230.000                  
G09  19224822.489    19224822.052    19224825.617                   -28716568.680 9 -28716568.682 9                 -22376548.708 9       946.000        2640.000        3089.000                  
G14  24359396.773    24359396.569    24359404.053                    -2274358.482 7  -2274358.506 6                  -1772248.019 6        71.000          20.000          27.000                  
G17  19254573.225    19254572.774    19254574.307                   -26745863.205 9 -26745863.207 9                 -20840931.712 9       747.000        1216.000        2487.000                  
G19  20534795.125    20534793.467    20534794.058                   -22924408.438 9 -22924408.439 8                 -17863172.892 8       565.000         306.000         500.000                  
G22  24016503.808    24016503.071    24016507.698                    -3267985.520 8  -3267985.526 6                  -2546494.916 6       119.000          21.000          32.000                  
> 2024 10 31 00 42  0.0000000  0 10
G02  23418309.516    23418307.727    23418310.631                    -6594152.150 8  -6594152.155 6                  -5138310.497 7       157.000          29.000          62.000                  
G03  23255543.044    23255542.586    23255548.069                    -6892348.155 8  -6892348.151 7                  -5370641.948 8       148.000          55.000         294.000                  
G04  20589547.586    20589547.134    20589549.787                   -14829934.745 8 -14829934.746 8                 -11555792.112 8       476.000         330.000         280.000                  
G06  22193877.798    22193877.740    22193882.255                   -13552540.469 8 -13552540.475 8                 -10560404.354 9       265.000         218.000         642.000                  
G07  23546925.513    23546925.416    23546929.246                    -8185458.121 8  -8185458.118 8                  -6378294.928 8       220.000         113.000         208.000                  
G09  19220206.161    19220205.785    19220209.238                   -28740826.802 9 -28740826.804 9                 -22395450.932 9       951.000        2644.000        3034.000                  
G14  24430895.840    24430894.067    24430900.326                    -1898635.178 7  -1898635.180 6                  -1479476.503 6        68.000          22.000          30.000                  
G17  19273432.294    19273431.857    19273433.357                   -26646757.206 9 -26646757.208 9                 -20763706.072 9       722.000        1128.000        2407.000                  
G19  20514733.005    20514731.663    20514732.315                   -23029832.862 9 -23029832.864 8                 -17945321.542 8       537.000         278.000         485.000                  
G22  24075782.119    24075781.443    24075785.201                    -2956477.408 8  -2956477.400 6                  -2303760.984 6       119.000          18.000          37.000                  
> 2024 10 31 00 42 10.0000000  0 10
G02  23440023.462    23440022.488    23440024.980                    -6480038.744 8  -6480038.766 6                  -5049390.467 7       157.000          25.000          60.000                  
G03  23202582.821    23202582.657    23202587.618                    -7170654.145 8  -7170654.137 7                  -5587503.204 8       151.000          60.000         299.000                  
G04  20553790.787    20553790.412    20553792.792                   -15017837.554 8 -15017837.555 8                 -11702209.594 8       483.000         337.000         292.000                  
G06  22138698.082    22138697.947    22138702.396                   -13842510.595 8 -13842510.600 8                 -10786354.738 9       265.000         230.000         642.000                  
G07  23598266.496    23598265.827    23598269.383                    -7915660.082 8  -7915660.083 8                  -6168062.342 8       217.000         112.000         183.000                  
G09  19216365.410    19216365.057    19216368.444                   -28761009.120 9 -28761009.122 9                 -22411177.218 9       941.000        2621.000        2987.000                  
G14  24502601.538    24502600.209    24502606.632                    -1521813.111 7  -1521813.119 6                  -1185848.068 6        60.000          23.000          24.000                  
G17  19293489.154    19293488.632    19293490.073                   -26541357.568 9 -26541357.570 9                 -20681576.307 9       719.000        1103.000        2308.000                  
G19  20495724.831    20495723.271    20495723.723                   -23129721.718 9 -23129721.720 8                 -18023156.781 8       540.000         283.000         487.000                  
G22  24135452.188    24135451.118    24135454.659                    -2642909.959 8  -2642909.944 6                  -2059422.377 6       114.000          22.000          27.000                  
> 2024 10 31 00 42 20.0000000  0 10
G02  23462309.799    23462307.951    23462310.627                    -6362922.902 8  -6362922.893 6                  -4958130.900 7       158.000          25.000          66.000                  
G03  23149984.779    23149984.074    23149988.974                    -7447059.270 8  -7447059.262 7                  -5802883.320 8       152.000          66.000         321.000                  
G04  20518582.350    20518582.127    20518584.312                   -15202857.932 8 -15202857.931 8                 -11846381.052 8       487.000         346.000         316.000                  
G06  22084024.093    22084024.002    22084028.226                   -14129823.230 8 -14129823.232 8                 -11010234.379 9       272.000         228.000         642.000                  
G07  23649778.569    23649777.814    23649781.353                    -7644961.808 8  -7644961.811 8                  -5957128.268 8       212.000         107.000         164.000                  
G09  19213301.831    19213301.421    19213304.712                   -28777108.043 9 -28777108.046 9                 -22423721.649 9       945.000        2628.000        2901.000                  
G14  24574510.337    24574506.932    24574514.211                    -1143940.442 7  -1143940.444 6                   -891401.401 6        60.000          22.000          24.000                  
G17  19314738.461    19314738.022    19314739.382                   -26429690.820 9 -26429690.823 9                 -20594563.093 9       716.000        1115.000        2215.000                  
G19  20477776.731    20477775.253    20477775.636                   -23224038.719 9 -23224038.720 8                 -18096650.330 9       549.000         283.000         503.000                  
G22  24195506.238    24195504.264    24195506.972                    -2327328.525 8  -2327328.533 6                  -1813514.447 6       113.000          25.000          28.000                  
> 2024 10 31 00 42 30.0000000  0 10
G02  23485158.482    23485157.087    23485158.733                    -6242851.099 8  -6242851.078 6                  -4864568.042 7       159.000          28.000          62.000                  
G03  23097751.605    23097751.205    23097755.761                    -7721544.008 8  -7721544.012 7                  -6016767.087 8       159.000          59.000         330.000                  
G04  20483924.723    20483924.410    20483926.851                   -15384983.716 8 -15384983.717 8                 -11988297.003 8       491.000         354.000         334.000                  
G06  22029864.138    22029864.103    22029868.255                   -14414434.494 8 -14414434.497 8                 -11232009.083 9       276.000         227.000         670.000                  
G07  23701452.754    23701452.311    23701455.042                    -7373411.453 8  -7373411.451 8                  -5745530.264 8       211.000         104.000         156.000                  
G09  19211012.829    19211012.342    19211015.583                   -28789136.537 9 -28789136.539 9                 -22433094.334 9       941.000        2624.000        2868.000                  
G14  24646601.025    24646600.927    24646606.868                     -765084.751 7   -765084.724 6                   -596189.021 6        54.000          23.000          24.000                  
G17  19337171.272    19337170.861    19337172.205                   -26311805.084 9 -26311805.086 9                 -20502703.927 9       723.000        1129.000        2159.000                  
G19  20460891.946    20460890.364    20460890.743                   -23312768.794 9 -23312768.797 8                 -18165790.455 8       560.000         297.000         500.000                  
G22  24255929.216    24255927.713    24255932.012                    -2009798.152 8  -2009798.164 6                  -1566087.907 6       110.000          30.000          26.000                  
> 2024 10 31 00 42 40.0000000  0 10
G02  23508565.543    23508564.233    23508566.002                    -6119843.963 8  -6119843.963 6                  -4768717.920 7       152.000          24.000          58.000                  
G03  23045891.619    23045892.024    23045896.555                    -7994062.757 8  -7994062.754 7                  -6229118.954 8       165.000          73.000         328.000                  
G04  20449825.316    20449824.863    20449827.407                   -15564176.869 8 -15564176.868 8                 -12127927.807 8       499.000         362.000         346.000                  
G06  21976231.393    21976231.344    21976235.613                   -14696274.308 8 -14696274.313 8                 -11451624.241 9       276.000         229.000         715.000                  
G07  23753284.720    23753283.877    23753287.032                    -7101030.826 8  -7101030.827 7                  -5533285.314 8       205.000          98.000         144.000                  
G09  19209500.514    19209500.210    19209503.439                   -28797082.200 9 -28797082.203 9                 -22439285.605 9       945.000        2643.000        2834.000                  
G14  24718874.769    24718873.161    24718879.026                     -385287.069 6   -385287.071 6                   -300241.627 6        49.000          25.000          19.000                  
G17  19360783.121    19360782.592    19360783.856                   -26187724.140 9 -26187724.143 9                 -20406017.341 9       741.000        1178.000        2128.000                  
G19  20445077.736    20445076.113    20445076.323                   -23395872.113 9 -23395872.115 8                 -18230546.107 9       567.000         305.000         515.000                  
G22  24316716.168    24316715.085    24316718.551                    -1690357.644 8  -1690357.652 6                  -1317172.998 6       107.000          25.000          28.000                  
> 2024 10 31 00 42 50.0000000  0  9
G02  23532526.910    23532524.888    23532527.441                    -5993924.744 8  -5993924.750 6                  -4670598.676 7       155.000          28.000          59.000                  
G03  22994416.074    22994416.118    22994420.177                    -8264571.974 8  -8264571.976 7                  -6439904.994 8       169.000          74.000         349.000                  
G04  20416290.733    20416290.341    20416292.587                   -15740401.678 9 -15740401.679 8                 -12265245.636 8       507.000         375.000         353.000                  
G06  21923139.134    21923139.302    21923143.456                   -14975274.626 8 -14975274.629 8                 -11669026.829 9       281.000         240.000         731.000                  
G07  23805269.947    23805269.962    23805272.516                    -6827843.421 8  -6827843.421 8                  -5320411.722 8       202.000         101.000         131.000                  
G09  19208767.267    19208766.868    19208770.025                   -28800935.456 9 -28800935.458 9                 -22442287.997 9       960.000        2686.000        2805.000                  
G17  19385568.425    19385568.038    19385569.248                   -26057475.511 9 -26057475.513 9                 -20304524.776 9       745.000        1202.000        2138.000                  
G19  20430341.098    20430339.660    20430339.841                   -23473312.382 9 -23473312.386 8                 -18290889.009 9       573.000         314.000         527.000                  
G22  24377859.869    24377857.492    24377862.071                    -1369047.794 8  -1369047.815 6                  -1066801.481 6       104.000          26.000          31.000                  
> 2024 10 31 00 43  0.0000000  0  9
G02  23557031.318    23557029.386    23557031.257                    -5865153.155 8  -5865153.164 6                  -4570256.871 7       153.000          32.000          52.000                  
G03  22943323.161    22943323.200    22943327.573                    -8533064.185 8  -8533064.192 7                  -6649119.374 8       175.000          86.000         353.000                  
G04  20383320.691    20383320.431    20383322.739                   -15913658.724 9 -15913658.725 8                 -12400250.937 8       506.000         376.000         347.000                  
G06  21870593.603    21870593.413    21870597.698                   -15251403.410 8 -15251403.411 8                 -11884191.884 9       278.000         246.000         769.000                  
G07  23857397.565    23857397.563    23857400.798                    -6553908.525 8  -6553908.526 7                  -5106955.683 8       198.000          95.000         116.000                  
G09  19208807.508    19208807.085    19208810.197                   -28800723.533 9 -28800723.535 9                 -22442122.726 9       962.000        2712.000        2800.000                  
G17  19411515.082    19411514.692    19411515.838                   -25921124.547 9 -25921124.549 9                 -20198277.154 9       758.000        1235.000        2140.000                  
G19  20416682.268    20416680.642    20416680.695                   -23545090.940 9 -23545090.942 8                 -18346820.195 9       596.000         347.000         538.000                  
G22  24439343.888    24439341.419    24439346.312                    -1045945.414 7  -1045945.408 6                   -815033.221 6       100.000          20.000          25.000                  
> 2024 10 31 00 43 10.0000000  0  9
G02  23582077.370    23582075.120    23582076.451                    -5733533.903 8  -5733533.896 6                  -4467696.137 7       156.000          21.000          54.000                  
G03  22892626.793    22892626.406    22892630.541                    -8799476.551 8  -8799476.545 7                  -6856713.123 8       181.000          85.000         359.000                  
G04  20350925.869    20350925.873    20350927.807                   -16083893.487 9 -16083893.488 8                 -12532901.235 8       510.000         384.000         354.000                  
G06  21818610.835    21818610.859    21818614.990                   -15524573.283 8 -15524573.287 8                 -12097051.315 9       278.000         244.000         836.000                  
G07  23909667.524    23909667.109    23909669.608                    -6279229.709 8  -6279229.708 7                  -4892919.971 8       198.000          85.000         108.000                  
G09  19209626.529    19209626.104    19209629.212                   -28796419.008 9 -28796419.010 9                 -22438768.430 9       963.000        2728.000        2804.000                  
G17  19438620.730    19438620.321    19438621.465                   -25778682.877 9 -25778682.878 9                 -20087283.535 9       740.000        1192.000        2112.000                  
G19  20404110.371    20404108.823    20404109.096                   -23611155.283 9 -23611155.286 8                 -18398298.766 9       600.000         355.000         578.000                  
G22  24501167.346    24501162.541    24501167.463                     -721071.654 7   -721071.682 6                   -561884.681 6        98.000          25.000          24.000                  
> 2024 10 31 00 43 20.0000000  0  9
G02  23607655.313    23607654.217    23607655.340                    -5599120.467 8  -5599120.464 6                  -4362958.171 6       149.000          24.000          49.000                  
G03  22842328.305    22842327.889    22842332.273                    -9063794.758 8  -9063794.762 7                  -7062675.091 8       183.000          88.000         364.000                  
G04  20319107.673    20319107.117    20319109.371                   -16251100.205 9 -16251100.205 8                 -12663192.033 8       513.000         384.000         361.000                  
G06  21767198.870    21767198.773    21767202.773                   -15794745.316 8 -15794745.318 8                 -12307574.790 9       283.000         241.000         895.000                  
G07  23962069.077    23962067.952    23962070.746                    -6003859.024 8  -6003859.021 7                  -4678345.173 8       186.000          84.000         108.000                  
G09  19211220.218    19211219.766    19211222.906                   -28788043.719 9 -28788043.722 9                 -22432242.120 9       966.000        2756.000        2839.000                  
G17  19466873.652    19466873.319    19466874.372                   -25630212.140 9 -25630212.141 9                 -19971591.962 9       737.000        1155.000        2099.000                  
G19  20392626.420    20392624.928    20392625.071                   -23671502.804 9 -23671502.806 8                 -18445322.686 9       594.000         342.000         572.000                  
G22  24563310.193    24563307.680    24563312.970                     -394496.090 7   -394496.088 6                   -307410.057 6        93.000          23.000          22.000                  
> 2024 10 31 00 43 30.0000000  0  9
G02  23633759.756    23633758.380    23633759.945                    -5461936.734 8  -5461936.769 6                  -4256061.531 6       142.000          25.000          49.000                  
G03  22792436.854    22792436.712    22792440.934                    -9325974.493 8  -9325974.497 7                  -7266970.739 8       190.000          97.000         375.000                  
G04  20287872.143    20287871.720    20287873.890                   -16415243.352 9 -16415243.353 8                 -12791095.648 8       516.000         387.000         368.000                  
G06  21716370.504    21716370.004    21716374.217                   -16061850.638 8 -16061850.639 8                 -12515708.633 9       275.000         241.000         920.000                  
G07  24014597.170    24014596.751    24014599.418                    -5727817.981 8  -5727817.985 7                  -4463248.081 8       184.000          75.000         103.000                  
G09  19213589.847    19213589.506    19213592.688                   -28775590.224 9 -28775590.226 9                 -22422537.997 9       965.000        2731.000        2914.000                  
G17  19496267.608    19496267.241    19496268.315                   -25475745.570 9 -25475745.572 9                 -19851228.323 9       717.000        1109.000        2084.000                  
G19  20382236.131    20382234.974    20382235.080                   -23726102.442 9 -23726102.442 8                 -18487867.746 9       587.000         331.000         566.000                  
G22  24625771.754    24625768.876    24625775.017                      -66258.236 7    -66258.218 6                    -51640.153 6        93.000          18.000          22.000                  
> 2024 10 31 00 43 40.0000000  0  9
G02  23660386.325    23660384.766    23660386.864                    -5322011.791 8  -5322011.793 6                  -4147028.946 7       135.000          25.000          52.000                  
G03  22742960.270    22742960.201    22742963.828                    -9585976.261 8  -9585976.260 7                  -7469569.292 8       191.000         100.000         385.000                  
G04  20257225.185    20257224.819    20257227.207                   -16576292.470 9 -16576292.471 8                 -12916588.347 8       519.000         394.000         375.000                  
G06  21666137.371    21666137.281    21666141.385                   -16325825.134 8 -16325825.138 8                 -12721402.891 9       272.000         226.000         916.000                  
G07  24067248.654    24067247.946    24067251.105                    -5451132.632 8  -5451132.633 7                  -4247648.970 7       176.000          74.000          98.000                  
G09  19216736.134    19216735.673    19216738.858                   -28759056.571 9 -28759056.573 9                 -22409654.547 9       961.000        2716.000        2990.000                  
G17  19526795.066    19526794.655    19526795.830                   -25315322.616 9 -25315322.618 9                 -19726223.360 9       699.000        1046.000        2086.000                  
G19  20372944.591    20372943.285    20372943.483                   -23774929.467 9 -23774929.467 8                 -18525914.679 9       588.000         336.000         533.000                  
G22  24688540.374    24688539.133    24688543.112                      263598.017 7    263598.041 6                    205390.752 6        89.000          22.000          22.000                  
> 2024 10 31 00 43 50.0000000  0  9
G02  23687526.018    23687523.655    23687526.007                    -5179396.009 8  -5179396.003 6                  -4035899.623 6       127.000          27.000          47.000                  
G03  22693901.621    22693901.044    22693905.005                    -9843781.650 8  -9843781.651 7                  -7670456.396 8       194.000         100.000         393.000                  
G04  20227168.907    20227168.700    20227171.023                   -16734238.437 9 -16734238.439 8                 -13039663.019 8       521.000         390.000         395.000                  
G06  21616508.383    21616508.259    21616512.487                   -16586625.872 8 -16586625.874 8                 -12924624.105 9       275.000         228.000         943.000                  
G07  24120013.417    24120013.235    24120015.954                    -5173849.708 8  -5173849.713 7                  -4031584.251 7       169.000          68.000          92.000                  
G09  19220654.910    19220654.557    19220657.699                   -28738462.585 9 -28738462.587 9                 -22393607.213 9       955.000        2707.000        3014.000                  
G17  19558444.162    19558443.763    19558444.855                   -25149005.379 9 -25149005.382 9                 -19596625.458 9       681.000        1001.000        2019.000                  
G19  20364752.278    20364750.614    20364750.772                   -23817981.821 9 -23817981.822 8                 -18559461.885 9       596.000         344.000         510.000                  
G22  24751607.519    24751604.424    24751608.921                      595007.784 7    595007.769 6                    463632.190 6        80.000          26.000          20.000                  
> 2024 10 31 00 44  0.0000000  0  9
G02  23715172.031    23715170.449    23715171.857                    -5034114.028 8  -5034114.029 6                  -3922692.745 6       130.000          24.000          49.000                  
G03  22645268.240    22645268.435    22645272.450                   -10099346.329 8 -10099346.327 8                  -7869597.508 8       196.000         107.000         414.000                  
G04  20197709.845    20197709.654    20197711.902                   -16889046.467 9 -16889046.466 8                 -13160292.552 8       524.000         398.000         407.000                  
G06  21567496.746    21567496.775    21567500.690                   -16844183.996 8 -16844184.001 8                 -13125318.634 9       284.000         253.000         953.000                  
G07  24172888.614    24172888.104    24172890.828                    -4895989.756 8  -4895989.751 7                  -3815069.938 7       162.000          62.000          80.000                  
G09  19225347.526    19225347.067    19225350.190                   -28713802.826 9 -28713802.828 9                 -22374391.751 9       952.000        2665.000        2998.000                  
G17  19591207.691    19591207.300    19591208.556                   -24976831.326 9 -24976831.328 9                 -19462463.821 9       665.000         962.000        1972.000                  
G19  20357663.465    20357661.897    20357661.995                   -23855233.012 9 -23855233.014 8                 -18588488.715 9       596.000         344.000         509.000                  
G22  24814959.590    24814957.586    24814963.317                      927932.331 7    927932.325 6                    723053.979 6        78.000          22.000          17.000                  
> 2024 10 31 00 44 10.0000000  0  9
G02  23743320.701    23743318.357    23743320.209                    -4886191.983 8  -4886192.014 6                  -3807428.716 6       122.000          17.000          46.000                  
G03  22597070.481    22597070.499    22597074.372                   -10352627.174 8 -10352627.182 8                  -8066959.022 8       200.000         103.000         430.000                  
G04  20168854.159    20168853.993    20168856.348                   -17040683.236 9 -17040683.237 8                 -13278450.980 8       526.000         411.000         420.000                  
G06  21519115.349    21519114.652    21519118.863                   -17098431.927 8 -17098431.931 8                 -13323433.796 9       286.000         260.000         939.000                  
G07  24225869.555    24225868.800    24225871.472                    -4617574.178 8  -4617574.179 7                  -3598122.701 7       152.000          60.000          77.000                  
G09  19230814.320    19230814.015    19230817.045                   -28685073.771 9 -28685073.774 9                 -22352005.415 9       947.000        2649.000        2940.000                  
G17  19625078.145    19625077.701    19625079.012                   -24798840.436 9 -24798840.438 9                 -19323769.587 9       659.000         940.000        1930.000                  
G19  20351683.218    20351681.551    20351681.824                   -23886659.372 9 -23886659.374 8                 -18612976.716 8       592.000         338.000         489.000                  
G22  24878592.995    24878591.277    24878595.013                     1262331.999 7   1262332.001 6                    983624.145 6        75.000          23.000          23.000                  
> 2024 10 31 00 44 20.0000000  0  9
G02  23771961.231    23771958.610    23771961.148                    -4735683.783 8  -4735683.788 6                  -3690149.524 6       122.000          21.000          49.000                  
G03  22549310.264    22549310.284    22549314.187                   -10603608.495 8 -10603608.500 8                  -8262528.707 8       194.000         102.000         466.000                  
G04  20140603.159    20140603.045    20140605.401                   -17189143.092 9 -17189143.092 8                 -13394133.897 8       530.000         412.000         428.000                  
G06  21471370.494    21471370.479    21471374.338                   -17349329.571 8 -17349329.575 8                 -13518938.351 9       290.000         261.000         910.000                  
G07  24278946.402    24278946.284    24278948.732                    -4338651.368 8  -4338651.382 7                  -3380780.274 7       148.000          54.000          79.000                  
G09  19237051.026    19237050.648    19237053.603                   -28652299.956 9 -28652299.958 9                 -22326467.322 9       946.000        2626.000        2925.000                  
G17  19660042.389    19660042.134    19660043.311                   -24615101.539 9 -24615101.541 9                 -19180596.390 9       657.000         929.000        1811.000                  
G19  20346810.291    20346808.774    20346808.884                   -23912266.125 9 -23912266.126 8                 -18632929.953 8       613.000         362.000         498.000                  
G22  24942496.940    24942493.032    24942498.443                     1598139.951 7   1598139.935 6                   1245292.655 6        73.000          20.000          23.000                  
> 2024 10 31 00 44 30.0000000  0  9
G02  23801088.235    23801086.844    23801088.978                    -4582613.698 8  -4582613.697 6                  -3570874.042 7       113.000          24.000          58.000                  
G03  22501995.989    22501995.989    22502000.014                   -10852244.848 8 -10852244.851 7                  -8456271.158 8       194.000          91.000         477.000                  
G04  20112963.632    20112963.250    20112965.538                   -17334390.885 9 -17334390.886 8                 -13507313.913 8       535.000         424.000         438.000                  
G06  21424277.374    21424276.836    21424280.828                   -17596807.179 8 -17596807.180 8                 -13711777.948 9       303.000         277.000         886.000                  
G07  24332116.839    24332116.308    24332119.134                    -4059239.544 8  -4059239.535 7                  -3163056.797 7       139.000          51.000          70.000                  
G09  19244058.220    19244057.815    19244060.803                   -28615476.767 9 -28615476.770 9                 -22297773.881 9       936.000        2594.000        2898.000                  
G17  19696092.957    19696092.538    19696093.835                   -24425654.805 9 -24425654.806 9                 -19032975.526 9       646.000         901.000        1766.000                  
G19  20343049.257    20343047.716    20343047.724                   -23932030.241 9 -23932030.244 8                 -18648330.500 8       620.000         364.000         464.000                  
G22  25006658.976    25006656.445    25006661.291                     1935319.498 7   1935319.510 6                   1508029.925 6        69.000          22.000          20.000                  
> 2024 10 31 00 44 40.0000000  0  9
G02  23830696.878    23830695.437    23830697.938                    -4427019.862 8  -4427019.875 6                  -3449631.993 7       114.000          27.000          52.000                  
G03  22455134.632    22455134.409    22455138.200                   -11098504.605 8 -11098504.603 7                  -8648161.728 9       190.000          92.000         512.000                  
G04  20085938.996    20085938.585    20085940.933                   -17476405.557 9 -17476405.558 8                 -13617974.619 8       541.000         425.000         448.000                  
G06  21377845.223    21377844.850    21377848.707                   -17840808.912 8 -17840808.914 8                 -13901909.074 9       316.000         312.000         859.000                  
G07  24385374.197    24385373.914    24385376.069                    -3779370.467 8  -3779370.488 6                  -2944977.053 7       137.000          49.000          62.000                  
G09  19251833.989    19251833.635    19251836.677                   -28574614.075 9 -28574614.078 9                 -22265932.779 9       929.000        2557.000        2887.000                  
G17  19733219.237    19733218.759    19733219.897                   -24230555.542 9 -24230555.544 9                 -18880950.095 9       652.000         910.000        1666.000                  
G19  20340401.526    20340400.018    20340400.116                   -23945944.136 9 -23945944.136 8                 -18659172.443 8       619.000         363.000         474.000                  
G22  25071070.974    25071070.840    25071076.739                     2273820.233 7   2273820.224 6                   1771798.242 6        67.000          22.000          18.000                  
> 2024 10 31 00 44 50.0000000  0  9
G02  23860776.894    23860774.303    23860776.575                    -4268952.917 8  -4268952.918 6                  -3326462.879 6       112.000          23.000          46.000                  
G03  22408728.595    22408728.335    22408732.453                   -11342368.381 8 -11342368.379 7                  -8838185.304 9       189.000          91.000         531.000                  
G04  20059531.463    20059531.034    20059533.157                   -17615178.505 9 -17615178.506 8                 -13726109.311 8       538.000         419.000         456.000                  
G06  21332082.787    21332082.636    21332086.282                   -18081291.276 8 -18081291.278 8                 -14089297.843 9       338.000         349.000         835.000                  
G07  24438710.657    24438709.762    24438712.855                    -3499087.637 8  -3499087.621 6                  -2726574.941 7       133.000          47.000          60.000                  
G09  19260374.310    19260373.904    19260376.929                   -28529734.569 9 -28529734.571 9                 -22230961.695 9       928.000        2534.000        2868.000                  
G17  19771407.907    19771407.420    19771408.581                   -24029872.341 9 -24029872.342 9                 -18724573.545 9       641.000         881.000        1597.000                  
G19  20338865.813    20338864.301    20338864.387                   -23954013.875 9 -23954013.875 8                 -18665460.501 8       611.000         361.000         497.000                  
G22  25135729.699    25135724.664    25135729.360                     2613579.958 7   2613579.955 6                   2036562.057 6        63.000          19.000          19.000                  
> 2024 10 31 00 45  0.0000000  0  9
G02  23891324.521    23891322.782    23891323.976                    -4108423.338 8  -4108423.349 6                  -3201374.855 6       118.000          23.000          43.000                  
G03  22362789.742    22362790.115    22362793.963                   -11583776.438 8 -11583776.437 7                  -9026295.337 9       192.000          96.000         560.000                  
G04  20033749.841    20033749.629    20033751.711                   -17750661.089 9 -17750661.091 8                 -13831680.084 8       536.000         417.000         470.000                  
G06  21287006.061    21287005.923    21287009.533                   -18318170.572 8 -18318170.571 8                 -14273879.024 9       350.000         382.000         812.000                  
G07  24492125.040    24492124.126    24492126.947                    -3218393.764 8  -3218393.752 6                  -2507852.516 7       133.000          39.000          64.000                  
G09  19269682.157    19269681.775    19269684.805                   -28480821.207 9 -28480821.208 9                 -22192847.346 9       918.000        2475.000        2800.000                  
G17  19810653.526    19810653.164    19810654.313                   -23823634.446 9 -23823634.449 9                 -18563868.665 9       630.000         858.000        1583.000                  
G19  20338448.671    20338447.105    20338447.035                   -23956206.902 9 -23956206.901 8                 -18667169.306 9       614.000         361.000         513.000                  
G22  25200616.898    25200615.107    25200620.073                     2954577.168 7   2954577.144 6                   2302300.493 6        59.000          21.000          15.000                  
> 2024 10 31 00 45 10.0000000  0  9
G02  23922324.975    23922325.176    23922327.133                    -3945501.828 8  -3945501.880 6                  -3074423.004 6       120.000          20.000          47.000                  
G03  22317319.120    22317318.503    22317322.551                   -11822729.448 8 -11822729.453 7                  -9212492.357 9       195.000          98.000         590.000                  
G04  20008592.180    20008591.715    20008593.977                   -17882865.286 9 -17882865.287 8                 -13934696.271 8       536.000         421.000         473.000                  
G06  21242619.581    21242619.327    21242622.878                   -18551423.648 8 -18551423.651 8                 -14455634.586 9       375.000         425.000         797.000                  
G07  24545604.937    24545604.886    24545607.884                    -2937351.494 8  -2937351.494 6                  -2288858.594 7       126.000          39.000          60.000                  
G09  19279749.380    19279748.939    19279751.972                   -28427917.875 9 -28427917.877 9                 -22151623.934 9       912.000        2460.000        2766.000                  
G17  19850939.144    19850938.747    19850939.866                   -23611932.548 9 -23611932.550 9                 -18398906.124 9       635.000         866.000        1592.000                  
G19  20339143.996    20339142.383    20339142.422                   -23952552.450 9 -23952552.452 8                 -18664321.644 9       616.000         368.000         520.000                  
G22  25265727.786    25265725.308    25265728.077                     3296730.006 7   3296730.009 6                   2568948.992 6        56.000          20.000          14.000                  
> 2024 10 31 00 45 20.0000000  0  9
G02  23953784.749    23953782.720    23953784.481                    -3780193.323 8  -3780193.315 6                  -2945611.124 6       121.000          22.000          43.000                  
G03  22272327.441    22272327.056    22272330.734                   -12059162.013 8 -12059162.010 8                  -9396725.397 9       202.000         107.000         592.000                  
G04  19984068.319    19984068.174    19984070.314                   -18011737.280 9 -18011737.282 8                 -14035115.940 8       540.000         425.000         482.000                  
G06  21198940.118    21198939.799    21198943.125                   -18780961.442 8 -18780961.445 8                 -14634495.131 9       397.000         474.000         803.000                  
G07  24599152.693    24599152.735    24599154.999                    -2655957.160 8  -2655957.161 6                  -2069590.334 7       122.000          40.000          56.000                  
G09  19290579.859    19290579.441    19290582.473                   -28371003.009 9 -28371003.012 9                 -22107274.649 9       905.000        2414.000        2745.000                  
G17  19892259.746    19892259.127    19892260.253                   -23394792.252 9 -23394792.254 9                 -18229705.873 9       635.000         863.000        1626.000                  
G19  20340958.667    20340957.175    20340957.146                   -23943015.267 9 -23943015.270 8                 -18656890.045 9       599.000         349.000         504.000                  
G22  25331054.127    25331052.104    25331056.062                     3640024.317 6   3640024.319 6                   2836487.262 6        49.000          21.000          22.000                  
> 2024 10 31 00 45 30.0000000  0  8
G02  23985683.360    23985681.486    23985684.012                    -3612562.867 8  -3612562.865 6                  -2814989.974 6       121.000          24.000          45.000                  
G03  22227816.269    22227816.050    22227819.607                   -12293068.762 8 -12293068.764 8                  -9578990.273 9       211.000         109.000         590.000                  
G04  19960177.613    19960177.506    19960179.657                   -18137283.545 9 -18137283.547 8                 -14132944.135 8       549.000         446.000         477.000                  
G06  21155972.667    21155972.571    21155975.976                   -19006755.124 8 -19006755.127 8                 -14810438.190 9       396.000         474.000         857.000                  
G07  24652756.741    24652756.822    24652759.247                    -2374266.574 8  -2374266.568 6                  -1850091.223 7       115.000          39.000          51.000                  
G09  19302166.189    19302165.882    19302168.945                   -28310115.594 9 -28310115.595 9                 -22059829.870 9       887.000        2320.000        2751.000                  
G17  19934598.422    19934598.023    19934599.095                   -23172300.075 9 -23172300.077 9                 -18056335.336 9       620.000         831.000        1639.000                  
G19  20343887.895    20343886.333    20343886.406                   -23927621.690 9 -23927621.693 8                 -18644895.019 8       598.000         338.000         492.000                  
> 2024 10 31 00 45 40.0000000  0  8
G02  24018020.288    24018017.496    24018019.676                    -3442632.161 8  -3442632.137 6                  -2682576.411 6       125.000          21.000          41.000                  
G03  22183795.210    22183794.895    22183798.348                   -12524401.079 8 -12524401.073 8                  -9759249.102 9       216.000         117.000         599.000                  
G04  19936926.924    19936926.659    19936928.794                   -18259467.506 9 -18259467.508 8                 -14228152.354 8       561.000         453.000         471.000                  
G06  21113731.596    21113731.610    21113735.045                   -19228732.750 8 -19228732.753 8                 -14983407.694 9       400.000         490.000         957.000                  
G07  24706415.058    24706414.560    24706417.133                    -2092291.862 8  -2092291.849 6                  -1630370.715 7       110.000          38.000          52.000                  
G09  19314509.283    19314509.001    19314512.082                   -28245251.846 9 -28245251.848 9                 -22009286.654 9       873.000        2252.000        2756.000                  
G17  19977947.187    19977946.838    19977947.923                   -22944500.119 9 -22944500.122 9                 -17878828.871 9       609.000         803.000        1673.000                  
G19  20347934.576    20347933.108    20347932.985                   -23906356.192 9 -23906356.191 8                 -18628324.468 8       603.000         359.000         480.000                  
> 2024 10 31 00 45 50.0000000  0  8
G02  24050786.273    24050785.449    24050786.904                    -3270441.968 8  -3270441.959 6                  -2548402.221 6       130.000          27.000          30.000                  
G03  22140269.441    22140269.171    22140272.746                   -12753129.334 8 -12753129.338 8                  -9937478.805 9       222.000         124.000         613.000                  
G04  19914319.202    19914318.822    19914321.002                   -18378271.934 9 -18378271.936 8                 -14320727.172 8       558.000         452.000         473.000                  
G06  21072226.885    21072226.639    21072230.328                   -19446841.664 8 -19446841.667 8                 -15153362.619 9       404.000         499.000        1052.000                  
G07  24760121.424    24760120.491    24760124.297                    -1810063.758 8  -1810063.753 6                  -1410452.787 6       106.000          33.000          46.000                  
G09  19327606.158    19327605.769    19327608.886                   -28176427.569 9 -28176427.571 9                 -21955657.311 9       865.000        2202.000        2711.000                  
G17  20022294.149    20022293.725    20022294.776                   -22711456.273 9 -22711456.275 9                 -17697236.259 9       603.000         782.000        1739.000                  
G19  20353097.672    20353096.307    20353096.032                   -23879223.789 9 -23879223.789 8                 -18607182.302 8       613.000         364.000         457.000                  
> 2024 10 31 00 46  0.0000000  0  8
G02  24083973.849    24083972.490    24083974.384                    -3096043.886 8  -3096043.875 6                  -2412507.616 6       136.000          25.000          34.000                  
G03  22097242.970    22097242.506    22097246.183                   -12979234.941 8 -12979234.941 8                 -10113664.885 9       227.000         138.000         622.000                  
G04  19892355.726    19892355.389    19892357.454                   -18493690.804 9 -18493690.807 8                 -14410663.899 8       562.000         459.000         470.000                  
G06  21031466.068    21031465.978    21031469.596                   -19661040.412 8 -19661040.415 9                 -15320270.666 9       412.000         512.000        1139.000                  
G07  24813868.892    24813867.233    24813870.942                    -1527623.289 7  -1527623.281 6                  -1190369.387 6        99.000          31.000          48.000                  
G09  19341451.458    19341451.075    19341454.126                   -28103670.008 9 -28103670.011 9                 -21898963.074 9       859.000        2189.000        2643.000                  
G17  20067624.434    20067623.959    20067625.043                   -22473244.273 9 -22473244.276 9                 -17511616.521 9       599.000         789.000        1761.000                  
G19  20359373.889    20359372.400    20359372.319                   -23846241.881 9 -23846241.881 8                 -18581482.077 8       614.000         361.000         445.000                  
> 2024 10 31 00 46 10.0000000  0  8
G02  24117578.327    24117576.610    24117577.971                    -2919451.133 8  -2919451.140 6                  -2274902.873 6       135.000          24.000          28.000                  
G03  22054726.610    22054726.335    22054729.631                   -13202660.620 8 -13202660.621 8                 -10287762.722 9       236.000         140.000         631.000                  
G04  19871044.954    19871044.585    19871046.463                   -18605679.711 9 -18605679.712 8                 -14497927.931 8       563.000         463.000         476.000                  
G06  20991464.465    20991464.538    20991468.256                   -19871249.168 8 -19871249.171 9                 -15484069.636 9       411.000         510.000        1219.000                  
G07  24867654.699    24867654.188    24867657.264                    -1244972.483 7  -1244972.491 6                   -970122.107 6        95.000          26.000          48.000                  
G09  19356047.382    19356046.964    19356049.940                   -28026968.243 9 -28026968.246 9                 -21839195.432 9       860.000        2194.000        2555.000                  
G17  20113931.026    20113930.599    20113931.561                   -22229901.863 9 -22229901.865 9                 -17321999.066 9       599.000         769.000        1743.000                  
G19  20366767.126    20366765.499    20366765.130                   -23807390.970 9 -23807390.974 8                 -18551208.609 8       617.000         364.000         415.000                  
> 2024 10 31 00 46 20.0000000  0  8
G02  24151586.224    24151585.185    24151586.396                    -2740736.163 8  -2740736.188 6                  -2135644.457 6       130.000          26.000          31.000                  
G03  22012719.310    22012719.048    22012722.500                   -13423408.755 8 -13423408.757 8                 -10459774.159 9       241.000         151.000         644.000                  
G04  19850383.478    19850383.502    19850385.415                   -18714254.122 9 -18714254.124 8                 -14582531.317 8       568.000         470.000         466.000                  
G06  20952226.182    20952226.178    20952229.810                   -20077447.980 8 -20077447.983 9                 -15644743.978 9       413.000         521.000        1263.000                  
G07  24921470.794    24921469.180    24921472.585                     -962172.505 7   -962172.512 6                   -749758.586 7        91.000          26.000          51.000                  
G09  19371384.413    19371384.016    19371386.945                   -27946371.406 9 -27946371.408 9                 -21776392.671 9       861.000        2204.000        2494.000                  
G17  20161195.214    20161194.695    20161195.748                   -21981526.932 9 -21981526.934 9                 -17128460.168 9       587.000         736.000        1740.000                  
G19  20375269.044    20375267.587    20375267.263                   -23762712.405 9 -23762712.406 8                 -18516394.113 8       621.000         366.000         397.000                  
> 2024 10 31 00 46 30.0000000  0  8
G02  24185997.314    24185995.724    24185997.046                    -2559904.949 8  -2559904.945 6                  -1994737.031 6       125.000          22.000          22.000                  
G03  21971233.729    21971233.849    21971237.267                   -13641415.048 8 -13641415.047 8                 -10629649.094 9       243.000         149.000         654.000                  
G04  19830381.956    19830381.974    19830383.775                   -18819363.093 9 -18819363.096 8                 -14664434.362 8       576.000         473.000         479.000                  
G06  20913767.157    20913767.133    20913770.812                   -20279550.534 8 -20279550.537 9                 -15802226.439 9       422.000         538.000        1310.000                  
G07  24975313.614    24975313.669    24975317.596                     -679217.270 7   -679217.265 6                   -529274.130 7        88.000          31.000          53.000                  
G09  19387465.827    19387465.492    19387468.427                   -27861862.419 9 -27861862.420 9                 -21710541.484 9       853.000        2148.000        2431.000                  
G17  20209411.056    20209410.513    20209411.493                   -21728151.301 9 -21728151.304 9                 -16931024.621 9       587.000         745.000        1680.000                  
G19  20384884.896    20384883.380    20384882.663                   -23712182.280 9 -23712182.282 8                 -18477019.958 8       632.000         378.000         395.000                  
> 2024 10 31 00 46 40.0000000  0  9
G02  24220797.603    24220797.740    24220798.999                    -2377023.819 8  -2377023.825 6                  -1852232.285 6       124.000          15.000          28.000                  
G03  21930270.956    21930271.003    21930274.431                   -13856675.893 8 -13856675.891 8                 -10797384.727 9       241.000         157.000         656.000                  
G04  19811038.233    19811037.743    19811039.805                   -18921016.603 9 -18921016.607 8                 -14743644.845 8       577.000         490.000         489.000                  
G06  20876092.742    20876092.628    20876096.276                   -20477531.489 8 -20477531.492 9                 -15956497.259 9       437.000         585.000        1361.000                  
G07  25029179.530    25029177.880    25029182.087                     -396160.947 7   -396160.932 6                   -308710.886 6        88.000          27.000          47.000                  
G09  19404283.448    19404283.068    19404286.052                   -27773485.280 9 -27773485.282 9                 -21641676.157 9       858.000        2163.000        2371.000                  
G11  24994429.551    24994417.034    24994430.297                     -151881.053 7   -151881.072 6                   -118350.299 6        73.000          20.000          19.000                  
G17  20258560.849    20258560.199    20258561.175                   -21469868.011 9 -21469868.014 9                 -16729764.930 9       600.000         771.000        1591.000                  
G19  20395606.339    20395604.932    20395604.702                   -23655838.747 9 -23655838.748 8                 -18433115.890 8       601.000         349.000         408.000                  
> 2024 10 31 00 46 50.0000000  0  9
G02  24255985.273    24255984.054    24255985.587                    -2192117.135 8  -2192117.153 6                  -1708149.147 6       120.000          22.000          22.000                  
G03  21889839.346    21889839.312    21889842.611                   -14069145.785 8 -14069145.790 8                 -10962945.592 9       245.000         145.000         669.000                  
G04  19792357.354    19792357.362    19792359.366                   -19019182.973 9 -19019182.976 8                 -14820138.076 8       581.000         490.000         497.000                  
G06  20839215.372    20839215.244    20839218.726                   -20671323.930 8 -20671323.933 9                 -16107504.299 9       467.000         669.000        1358.000                  
G07  25083058.882    25083058.985    25083062.395                     -113015.031 7   -113015.015 6                    -88077.850 6        80.000          25.000          42.000                  
G09  19421836.630    19421836.307    19421839.202                   -27681242.477 9 -27681242.479 9                 -21569798.626 9       850.000        2152.000        2323.000                  
G11  24957441.224    24957433.932    24957443.950                     -346245.513 7   -346245.519 6                   -269802.879 6        70.000          19.000          20.000                  
G17  20308634.412    20308634.087    20308634.972                   -21206728.656 9 -21206728.659 9                 -16524721.289 9       619.000         821.000        1508.000                  
G19  20407434.948    20407433.362    20407433.031                   -23593679.749 9 -23593679.751 8                 -18384680.285 8       602.000         350.000         443.000                  
> 2024 10 31 00 47  0.0000000  0  9
G02  24291549.065    24291547.627    24291550.109                    -2005226.076 8  -2005226.102 6                  -1562519.833 6       119.000          21.000          24.000                  
G03  21849944.602    21849943.878    21849947.349                   -14278796.115 8 -14278796.114 8                 -11126309.400 9       243.000         151.000         671.000                  
G04  19774343.415    19774343.178    19774345.177                   -19113847.701 9 -19113847.704 8                 -14893902.754 9       588.000         500.000         513.000                  
G06  20803144.338    20803144.303    20803147.702                   -20860878.198 9 -20860878.201 9                 -16255208.869 9       506.000         784.000        1350.000                  
G07  25136952.951    25136952.396    25136955.430                      170192.335 7    170192.344 6                    132603.061 6        77.000          27.000          45.000                  
G09  19440121.580    19440121.305    19440124.214                   -27585153.783 9 -27585153.786 9                 -21494924.299 9       848.000        2117.000        2239.000                  
G11  24920699.731    24920695.553    24920703.293                     -539316.304 7   -539316.331 6                   -420247.465 6        74.000          22.000          28.000                  
G17  20359619.124    20359618.793    20359619.627                   -20938802.230 9 -20938802.232 9                 -16315947.461 9       627.000         850.000        1365.000                  
G19  20420366.889    20420365.290    20420365.081                   -23525721.306 9 -23525721.309 8                 -18331725.635 8       597.000         344.000         444.000                  
> 2024 10 31 00 47 10.0000000  0  9
G02  24327482.003    24327479.321    24327481.215                    -1816404.253 8  -1816404.260 6                  -1415385.988 6       116.000          25.000          28.000                  
G03  21810588.809    21810588.435    21810591.804                   -14485611.010 8 -14485611.011 8                 -11287463.785 9       245.000         157.000         676.000                  
G04  19756996.087    19756995.713    19756997.647                   -19205009.201 9 -19205009.204 9                 -14964937.648 9       597.000         515.000         530.000                  
G06  20767887.102    20767886.935    20767890.116                   -21046157.697 9 -21046157.698 9                 -16399582.446 9       529.000         854.000        1389.000                  
G07  25190848.203    25190849.141    25190852.566                      453421.032 7    453421.021 6                    353300.569 6        75.000          21.000          49.000                  
G09  19459132.416    19459131.982    19459134.801                   -27485251.999 9 -27485252.002 9                 -21417078.734 9       845.000        2102.000        2134.000                  
G11  24884210.347    24884207.162    24884213.694                     -731068.964 7   -731068.939 6                   -569664.948 6        76.000          25.000          35.000                  
G17  20411499.184    20411498.865    20411499.661                   -20666170.667 9 -20666170.670 9                 -16103507.294 9       636.000         859.000        1192.000                  
G19  20434396.805    20434395.347    20434395.210                   -23451993.409 9 -23451993.410 8                 -18274275.310 8       598.000         342.000         481.000                  
> 2024 10 31 00 47 20.0000000  0  9
G02  24363778.001    24363775.741    24363778.792                    -1625664.881 8  -1625664.866 6                  -1266757.989 6       113.000          26.000          20.000                  
G03  21771783.113    21771783.174    21771786.368                   -14689534.391 8 -14689534.393 8                 -11446365.048 9       253.000         171.000         700.000                  
G04  19740323.137    19740322.802    19740324.620                   -19292625.966 9 -19292625.969 9                 -15033210.413 9       607.000         540.000         532.000                  
G06  20733457.399    20733457.300    20733460.516                   -21227086.038 9 -21227086.040 9                 -16540565.508 9       535.000         875.000        1354.000                  
G07  25244750.806    25244749.141    25244753.133                      736671.528 7    736671.531 6                    574015.069 6        69.000          20.000          47.000                  
G09  19478869.962    19478869.669    19478872.370                   -27381530.074 9 -27381530.076 9                 -21336256.436 9       848.000        2127.000        2117.000                  
G11  24847986.737    24847982.115    24847987.038                     -921438.480 7   -921438.489 6                   -718004.714 6        73.000          23.000          30.000                  
G17  20464266.895    20464266.368    20464267.009                   -20388876.038 9 -20388876.040 9                 -15887433.569 9       634.000         856.000        1068.000                  
G19  20449526.428    20449524.843    20449524.525                   -23372487.190 9 -23372487.193 8                 -18212322.402 8       580.000         335.000         477.000                  
> 2024 10 31 00 47 30.0000000  0 10
G02  24400424.487    24400422.696    24400425.466                    -1433082.197 8  -1433082.171 6                  -1116693.608 6       108.000          17.000          22.000                  
G03  21733526.699    21733526.736    21733530.241                   -14890571.437 8 -14890571.439 8                 -11603017.220 9       258.000         165.000         727.000                  
G04  19724320.842    19724320.652    19724322.419                   -19376717.956 9 -19376717.959 9                 -15098736.600 9       619.000         550.000         543.000                  
G06  20699858.626    20699858.498    20699861.628                   -21403648.470 9 -21403648.473 9                 -16678146.573 9       540.000         900.000        1292.000                  
G07  25298644.880    25298642.797    25298647.547                     1019883.915 7   1019883.926 6                    794699.832 6        62.000          18.000          41.000                  
G09  19499324.148    19499323.838    19499326.605                   -27274042.513 9 -27274042.515 9                 -21252499.872 9       852.000        2157.000        2134.000                  
G11  24812022.246    24812020.724    24812025.128                    -1110420.796 7  -1110420.825 6                   -865263.534 6        79.000          21.000          32.000                  
G17  20517901.703    20517901.341    20517902.078                   -20107021.929 9 -20107021.932 9                 -15667807.007 9       619.000         815.000         963.000                  
G19  20465744.927    20465743.572    20465743.651                   -23287256.367 9 -23287256.368 8                 -18145908.760 8       567.000         311.000         500.000                  
G31  25098706.425    25098707.293    25098720.834                     -334412.908 7   -334412.916 6                   -260584.237 6       100.000          33.000          19.000                  
> 2024 10 31 00 47 40.0000000  0 10
G02  24437422.404    24437419.297    24437422.025                    -1238663.933 8  -1238663.956 6                   -965198.914 6       102.000          20.000          20.000                  
G03  21695832.007    21695831.648    21695834.985                   -15088661.002 8 -15088661.003 8                 -11757372.651 9       270.000         183.000         733.000                  
G04  19708998.323    19708998.050    19708999.803                   -19457239.002 9 -19457239.007 9                 -15161480.236 9       628.000         568.000         547.000                  
G06  20667106.086    20667105.993    20667109.171                   -21575764.300 9 -21575764.303 9                 -16812262.759 9       544.000         896.000        1357.000                  
G07  25352529.281    25352530.732    25352534.827                     1303065.034 7   1303065.021 6                   1015360.230 6        61.000          21.000          33.000                  
G09  19520497.321    19520496.843    19520499.599                   -27162777.707 9 -27162777.709 9                 -21165800.003 9       860.000        2158.000        2158.000                  
G11  24776338.828    24776336.794    24776339.932                    -1297945.099 7  -1297945.091 6                  -1011386.291 6        77.000          22.000          33.000                  
G17  20572397.194    20572396.891    20572397.695                   -19820645.782 9 -19820645.785 9                 -15444656.780 9       596.000         772.000         859.000                  
G19  20483055.692    20483054.090    20483053.998                   -23196289.626 9 -23196289.629 8                 -18075025.565 8       578.000         317.000         491.000                  
G31  25038495.051    25038495.932    25038500.297                     -650816.129 8   -650816.124 6                   -507129.677 6       101.000          34.000          46.000                  
> 2024 10 31 00 47 50.0000000  0 10
G02  24474754.823    24474752.870    24474753.936                    -1042475.983 7  -1042475.988 6                   -812325.272 6        97.000          26.000          24.000                  
G03  21658698.097    21658697.964    21658700.957                   -15283800.360 8 -15283800.361 8                 -11909429.224 9       283.000         205.000         726.000                  
G04  19694352.797    19694352.383    19694354.301                   -19534201.660 9 -19534201.663 9                 -15221451.100 9       630.000         582.000         546.000                  
G06  20635203.706    20635203.657    20635206.909                   -21743411.766 9 -21743411.770 9                 -16942897.106 9       533.000         859.000        1453.000                  
G07  25406402.796    25406402.970    25406406.641                     1586163.883 7   1586163.876 6                   1235956.505 6        60.000          23.000          32.000                  
G09  19542380.054    19542379.654    19542382.421                   -27047782.839 9 -27047782.842 9                 -21076193.594 9       861.000        2185.000        2192.000                  
G11  24740933.709    24740931.869    24740934.264                    -1483998.781 7  -1483998.762 6                  -1156363.021 6        85.000          24.000          30.000                  
G17  20627735.119    20627734.747    20627735.457                   -19529843.485 9 -19529843.487 9                 -15218057.602 9       574.000         699.000         778.000                  
G19  20501448.377    20501446.876    20501446.666                   -23099635.305 9 -23099635.307 8                 -17999710.494 8       590.000         331.000         450.000                  
G31  24978323.176    24978323.709    24978324.353                     -967025.623 8   -967025.596 6                   -753526.487 7       104.000          26.000          56.000                  
> 2024 10 31 00 48  0.0000000  0 10
G02  24512420.355    24512417.784    24512420.442                     -844544.246 7   -844544.269 6                   -658092.827 6        98.000          25.000          24.000                  
G03  21622133.889    21622133.529    21622136.647                   -15475947.278 8 -15475947.278 8                 -12059154.032 9       293.000         218.000         718.000                  
G04  19680389.349    19680389.104    19680390.903                   -19607579.097 9 -19607579.100 9                 -15278628.286 9       636.000         587.000         549.000                  
G06  20604163.137    20604163.213    20604166.492                   -21906529.957 9 -21906529.960 9                 -17070002.150 9       527.000         845.000        1569.000                  
G07  25460258.719    25460257.647    25460261.638                     1869169.719 7   1869169.703 6                   1456480.283 6        56.000          16.000          30.000                  
G09  19564971.213    19564970.756    19564973.561                   -26929065.702 9 -26929065.705 9                 -20983686.718 9       861.000        2186.000        2219.000                  
G11  24705819.438    24705817.096    24705820.185                    -1668529.236 7  -1668529.210 6                  -1300152.885 6        84.000          25.000          31.000                  
G17  20683904.444    20683904.113    20683904.808                   -19234671.648 9 -19234671.650 9                 -14988053.588 9       553.000         655.000         719.000                  
G19  20520921.317    20520919.836    20520919.779                   -22997303.311 9 -22997303.314 8                 -17919971.269 8       583.000         320.000         431.000                  
G31  24918196.724    24918196.121    24918197.129                    -1282995.598 8  -1282995.613 6                   -999736.660 7       103.000          34.000          53.000                  
> 2024 10 31 00 48 10.0000000  0 10
G02  24550409.522    24550407.116    24550410.201                     -644910.004 7   -644910.039 6                   -502533.757 6        93.000          15.000          26.000                  
G03  21586143.658    21586143.674    21586146.624                   -15665075.049 8 -15665075.052 8                 -12206526.262 9       306.000         242.000         713.000                  
G04  19667110.397    19667110.169    19667111.941                   -19677360.323 9 -19677360.327 9                 -15333003.234 9       639.000         591.000         546.000                  
G06  20573993.176    20573993.022    20573996.619                   -22065074.053 9 -22065074.056 9                 -17193542.968 9       506.000         794.000        1715.000                  
G07  25514088.885    25514088.643    25514092.432                     2152056.708 7   2152056.695 6                   1676911.453 6        56.000          23.000          34.000                  
G09  19588266.040    19588265.711    19588268.537                   -26806649.896 9 -26806649.899 9                 -20888297.765 9       867.000        2206.000        2192.000                  
G11  24671000.274    24670998.272    24671001.691                    -1851499.155 7  -1851499.149 6                  -1442726.739 6        87.000          20.000          32.000                  
G17  20740891.677    20740891.208    20740891.959                   -18935202.403 9 -18935202.404 9                 -14754700.945 9       516.000         580.000         670.000                  
G19  20541469.866    20541468.403    20541468.103                   -22889320.370 9 -22889320.371 8                 -17835828.716 8       585.000         322.000         387.000                  
G31  24858119.836    24858120.516    24858120.820                    -1598695.288 8  -1598695.323 6                  -1245736.227 7       108.000          30.000          55.000                  
> 2024 10 31 00 48 20.0000000  0 10
G02  24588712.626    24588709.665    24588712.131                     -443628.673 7   -443628.677 6                   -345691.210 6        93.000          19.000          23.000                  
G03  21550730.858    21550730.683    21550733.677                   -15851171.514 8 -15851171.515 8                 -12351536.431 9       324.000         263.000         712.000                  
G04  19654515.009    19654514.861    19654516.681                   -19743549.033 9 -19743549.037 9                 -15384578.820 9       642.000         593.000         550.000                  
G06  20544699.472    20544699.290    20544702.776                   -22219014.181 9 -22219014.184 9                 -17313496.276 9       516.000         813.000        1799.000                  
G07  25567891.574    25567891.360    25567894.718                     2434785.242 7   2434785.269 6                   1897219.129 6        54.000          23.000          28.000                  
G09  19612257.742    19612257.225    19612260.021                   -26680573.667 9 -26680573.669 9                 -20790056.536 9       861.000        2207.000        2190.000                  
G11  24636484.172    24636481.752    24636484.378                    -2032885.325 7  -2032885.339 6                  -1584066.521 6        84.000          24.000          30.000                  
G17  20798679.826    20798679.496    20798680.478                   -18631522.506 8 -18631522.508 8                 -14518067.277 9       470.000         475.000         650.000                  
G19  20563085.669    20563084.223    20563083.863                   -22775728.933 9 -22775728.935 8                 -17747315.903 8       594.000         343.000         359.000                  
G31  24798099.049    24798099.205    24798099.625                    -1914107.673 8  -1914107.663 6                  -1491511.933 7       109.000          28.000          58.000                  
> 2024 10 31 00 48 30.0000000  0  9
G02  24627326.256    24627323.556    24627326.475                     -240711.571 7   -240711.557 6                   -187574.084 6        89.000          21.000          23.000                  
G03  21515904.932    21515905.212    21515908.098                   -16034180.671 8 -16034180.674 8                 -12494140.908 9       332.000         274.000         717.000                  
G04  19642610.920    19642610.829    19642612.650                   -19806105.334 9 -19806105.337 9                 -15433323.961 9       639.000         591.000         554.000                  
G06  20516295.843    20516295.516    20516298.961                   -22368277.215 9 -22368277.218 9                 -17429805.103 9       538.000         874.000        1881.000                  
G09  19636946.853    19636946.251    19636949.062                   -26550831.667 9 -26550831.669 9                 -20688958.861 9       856.000        2144.000        2188.000                  
G11  24602281.861    24602279.459    24602281.513                    -2212620.437 7  -2212620.403 6                  -1724119.738 6        87.000          24.000          30.000                  
G17  20857261.205    20857260.858    20857261.971                   -18323674.725 8 -18323674.727 8                 -14278185.910 9       436.000         414.000         660.000                  
G19  20585768.884    20585767.371    20585766.776                   -22656528.464 9 -22656528.466 8                 -17654432.418 8       603.000         348.000         342.000                  
G31  24738144.481    24738144.182    24738145.451                    -2229171.425 8  -2229171.430 6                  -1737015.992 7       109.000          34.000          59.000                  
> 2024 10 31 00 48 40.0000000  0  9
G02  24666235.952    24666233.652    24666236.601                      -36242.250 7    -36242.243 6                    -28247.512 6        93.000          19.000          28.000                  
G03  21481664.102    21481663.977    21481666.921                   -16214119.243 8 -16214119.247 8                 -12634352.726 9       335.000         282.000         689.000                  
G04  19631392.018    19631391.617    19631393.413                   -19865062.213 9 -19865062.217 9                 -15479264.359 9       644.000         589.000         546.000                  
G06  20488781.906    20488781.692    20488785.174                   -22512863.211 9 -22512863.214 9                 -17542469.482 9       559.000         942.000        1969.000                  
G09  19662320.435    19662320.079    19662322.833                   -26417491.333 9 -26417491.335 9                 -20585057.285 9       842.000        2102.000        2173.000                  
G11  24568391.189    24568390.931    24568393.532                    -2390709.460 7  -2390709.464 6                  -1862890.311 6        89.000          20.000          37.000                  
G17  20916613.947    20916613.524    20916614.777                   -18011774.420 8 -18011774.423 8                 -14035146.739 9       415.000         381.000         671.000                  
G19  20609505.537    20609503.847    20609503.334                   -22531792.394 9 -22531792.396 8                 -17557235.481 8       596.000         349.000         332.000                  
G31  24678254.951    24678253.535    24678254.772                    -2543896.921 8  -2543896.915 6                  -1982256.460 7       112.000          38.000          59.000                  
> 2024 10 31 00 48 50.0000000  0  9
G02  24705438.233    24705438.103    24705441.431                      169776.895 7    169776.942 6                    132286.782 6        91.000          17.000          25.000                  
G03  21448019.230    21448019.204    21448022.141                   -16390923.242 8 -16390923.244 8                 -12772122.021 9       342.000         301.000         670.000                  
G04  19620866.671    19620866.447    19620868.277                   -19920372.121 9 -19920372.126 9                 -15522362.962 9       648.000         603.000         537.000                  
G06  20462173.158    20462173.194    20462176.521                   -22652692.054 9 -22652692.056 9                 -17651426.989 9       577.000        1014.000        1979.000                  
G09  19688381.592    19688381.196    19688383.944                   -26280539.505 9 -26280539.507 9                 -20478341.559 9       825.000        2006.000        2210.000                  
G11  24534830.032    24534829.382    24534831.561                    -2567076.312 7  -2567076.312 6                  -2000318.943 6        91.000          30.000          37.000                  
G17  20976731.507    20976730.696    20976731.937                   -17695856.042 8 -17695856.044 8                 -13788976.603 9       393.000         332.000         664.000                  
G19  20634296.428    20634294.692    20634294.615                   -22401514.278 9 -22401514.281 8                 -17455720.061 8       572.000         316.000         321.000                  
G31  24618441.472    24618441.420    24618442.074                    -2858213.288 8  -2858213.285 6                  -2227178.133 7       118.000          45.000          71.000                  
> 2024 10 31 00 49  0.0000000  0  9
G02  24744929.299    24744926.942    24744928.809                      377293.858 7    377293.871 6                    293988.193 6        92.000          20.000          28.000                  
G03  21414973.774    21414973.656    21414976.518                   -16564578.711 8 -16564578.715 8                 -12907437.919 9       343.000         304.000         667.000                  
G04  19611035.093    19611034.819    19611036.640                   -19972037.824 9 -19972037.827 9                 -15562621.921 9       651.000         604.000         539.000                  
G06  20436475.631    20436475.466    20436478.791                   -22787734.289 9 -22787734.292 9                 -17756654.673 9       584.000        1034.000        2041.000                  
G09  19715122.686    19715122.340    19715125.236                   -26140013.210 9 -26140013.212 9                 -20368840.535 9       805.000        1917.000        2203.000                  
G11  24501601.615    24501600.403    24501603.919                    -2741694.666 7  -2741694.662 6                  -2136385.061 6        93.000          21.000          28.000                  
G17  21037597.361    21037596.493    21037597.912                   -17376003.868 8 -17376003.872 8                 -13539741.179 9       379.000         313.000         705.000                  
G19  20660133.609    20660131.978    20660131.598                   -22265738.947 9 -22265738.947 8                 -17349921.099 8       587.000         336.000         327.000                  
G31  24558711.571    24558711.233    24558711.671                    -3172099.152 8  -3172099.160 6                  -2471764.371 7       126.000          43.000          77.000                  
> 2024 10 31 00 49 10.0000000  0  9
G02  24784692.141    24784691.945    24784694.484                      586254.880 7    586254.886 6                    456814.767 6        94.000          21.000          26.000                  
G03  21382529.309    21382529.314    21382532.346                   -16735073.924 8 -16735073.924 8                 -13040291.284 9       347.000         300.000         664.000                  
G04  19601895.700    19601895.678    19601897.408                   -20020064.387 9 -20020064.391 9                 -15600045.188 9       657.000         618.000         538.000                  
G06  20411693.928    20411693.674    20411697.053                   -22917963.194 9 -22917963.197 9                 -17858131.705 9       588.000        1055.000        2054.000                  
G09  19742536.690    19742536.380    19742539.156                   -25995951.683 9 -25995951.685 9                 -20256584.787 9       793.000        1854.000        2193.000                  
G11  24468709.068    24468708.789    24468711.611                    -2914539.944 7  -2914539.945 6                  -2271069.613 6        89.000          23.000          32.000                  
G17  21099194.817    21099194.599    21099196.017                   -17052304.251 8 -17052304.253 8                 -13287507.740 9       369.000         292.000         748.000                  
G19  20687007.771    20687006.173    20687005.781                   -22124514.424 9 -22124514.423 8                 -17239876.012 8       597.000         341.000         351.000                  
G31  24499066.138    24499065.801    24499066.629                    -3485534.407 8  -3485534.385 6                  -2715999.479 7       132.000          41.000          76.000                  
