     3.03           OBSERVATION DATA    M (MIXED)           RINEX VERSION / TYPE
BJPP                CNES                20241031 192227 UTC PGM / RUN BY / DATE 
MARKER                                                      MARKER NAME         
SPACECRAFT                                                  MARKER TYPE         
OBSERVER            CNES                                    OBSERVER / AGENCY   
RECNUM              BLACKJACK           RECVERS             REC # / TYPE / VERS 
ANTNUM              BLACKJACK                               ANT # / TYPE        
        0.0000        0.0000        0.0000                  ANTENNA: DELTA H/E/N
G   12 C1C C1W C2W C2X L1C L1W L2X L2W S1C S1W S2W S2X      SYS / # / OBS TYPES 
DBHZ                                                        SIGNAL STRENGTH UNIT
This rinex produced from the following file(s):             COMMENT             
/tmp/mesos_work/slaves/d197f515-9ebc-49f2-8adc-fe7a9d3e6458-COMMENT             
S53/frameworks/8c1b9f46-52ed-4aff-9edf-38d17bf6761e-3405/exeCOMMENT             
cutors/toil-91572/runs/d2b191e3-ed98-41c7-b690-72f3f7f5176e/COMMENT             
642755a4e0b451b8a158b6e011710050/577d/9a38/tmp452czinl2rd9xrCOMMENT             
7h/stga6af20b2-b410-4b55-9b33-e481a2239370/SWOT_IVK_20241031COMMENT             
T185209_20241031T173659_20241031T190652_O_APID1280.PTM_0    COMMENT             
  2024    10    31    17    36   40.0000000                 TIME OF FIRST OBS   
G L1C                                                       SYS / PHASE SHIFT   
G L1W -0.25000                                              SYS / PHASE SHIFT   
G L2W                                                       SYS / PHASE SHIFT   
G L2X  0.25000                                              SYS / PHASE SHIFT   
                                                            END OF HEADER       
> 2024 10 31 17 36 40.0000000  0  7
G10  23699891.765    23699891.127    23699895.853                    -5453189.724 8  -5453189.722 7                  -4249241.523 8       165.000          66.000         159.000                  
G12  21571210.673    21571210.045    21571210.975                   -16473420.127 8 -16473420.129 8                 -12836436.355 9       362.000         315.000         789.000                  
G24  22441069.996    22441069.989    22441073.727                   -13723287.033 8 -13723287.038 8                 -10693475.180 9       258.000         168.000         537.000                  
G25  19364489.170    19364488.384    19364491.992                   -26106828.304 9 -26106828.305 9                 -20342985.845 9       865.000        1824.000        1887.000                  
G28  23343966.811    23343966.392    23343967.468                    -8679443.075 8  -8679443.072 7                  -6763206.506 8       209.000          58.000         132.000                  
G29  20889122.666    20889122.205    20889123.484                   -20191224.477 9 -20191224.478 9                 -15733421.111 9       647.000         924.000        1289.000                  
G32  20820655.294    20820655.053    20820657.930                   -22604596.102 9 -22604596.103 9                 -17613977.292 9       788.000        1565.000        1428.000                  
> 2024 10 31 17 36 50.0000000  0  7
G10  23685705.780    23685705.363    23685709.964                    -5527738.191 8  -5527738.181 7                  -4307331.492 8       165.000          69.000         148.000                  
G12  21616700.171    21616699.901    21616700.593                   -16234371.266 8 -16234371.267 8                 -12650164.660 9       351.000         295.000         791.000                  
G24  22425914.133    22425913.992    22425917.748                   -13802932.318 8 -13802932.319 8                 -10755536.577 9       265.000         172.000         526.000                  
G25  19397822.560    19397821.751    19397825.410                   -25931660.970 9 -25931660.970 9                 -20206491.922 9       849.000        1755.000        1988.000                  
G28  23391612.214    23391611.588    23391612.993                    -8429066.584 8  -8429066.590 7                  -6568108.142 8       205.000          59.000         136.000                  
G29  20836066.602    20836066.186    20836067.337                   -20470036.713 9 -20470036.715 9                 -15950677.458 9       680.000        1019.000        1252.000                  
G32  20849482.279    20849482.013    20849484.801                   -22453110.208 9 -22453110.209 9                 -17495936.461 9       800.000        1620.000        1294.000                  
> 2024 10 31 17 37  0.0000000  0  7
G10  23671694.479    23671694.197    23671699.326                    -5601366.228 8  -5601366.227 7                  -4364704.271 8       165.000          67.000         156.000                  
G12  21662816.323    21662815.992    21662816.779                   -15992029.955 8 -15992029.955 8                 -12461327.426 9       340.000         268.000         787.000                  
G24  22411217.138    22411216.879    22411220.842                   -13880166.376 8 -13880166.376 8                 -10815719.110 9       265.000         171.000         527.000                  
G25  19432139.527    19432138.798    19432142.501                   -25751324.151 9 -25751324.152 9                 -20065969.836 9       821.000        1634.000        2117.000                  
G28  23439618.294    23439618.006    23439619.409                    -8176792.315 8  -8176792.305 7                  -6371531.007 8       209.000          55.000         134.000                  
G29  20783898.851    20783898.399    20783899.604                   -20744180.182 9 -20744180.184 9                 -16164295.811 9       704.000        1094.000        1270.000                  
G32  20878883.224    20878883.021    20878885.726                   -22298607.534 9 -22298607.536 9                 -17375544.901 9       803.000        1626.000        1202.000                  
> 2024 10 31 17 37 10.0000000  0  8
G10  23657858.145    23657857.048    23657862.577                    -5674080.863 8  -5674080.859 7                  -4421365.326 8       165.000          78.000         151.000                  
G12  21709545.037    21709544.746    21709545.633                   -15746468.370 8 -15746468.372 8                 -12269980.902 9       326.000         264.000         750.000                  
G23  24551115.403    24551112.320    24551121.776                     -232445.140 8   -232445.135 6                   -181128.314 6       114.000          28.000          21.000                  
G24  22396976.961    22396976.879    22396980.641                   -13955000.129 8 -13955000.130 8                 -10874031.285 9       271.000         176.000         515.000                  
G25  19467428.176    19467427.352    19467431.176                   -25565881.638 9 -25565881.639 9                 -19921469.296 9       792.000        1517.000        2213.000                  
G28  23487977.548    23487976.534    23487978.070                    -7922666.245 8  -7922666.240 7                  -6173510.931 8       206.000          60.000         129.000                  
G29  20732630.220    20732629.587    20732630.800                   -21013600.037 9 -21013600.039 9                 -16374233.438 9       725.000        1178.000        1298.000                  
G32  20908850.961    20908850.587    20908853.228                   -22141127.699 9 -22141127.702 9                 -17252833.493 9       807.000        1640.000        1138.000                  
> 2024 10 31 17 37 20.0000000  0  8
G10  23644200.205    23644199.975    23644204.936                    -5745852.055 8  -5745852.059 7                  -4477291.259 8       163.000          74.000         153.000                  
G12  21756880.304    21756879.882    21756880.603                   -15497721.911 8 -15497721.913 8                 -12076152.668 9       325.000         248.000         726.000                  
G23  24498479.265    24498477.727    24498485.110                     -509051.831 8   -509051.835 6                   -396666.853 6       118.000          29.000          17.000                  
G24  22383198.472    22383198.121    22383202.066                   -14027407.751 8 -14027407.754 8                 -10930452.978 9       273.000         174.000         524.000                  
G25  19503683.132    19503682.259    19503686.037                   -25375361.253 9 -25375361.253 9                 -19773011.980 9       763.000        1402.000        2232.000                  
G28  23536686.468    23536686.524    23536687.577                    -7666697.370 8  -7666697.368 7                  -5974054.924 8       206.000          57.000         121.000                  
G29  20682277.384    20682276.835    20682278.192                   -21278205.458 9 -21278205.459 9                 -16580419.567 9       732.000        1187.000        1402.000                  
G32  20939384.311    20939384.092    20939386.912                   -21980673.626 9 -21980673.628 9                 -17127804.503 9       802.000        1626.000        1127.000                  
> 2024 10 31 17 37 30.0000000  0  8
G10  23630723.307    23630721.725    23630727.072                    -5816680.628 8  -5816680.623 7                  -4532482.703 8       167.000          69.000         147.000                  
G12  21804808.764    21804808.172    21804809.169                   -15245857.009 8 -15245857.008 8                 -11879894.500 9       325.000         255.000         706.000                  
G23  24445881.327    24445879.652    24445899.988                     -785461.998 8   -785461.987 6                   -612050.448 6       122.000          29.000          12.000                  
G24  22369880.208    22369880.208    22369884.061                   -14097394.697 8 -14097394.698 8                 -10984988.438 9       276.000         189.000         506.000                  
G25  19540892.890    19540892.064    19540895.897                   -25179822.733 9 -25179822.733 9                 -19620644.439 9       739.000        1315.000        2264.000                  
G28  23585739.246    23585738.801    23585739.903                    -7408925.672 8  -7408925.660 7                  -5773194.148 8       204.000          52.000         119.000                  
G29  20632852.107    20632851.717    20632853.073                   -21537936.867 9 -21537936.869 9                 -16782807.772 9       738.000        1205.000        1466.000                  
G32  20970477.337    20970477.056    20970480.059                   -21817279.492 9 -21817279.493 9                 -17000484.560 9       787.000        1559.000        1127.000                  
> 2024 10 31 17 37 40.0000000  0  8
G10  23617424.635    23617424.030    23617429.071                    -5886563.838 8  -5886563.834 7                  -4586937.522 8       170.000          76.000         140.000                  
G12  21853318.603    21853318.209    21853319.082                   -14990936.632 8 -14990936.632 8                 -11681255.457 9       328.000         262.000         684.000                  
G23  24393322.938    24393323.042    24393329.217                    -1061653.456 8  -1061653.446 6                   -827262.748 6       125.000          22.000          32.000                  
G24  22357022.801    22357022.435    22357026.374                   -14164963.112 8 -14164963.113 8                 -11037639.342 8       279.000         189.000         493.000                  
G25  19579046.742    19579045.968    19579049.887                   -24979323.275 9 -24979323.276 9                 -19464411.244 9       704.000        1206.000        2329.000                  
G28  23635127.566    23635127.188    23635128.900                    -7149387.650 8  -7149387.640 7                  -5570957.035 8       199.000          55.000         106.000                  
G29  20584366.225    20584365.794    20584367.291                   -21792731.851 9 -21792731.853 9                 -16981349.421 9       732.000        1192.000        1567.000                  
G32  21002123.897    21002123.680    21002126.727                   -21650976.216 9 -21650976.218 9                 -16870897.766 9       775.000        1508.000        1116.000                  
> 2024 10 31 17 37 50.0000000  0  8
G10  23604310.804    23604310.342    23604316.054                    -5955476.559 8  -5955476.559 7                  -4640636.156 8       173.000          72.000         138.000                  
G12  21902402.500    21902401.862    21902402.662                   -14733001.421 8 -14733001.423 8                 -11480267.208 9       334.000         259.000         659.000                  
G23  24340816.031    24340815.877    24340820.853                    -1337581.470 8  -1337581.478 6                  -1042271.352 6       126.000          29.000          28.000                  
G24  22344628.765    22344628.659    22344632.742                   -14230093.170 8 -14230093.175 8                 -11088390.241 8       277.000         194.000         489.000                  
G25  19618137.716    19618137.102    19618141.050                   -24773898.610 9 -24773898.611 9                 -19304340.235 9       683.000        1125.000        2318.000                  
G28  23684850.528    23684849.558    23684851.094                    -6888097.489 8  -6888097.486 6                  -5367354.647 8       193.000          49.000         101.000                  
G29  20536835.964    20536835.375    20536836.915                   -22042506.368 9 -22042506.369 9                 -17175979.027 9       732.000        1185.000        1644.000                  
G32  21034322.454    21034322.122    21034325.295                   -21481772.666 9 -21481772.668 9                 -16739051.029 9       763.000        1469.000        1074.000                  
> 2024 10 31 17 38  0.0000000  0  8
G10  23591383.549    23591381.869    23591387.413                    -6023419.513 8  -6023419.513 7                  -4693579.150 8       175.000          79.000         141.000                  
G12  21952046.823    21952046.394    21952047.309                   -14472118.438 8 -14472118.438 8                 -11276982.010 9       334.000         269.000         674.000                  
G23  24288362.651    24288362.343    24288367.310                    -1613226.873 8  -1613226.888 6                  -1257060.321 6       133.000          27.000          34.000                  
G24  22332697.622    22332697.919    22332701.985                   -14292791.195 8 -14292791.197 8                 -11137246.064 9       275.000         191.000         504.000                  
G25  19658154.249    19658153.535    19658157.600                   -24563611.376 9 -24563611.377 9                 -19140480.221 9       673.000        1090.000        2327.000                  
G28  23734897.769    23734897.211    23734899.358                    -6625095.348 8  -6625095.348 6                  -5162418.278 8       190.000          49.000         103.000                  
G29  20490271.712    20490271.215    20490272.898                   -22287203.013 9 -22287203.015 9                 -17366651.864 9       729.000        1179.000        1814.000                  
G32  21067066.327    21067065.970    21067069.003                   -21309703.916 9 -21309703.917 9                 -16604971.680 9       767.000        1479.000        1052.000                  
> 2024 10 31 17 38 10.0000000  0  8
G10  23578639.237    23578638.138    23578643.740                    -6090389.441 8  -6090389.431 7                  -4745763.983 8       180.000          76.000         136.000                  
G12  22002240.625    22002240.066    22002240.860                   -14208350.645 8 -14208350.644 8                 -11071448.942 9       337.000         269.000         686.000                  
G23  24235967.858    24235967.198    24235972.641                    -1888566.341 8  -1888566.327 6                  -1471610.832 6       136.000          32.000          28.000                  
G24  22321229.219    22321229.323    22321233.516                   -14353059.909 8 -14353059.909 8                 -11184208.936 9       275.000         184.000         515.000                  
G25  19699084.698    19699084.076    19699088.073                   -24348521.047 9 -24348521.049 9                 -18972877.553 9       672.000        1093.000        2259.000                  
G28  23785264.543    23785264.016    23785266.137                    -6360417.437 8  -6360417.450 6                  -4956176.165 7       187.000          43.000          93.000                  
G29  20444685.403    20444684.876    20444686.600                   -22526761.345 9 -22526761.346 9                 -17553320.829 9       742.000        1217.000        1933.000                  
G32  21100349.180    21100349.016    21100352.052                   -21134801.359 9 -21134801.361 9                 -16468684.181 9       774.000        1489.000        1047.000                  
> 2024 10 31 17 38 20.0000000  0  8
G10  23566084.976    23566084.692    23566090.450                    -6156361.670 8  -6156361.673 7                  -4797171.437 8       174.000          84.000         136.000                  
G12  22052974.936    22052974.765    22052975.690                   -13941739.501 8 -13941739.501 8                 -10863700.298 9       340.000         282.000         716.000                  
G23  24183639.431    24183639.407    24183644.276                    -2163554.849 8  -2163554.853 6                  -1685887.945 6       141.000          35.000          37.000                  
G24  22310226.570    22310226.423    22310230.837                   -14410880.939 8 -14410880.941 8                 -11229264.538 9       277.000         186.000         523.000                  
G25  19740921.862    19740921.119    19740925.213                   -24128666.569 9 -24128666.569 9                 -18801562.577 9       673.000        1100.000        2176.000                  
G28  23835947.288    23835947.235    23835949.088                    -6094078.607 8  -6094078.611 6                  -4748639.858 7       187.000          46.000          93.000                  
G29  20400092.324    20400091.794    20400093.540                   -22761100.212 9 -22761100.213 9                 -17735922.687 9       742.000        1220.000        2048.000                  
G32  21134169.511    21134169.252    21134172.443                   -20957075.273 9 -20957075.274 9                 -16330196.545 9       740.000        1375.000        1063.000                  
> 2024 10 31 17 38 30.0000000  0  8
G10  23553720.585    23553720.707    23553726.325                    -6221336.795 8  -6221336.783 7                  -4847801.955 8       181.000          73.000         138.000                  
G12  22104238.018    22104237.584    22104238.906                   -13672352.321 8 -13672352.323 8                 -10653788.539 9       348.000         292.000         731.000                  
G23  24131382.399    24131381.044    24131386.525                    -2438172.434 8  -2438172.434 6                  -1899876.024 6       146.000          33.000          40.000                  
G24  22299688.380    22299688.137    22299692.465                   -14466261.506 8 -14466261.513 8                 -11272418.504 9       278.000         191.000         542.000                  
G25  19783653.012    19783652.445    19783656.504                   -23904113.000 9 -23904113.001 9                 -18626585.987 9       677.000        1111.000        2050.000                  
G28  23886938.943    23886938.246    23886940.253                    -5826119.038 8  -5826119.030 6                  -4539840.702 7       177.000          37.000          84.000                  
G29  20356502.892    20356502.437    20356504.139                   -22990164.840 9 -22990164.841 9                 -17914414.761 9       750.000        1247.000        2111.000                  
G32  21168520.224    21168519.970    21168523.404                   -20776561.490 9 -20776561.492 9                 -16189536.702 9       691.000        1201.000        1094.000                  
> 2024 10 31 17 38 40.0000000  0  8
G10  23541547.007    23541547.048    23541553.060                    -6285311.732 8  -6285311.730 7                  -4897653.137 8       185.000          85.000         138.000                  
G12  22156017.434    22156016.733    22156018.104                   -13400252.408 8 -13400252.410 8                 -10441762.980 9       351.000         303.000         746.000                  
G23  24079198.956    24079198.619    24079203.880                    -2712395.217 8  -2712395.236 6                  -2113556.454 6       153.000          32.000          43.000                  
G24  22289613.974    22289613.366    22289617.869                   -14519205.583 8 -14519205.585 8                 -11313673.922 9       276.000         183.000         557.000                  
G25  19827266.926    19827266.179    19827270.240                   -23674922.488 9 -23674922.489 9                 -18447996.212 9       682.000        1139.000        1914.000                  
G28  23938232.158    23938231.043    23938233.213                    -5556575.298 8  -5556575.297 6                  -4329807.171 7       171.000          47.000          75.000                  
G29  20313927.995    20313927.543    20313929.318                   -23213897.710 9 -23213897.712 9                 -18088752.226 9       755.000        1257.000        2163.000                  
G32  21203395.415    21203395.068    21203398.702                   -20593292.463 9 -20593292.465 9                 -16046729.941 9       665.000        1124.000        1093.000                  
> 2024 10 31 17 38 50.0000000  0  8
G10  23529569.317    23529568.418    23529574.522                    -6348261.793 8  -6348261.780 7                  -4946705.744 8       183.000          82.000         138.000                  
G12  22208304.693    22208304.389    22208305.668                   -13125481.521 8 -13125481.523 8                 -10227656.169 9       349.000         293.000         755.000                  
G23  24027100.325    24027099.341    24027105.487                    -2986177.518 8  -2986177.516 6                  -2326893.646 6       161.000          37.000          44.000                  
G24  22280005.535    22280005.351    22280010.248                   -14569695.753 8 -14569695.756 8                 -11353017.226 9       273.000         185.000         590.000                  
G25  19871755.216    19871754.324    19871758.511                   -23441136.363 9 -23441136.363 9                 -18265825.456 9       679.000        1120.000        1843.000                  
G28  23989822.970    23989822.732    23989825.371                    -5285462.364 8  -5285462.364 6                  -4118550.946 7       168.000          44.000          68.000                  
G29  20272382.791    20272382.199    20272384.049                   -23432220.711 9 -23432220.712 9                 -18258874.217 9       756.000        1266.000        2224.000                  
G32  21238792.821    21238792.507    21238796.038                   -20407279.287 9 -20407279.288 9                 -15901784.899 9       661.000        1099.000        1060.000                  
> 2024 10 31 17 39  0.0000000  0  8
G10  23517784.462    23517783.199    23517789.185                    -6410197.140 8  -6410197.135 7                  -4994967.704 8       187.000          85.000         130.000                  
G12  22261085.731    22261085.384    22261086.911                   -12848116.340 8 -12848116.341 8                 -10011527.860 9       339.000         276.000         746.000                  
G23  23975087.174    23975087.104    23975092.538                    -3259508.217 8  -3259508.212 6                  -2539878.907 6       164.000          45.000          42.000                  
G24  22270862.208    22270861.428    22270866.300                   -14617749.887 8 -14617749.889 8                 -11390462.339 9       271.000         187.000         609.000                  
G25  19917103.221    19917102.464    19917106.722                   -23202831.488 9 -23202831.489 9                 -18080133.617 9       672.000        1113.000        1734.000                  
G28  24041704.872    24041702.909    24041706.117                    -5012830.093 8  -5012830.089 6                  -3906110.884 7       165.000          37.000          69.000                  
G29  20231874.645    20231874.329    20231876.181                   -23645091.674 9 -23645091.676 9                 -18424747.878 9       756.000        1268.000        2241.000                  
G32  21274703.480    21274703.371    21274706.866                   -20218568.179 9 -20218568.180 9                 -15754737.599 9       649.000        1063.000        1065.000                  
> 2024 10 31 17 39 10.0000000  0  9
G10  23506198.968    23506199.050    23506205.315                    -6471076.328 8  -6471076.329 7                  -5042406.696 8       186.000          83.000         141.000                  
G12  22314356.187    22314355.237    22314357.099                   -12568182.123 8 -12568182.127 8                  -9793397.747 9       325.000         262.000         746.000                  
G15  24967222.840    24967220.661    24967230.949                     -279663.722 7   -279663.718 6                   -217921.652 6        95.000          29.000          18.000                  
G23  23923172.320    23923171.736    23923177.156                    -3532324.399 8  -3532324.426 6                  -2752463.218 6       169.000          44.000          43.000                  
G24  22262187.716    22262187.483    22262192.128                   -14663334.513 8 -14663334.513 8                 -11425983.172 9       277.000         187.000         648.000                  
G25  19963306.510    19963305.603    19963309.785                   -22960033.780 9 -22960033.781 9                 -17890940.887 9       672.000        1103.000        1593.000                  
G28  24093874.104    24093873.872    24093876.527                    -4738676.768 8  -4738676.753 6                  -3692485.654 7       160.000          42.000          67.000                  
G29  20192421.933    20192421.608    20192423.545                   -23852417.993 9 -23852417.995 9                 -18586301.051 9       764.000        1283.000        2247.000                  
G32  21311128.644    21311128.532    21311132.166                   -20027153.978 9 -20027153.979 9                 -15605584.020 9       635.000        1009.000        1046.000                  
> 2024 10 31 17 39 20.0000000  0  9
G10  23494810.527    23494810.056    23494816.138                    -6530928.850 8  -6530928.846 7                  -5089045.694 8       189.000          87.000         139.000                  
G12  22368096.697    22368095.808    22368097.821                   -12285774.775 8 -12285774.780 8                  -9573340.533 9       324.000         256.000         726.000                  
G15  24905450.883    24905450.542    24905453.579                     -604276.920 7   -604276.906 6                   -470867.032 6        88.000          29.000          16.000                  
G23  23871354.270    23871353.950    23871358.929                    -3804633.888 8  -3804633.889 7                  -2964652.671 6       175.000          52.000          46.000                  
G24  22253975.921    22253975.793    22253980.749                   -14706487.508 8 -14706487.509 8                 -11459609.243 9       276.000         192.000         685.000                  
G25  20010345.810    20010345.110    20010349.308                   -22712840.789 9 -22712840.791 9                 -17698323.282 9       659.000        1057.000        1472.000                  
G28  24146320.896    24146320.390    24146323.181                    -4463071.657 8  -4463071.653 6                  -3477729.212 7       161.000          40.000          66.000                  
G29  20154028.262    20154027.804    20154029.756                   -24054179.214 9 -24054179.216 9                 -18743517.784 9       776.000        1343.000        2265.000                  
G32  21348055.883    21348055.449    21348059.200                   -19833102.741 9 -19833102.743 9                 -15454375.625 9       614.000         945.000         990.000                  
> 2024 10 31 17 39 30.0000000  0  9
G10  23483624.395    23483623.816    23483630.608                    -6589712.680 8  -6589712.676 7                  -5134851.940 8       187.000          81.000         148.000                  
G12  22422303.263    22422302.751    22422304.641                   -12000918.747 8 -12000918.746 8                  -9351375.280 9       319.000         244.000         703.000                  
G15  24843789.770    24843788.393    24843795.594                     -928312.517 7   -928312.508 6                   -723362.194 6        80.000          24.000          23.000                  
G23  23819644.395    23819643.511    23819648.558                    -4076372.726 8  -4076372.724 6                  -3176397.387 6       183.000          50.000          50.000                  
G24  22246233.903    22246233.531    22246238.493                   -14747175.524 8 -14747175.524 8                 -11491314.551 9       280.000         183.000         724.000                  
G25  20058216.614    20058215.895    20058220.238                   -22461279.114 9 -22461279.114 9                 -17502301.519 9       649.000        1020.000        1423.000                  
G28  24199044.439    24199043.645    24199046.637                    -4186012.459 8  -4186012.465 6                  -3261839.796 7       156.000          34.000          59.000                  
G29  20116710.838    20116710.466    20116712.394                   -24250284.300 9 -24250284.302 9                 -18896327.135 9       802.000        1432.000        2281.000                  
G32  21385485.365    21385485.165    21385488.993                   -19636409.183 9 -19636409.184 9                 -15301108.289 9       589.000         880.000         937.000                  
> 2024 10 31 17 39 40.0000000  0  9
G10  23472638.728    23472638.121    23472645.295                    -6647445.602 8  -6647445.593 7                  -5179839.271 8       185.000          82.000         141.000                  
G12  22476959.681    22476959.573    22476961.423                   -11713698.178 8 -11713698.178 8                  -9127567.569 9       321.000         246.000         661.000                  
G15  24782239.102    24782237.118    24782244.126                    -1251767.511 7  -1251767.509 6                   -975404.898 6        82.000          27.000          22.000                  
G23  23768042.724    23768043.071    23768048.526                    -4347536.525 8  -4347536.533 7                  -3387693.980 6       186.000          52.000          49.000                  
G24  22238955.248    22238955.067    22238960.106                   -14785425.330 8 -14785425.331 8                 -11521119.959 9       277.000         189.000         745.000                  
G25  20106902.363    20106901.594    20106906.111                   -22205435.705 9 -22205435.704 9                 -17302943.349 9       632.000         966.000        1401.000                  
G28  24252033.500    24252031.987    24252036.069                    -3907556.698 8  -3907556.692 6                  -3044862.191 7       152.000          36.000          54.000                  
G29  20080475.479    20080475.090    20080477.039                   -24440703.465 9 -24440703.467 9                 -19044705.898 9       830.000        1530.000        2291.000                  
G32  21423407.638    21423407.441    21423411.184                   -19437128.068 9 -19437128.069 9                 -15145824.691 9       575.000         827.000         883.000                  
> 2024 10 31 17 39 50.0000000  0  9
G10  23461857.667    23461857.351    23461864.295                    -6704102.802 8  -6704102.798 7                  -5223988.341 8       188.000          90.000         144.000                  
G12  22532058.264    22532058.139    22532060.135                   -11424154.578 8 -11424154.580 8                  -8901949.712 9       324.000         248.000         602.000                  
G15  24720804.776    24720804.460    24720811.641                    -1574596.253 7  -1574596.260 6                  -1226959.610 6        82.000          23.000          26.000                  
G23  23716560.911    23716560.377    23716565.557                    -4618078.115 8  -4618078.111 7                  -3598505.667 6       191.000          51.000          50.000                  
G24  22232144.050    22232143.484    22232148.819                   -14821221.505 8 -14821221.509 8                 -11549013.440 9       284.000         186.000         744.000                  
G25  20156394.096    20156393.406    20156398.107                   -21945355.491 9 -21945355.492 9                 -17100283.781 9       601.000         877.000        1342.000                  
G28  24305285.348    24305284.131    24305288.150                    -3627719.303 8  -3627719.332 6                  -2826808.047 7       145.000          31.000          51.000                  
G29  20045335.524    20045335.263    20045337.223                   -24625365.666 9 -24625365.667 9                 -19188598.708 9       851.000        1618.000        2301.000                  
G32  21461820.019    21461819.764    21461823.643                   -19235271.753 9 -19235271.753 9                 -14988534.450 9       561.000         784.000         844.000                  
> 2024 10 31 17 40  0.0000000  0  9
G10  23451282.389    23451282.131    23451289.161                    -6759677.267 8  -6759677.273 7                  -5267293.677 8       188.000          88.000         154.000                  
G12  22587588.238    22587587.704    22587589.805                   -11132347.250 8 -11132347.249 8                  -8674567.941 9       330.000         258.000         579.000                  
G15  24659497.044    24659496.779    24659503.137                    -1896770.616 7  -1896770.621 6                  -1478004.361 6        81.000          20.000          31.000                  
G23  23665202.327    23665201.892    23665207.387                    -4887967.876 8  -4887967.881 7                  -3808809.363 7       194.000          56.000          56.000                  
G24  22225798.607    22225798.596    22225803.686                   -14854566.646 8 -14854566.648 8                 -11574997.013 9       277.000         194.000         770.000                  
G25  20206680.277    20206679.423    20206684.174                   -21681101.650 9 -21681101.651 9                 -16894372.039 9       579.000         815.000        1317.000                  
G28  24358793.706    24358793.048    24358797.126                    -3346532.989 8  -3346532.999 6                  -2607702.845 7       141.000          33.000          52.000                  
G29  20011301.151    20011300.672    20011302.723                   -24804218.920 9 -24804218.922 9                 -19327965.055 9       864.000        1668.000        2311.000                  
G32  21500716.639    21500716.239    21500720.384                   -19030870.559 9 -19030870.560 9                 -14829261.188 9       539.000         725.000         841.000                  
> 2024 10 31 17 40 10.0000000  0  9
G10  23440913.187    23440912.168    23440919.768                    -6814172.844 8  -6814172.847 7                  -5309758.267 8       190.000          86.000         156.000                  
G12  22643535.285    22643534.728    22643536.922                   -10838346.064 8 -10838346.062 8                  -8445476.662 9       331.000         264.000         543.000                  
G15  24598318.522    24598316.879    24598323.724                    -2218273.246 7  -2218273.242 6                  -1728525.572 6        84.000          28.000          36.000                  
G23  23613971.872    23613971.618    23613976.366                    -5157186.839 8  -5157186.824 6                  -4018590.301 7       200.000          50.000          57.000                  
G24  22219917.345    22219917.073    22219922.371                   -14885474.637 8 -14885474.643 8                 -11599081.492 9       281.000         193.000         781.000                  
G25  20257746.329    20257745.554    20257750.357                   -21412748.703 9 -21412748.705 9                 -16685266.190 9       556.000         761.000        1291.000                  
G28  24412551.674    24412550.465    24412555.127                    -3064041.306 8  -3064041.299 6                  -2387580.496 6       134.000          29.000          47.000                  
G29  19978379.608    19978379.120    19978381.174                   -24977223.402 9 -24977223.404 9                 -19462773.904 9       867.000        1680.000        2266.000                  
G32  21540089.564    21540089.197    21540093.354                   -18823965.873 9 -18823965.874 9                 -14668037.152 9       517.000         677.000         832.000                  
> 2024 10 31 17 40 20.0000000  0  9
G10  23430755.275    23430754.589    23430761.915                    -6867554.012 8  -6867554.017 7                  -5351354.415 8       186.000          96.000         149.000                  
G12  22699893.804    22699893.452    22699895.687                   -10542181.351 8 -10542181.354 8                  -8214699.522 9       328.000         258.000         503.000                  
G15  24537276.645    24537275.784    24537281.602                    -2539047.182 7  -2539047.186 6                  -1978478.959 6        83.000          29.000          30.000                  
G23  23562879.746    23562879.868    23562884.897                    -5425676.415 8  -5425676.413 7                  -4227802.838 7       209.000          60.000          58.000                  
G24  22214504.712    22214504.224    22214509.659                   -14913920.216 8 -14913920.219 8                 -11621247.184 9       282.000         199.000         765.000                  
G25  20309585.845    20309585.042    20309589.880                   -21140332.157 9 -21140332.159 9                 -16472993.899 9       544.000         719.000        1283.000                  
G28  24466555.360    24466554.904    24466560.091                    -2780248.395 8  -2780248.404 6                  -2166444.244 6       128.000          29.000          49.000                  
G29  19946585.602    19946585.306    19946587.428                   -25144301.527 9 -25144301.529 9                 -19592964.797 9       869.000        1676.000        2275.000                  
G32  21579938.646    21579938.167    21579942.364                   -18614559.844 9 -18614559.843 9                 -14504864.011 9       519.000         669.000         826.000                  
> 2024 10 31 17 40 30.0000000  0  9
G10  23420804.722    23420803.961    23420811.468                    -6919845.793 8  -6919845.786 7                  -5392101.618 8       190.000          94.000         152.000                  
G12  22756647.061    22756646.548    22756649.007                   -10243944.021 8 -10243944.024 8                  -7982307.361 8       324.000         255.000         484.000                  
G15  24476372.536    24476372.675    24476377.460                    -2859095.879 7  -2859095.864 6                  -2227867.178 6        85.000          24.000          39.000                  
G23  23511926.092    23511925.952    23511931.822                    -5693438.326 8  -5693438.321 7                  -4436448.289 7       212.000          63.000          71.000                  
G24  22209553.378    22209553.213    22209558.704                   -14939939.020 8 -14939939.017 8                 -11641521.852 9       284.000         204.000         779.000                  
G25  20362180.182    20362179.296    20362184.288                   -20863948.488 9 -20863948.489 9                 -16257630.332 9       522.000         662.000        1291.000                  
G28  24520794.818    24520795.009    24520799.489                    -2495218.832 8  -2495218.865 6                  -1944344.382 6       119.000          31.000          40.000                  
G29  19915922.778    19915922.230    19915924.420                   -25305437.643 9 -25305437.644 9                 -19718525.530 9       866.000        1659.000        2377.000                  
G32  21620251.540    21620251.194    21620255.469                   -18402715.317 9 -18402715.318 9                 -14339790.728 9       515.000         669.000         857.000                  
> 2024 10 31 17 40 40.0000000  0  9
G10  23411069.022    23411068.781    23411076.498                    -6971006.199 8  -6971006.202 7                  -5431967.167 8       194.000          96.000         160.000                  
G12  22813789.679    22813789.500    22813792.052                    -9943657.891 8  -9943657.891 8                  -7748318.728 8       325.000         254.000         462.000                  
G15  24415619.923    24415618.502    24415624.848                    -3178355.534 7  -3178355.516 6                  -2476640.540 6        91.000          29.000          39.000                  
G23  23461123.524    23461123.226    23461128.587                    -5960407.065 8  -5960407.062 7                  -4644475.635 7       218.000          69.000          69.000                  
G24  22205070.269    22205069.966    22205075.501                   -14963499.987 8 -14963499.987 8                 -11659881.300 9       296.000         204.000         768.000                  
G25  20415523.913    20415522.782    20415527.895                   -20583627.492 8 -20583627.494 9                 -16039198.713 9       498.000         608.000        1274.000                  
G28  24575272.859    24575270.255    24575276.635                    -2208950.249 8  -2208950.257 6                  -1721279.040 6       119.000          21.000          38.000                  
G29  19886405.692    19886405.286    19886407.540                   -25460550.522 9 -25460550.524 9                 -19839392.815 9       863.000        1663.000        2416.000                  
G32  21661029.022    21661028.811    21661033.452                   -18188428.298 8 -18188428.299 9                 -14172814.183 9       498.000         627.000         853.000                  
> 2024 10 31 17 40 50.0000000  0  9
G10  23401545.899    23401545.668    23401553.182                    -7021052.891 8  -7021052.890 7                  -5470964.823 8       198.000          98.000         156.000                  
G12  22871307.108    22871306.627    22871309.149                    -9641406.044 8  -9641406.045 8                  -7512798.360 8       323.000         246.000         428.000                  
G15  24355015.771    24355015.588    24355021.640                    -3496821.773 7  -3496821.763 6                  -2724795.626 7        92.000          32.000          52.000                  
G23  23410472.788    23410472.932    23410478.227                    -6226576.566 8  -6226576.567 7                  -4851880.154 7       225.000          71.000          71.000                  
G24  22201048.929    22201048.777    22201054.357                   -14984632.021 8 -14984632.024 8                 -11676348.042 9       295.000         218.000         740.000                  
G25  20469599.290    20469598.598    20469603.674                   -20299458.935 8 -20299458.936 9                 -15817768.984 9       486.000         579.000        1217.000                  
G28  24629972.599    24629971.027    24629976.923                    -1921499.812 8  -1921499.814 6                  -1497292.804 6       115.000          30.000          34.000                  
G29  19858038.917    19858038.317    19858040.609                   -25609620.187 9 -25609620.188 9                 -19955551.083 9       863.000        1653.000        2371.000                  
G32  21702260.755    21702260.550    21702265.436                   -17971754.538 8 -17971754.538 9                 -14003977.823 9       467.000         554.000         810.000                  
> 2024 10 31 17 41  0.0000000  0  9
G10  23392238.595    23392238.465    23392245.799                    -7069963.543 8  -7069963.544 7                  -5509077.197 8       201.000          98.000         163.000                  
G12  22929190.193    22929189.523    22929192.277                    -9337231.438 8  -9337231.439 8                  -7275779.747 8       317.000         244.000         428.000                  
G15  24294573.048    24294572.523    24294579.436                    -3814450.192 8  -3814450.196 6                  -2972297.822 7       103.000          26.000          69.000                  
G23  23359983.335    23359983.244    23359988.525                    -6491900.531 8  -6491900.522 7                  -5058625.793 7       228.000          65.000          79.000                  
G24  22197491.773    22197491.822    22197497.560                   -15003324.308 8 -15003324.307 8                 -11690913.656 9       297.000         212.000         771.000                  
G25  20524397.703    20524396.923    20524402.102                   -20011492.846 8 -20011492.847 9                 -15593380.123 9       467.000         544.000        1256.000                  
G28  24684895.417    24684893.357    24684899.923                    -1632884.660 8  -1632884.652 6                  -1272398.998 6       108.000          25.000          38.000                  
G29  19830833.016    19830832.454    19830834.764                   -25752588.204 9 -25752588.206 9                 -20066954.802 9       868.000        1661.000        2525.000                  
G32  21743943.934    21743943.455    21743948.487                   -17752709.921 8 -17752709.924 9                 -13833294.025 9       448.000         507.000         810.000                  
> 2024 10 31 17 41 10.0000000  0  9
G10  23383146.980    23383146.641    23383154.402                    -7117739.855 8  -7117739.854 7                  -5546305.625 8       198.000          98.000         159.000                  
G12  22987426.565    22987425.587    22987428.617                    -9031200.707 8  -9031200.707 8                  -7037314.776 8       312.000         232.000         426.000                  
G15  24234293.095    24234293.529    24234298.986                    -4131220.179 8  -4131220.187 6                  -3219131.121 7       110.000          32.000          72.000                  
G23  23309659.289    23309658.844    23309663.779                    -6756356.424 8  -6756356.420 7                  -5264694.995 7       230.000          73.000          78.000                  
G24  22194396.851    22194396.648    22194402.454                   -15019590.389 8 -15019590.389 8                 -11703588.688 9       293.000         216.000         768.000                  
G25  20579904.582    20579903.869    20579908.955                   -19719803.544 8 -19719803.546 9                 -15366090.047 9       452.000         502.000        1216.000                  
G28  24740031.623    24740030.056    24740036.711                    -1343145.855 8  -1343145.854 6                  -1046629.631 6       109.000          28.000          25.000                  
G29  19804794.417    19804793.884    19804796.152                   -25889421.849 9 -25889421.851 9                 -20173578.474 9       868.000        1688.000        2625.000                  
G32  21786070.380    21786070.044    21786075.228                   -17531334.471 8 -17531334.473 8                 -13660793.976 9       438.000         479.000         790.000                  
> 2024 10 31 17 41 20.0000000  0  9
G10  23374275.606    23374275.866    23374283.401                    -7164358.050 8  -7164358.046 7                  -5582631.579 8       198.000         100.000         152.000                  
G12  23046008.147    23046007.161    23046010.221                    -8723354.977 8  -8723354.978 8                  -6797435.513 8       300.000         217.000         413.000                  
G15  24174187.141    24174186.149    24174191.450                    -4447085.466 8  -4447085.434 6                  -3465259.452 7       127.000          36.000          80.000                  
G23  23259508.626    23259508.349    23259513.239                    -7019896.059 8  -7019896.060 7                  -5470050.217 7       232.000          71.000          90.000                  
G24  22191765.958    22191765.494    22191771.131                   -15033418.625 8 -15033418.624 8                 -11714364.081 9       293.000         220.000         753.000                  
G25  20636110.598    20636109.764    20636115.017                   -19424440.095 8 -19424440.096 8                 -15135936.993 9       438.000         475.000        1179.000                  
G28  24795379.279    24795377.407    24795384.729                    -1052298.956 8  -1052298.941 6                   -819996.821 6       103.000          23.000          27.000                  
G29  19779933.872    19779933.481    19779935.749                   -26020064.577 9 -26020064.579 9                 -20275378.043 9       866.000        1688.000        2755.000                  
G32  21828637.855    21828637.563    21828642.582                   -17307642.826 8 -17307642.827 8                 -13486489.086 9       427.000         449.000         788.000                  
> 2024 10 31 17 41 30.0000000  0  9
G10  23365625.120    23365623.958    23365631.789                    -7209822.196 8  -7209822.203 7                  -5618058.256 8       202.000          93.000         156.000                  
G12  23104921.019    23104920.870    23104924.261                    -8413762.849 8  -8413762.851 8                  -6556195.426 8       287.000         206.000         407.000                  
G15  24114255.002    24114254.360    24114259.923                    -4762027.439 8  -4762027.440 7                  -3710668.306 7       139.000          51.000          94.000                  
G23  23209536.846    23209536.279    23209541.258                    -7282498.828 8  -7282498.827 7                  -5674675.400 7       236.000          80.000          99.000                  
G24  22189595.406    22189594.990    22189600.488                   -15044825.530 8 -15044825.529 8                 -11723252.703 9       295.000         210.000         729.000                  
G25  20693000.917    20693000.192    20693005.471                   -19125479.611 8 -19125479.613 8                 -14902981.048 9       418.000         426.000        1181.000                  
G28  24850928.562    24850927.284    24850935.130                     -760387.325 8   -760387.337 6                   -592534.348 6       101.000          26.000          27.000                  
G29  19756256.638    19756256.183    19756258.548                   -26144489.345 9 -26144489.347 9                 -20372332.436 9       868.000        1670.000        2982.000                  
G32  21871637.746    21871637.407    21871642.692                   -17081677.598 8 -17081677.600 8                 -13310412.562 9       399.000         408.000         782.000                  
> 2024 10 31 17 41 40.0000000  0  9
G10  23357197.388    23357196.686    23357204.890                    -7254108.557 8  -7254108.552 7                  -5652567.146 8       200.000          94.000         154.000                  
G12  23164159.790    23164159.170    23164162.815                    -8102464.924 8  -8102464.923 8                  -6313626.136 8       275.000         178.000         390.000                  
G15  24054507.303    24054507.222    24054512.331                    -5075999.445 8  -5075999.445 7                  -3955321.342 8       148.000          52.000         112.000                  
G23  23159752.265    23159751.982    23159756.926                    -7544116.112 8  -7544116.110 7                  -5878532.668 7       239.000          75.000         100.000                  
G24  22187887.307    22187887.272    22187892.838                   -15053800.110 8 -15053800.109 8                 -11730245.987 9       294.000         217.000         724.000                  
G25  20750566.666    20750565.706    20750571.161                   -18822971.505 8 -18822971.506 8                 -14667260.710 9       404.000         400.000        1147.000                  
G28  24906677.958    24906676.357    24906684.350                     -467426.390 7   -467426.382 6                   -364254.299 6        95.000          26.000          24.000                  
G29  19733772.781    19733772.278    19733774.702                   -26262643.046 9 -26262643.048 9                 -20464400.276 9       876.000        1703.000        3050.000                  
G32  21915067.697    21915067.098    21915072.406                   -16853453.624 8 -16853453.624 8                 -13132575.961 9       380.000         372.000         750.000                  
> 2024 10 31 17 41 50.0000000  0 10
G10  23348993.586    23348993.299    23349000.841                    -7297218.761 8  -7297218.761 7                  -5686159.536 8       203.000          99.000         144.000                  
G12  23223709.916    23223709.640    23223713.614                    -7789526.924 8  -7789526.926 8                  -6069778.864 8       265.000         170.000         369.000                  
G15  23994948.271    23994948.827    23994953.749                    -5388980.120 8  -5388980.125 7                  -4199201.924 8       160.000          57.000         122.000                  
G18  24299191.682    24299223.981    24299240.033                     -427540.689 7   -427540.715 6                   -333151.465 6        77.000          17.000          16.000                  
G23  23110159.706    23110159.582    23110164.571                    -7804724.478 8  -7804724.480 7                  -6081603.758 7       243.000          78.000          99.000                  
G24  22186639.873    22186639.496    22186645.273                   -15060357.021 8 -15060357.024 8                 -11735355.358 9       293.000         212.000         722.000                  
G25  20808792.643    20808792.146    20808797.728                   -18516990.778 8 -18516990.778 8                 -14428834.425 9       393.000         380.000        1122.000                  
G28  24962619.502    24962617.414    24962626.057                     -173456.912 7   -173456.888 6                   -135188.355 6        90.000          22.000          23.000                  
G29  19712487.121    19712486.699    19712489.168                   -26374499.724 9 -26374499.726 9                 -20551561.337 9       882.000        1735.000        3142.000                  
G32  21958919.233    21958919.127    21958924.418                   -16623011.261 8 -16623011.259 8                 -12953010.732 9       365.000         345.000         707.000                  
> 2024 10 31 17 42  0.0000000  0 10
G10  23341013.815    23341014.191    23341021.690                    -7339149.360 8  -7339149.359 7                  -5718832.729 8       201.000          99.000         149.000                  
G12  23283561.616    23283560.947    23283564.816                    -7475009.148 8  -7475009.148 8                  -5824700.588 8       254.000         151.000         350.000                  
G15  23935583.865    23935583.733    23935588.610                    -5700942.717 8  -5700942.723 7                  -4442289.196 8       171.000          71.000         144.000                  
G18  24224324.105    24224355.446    24224364.348                     -820971.345 7   -820971.321 6                   -639718.250 6        87.000          20.000          19.000                  
G23  23060764.797    23060764.767    23060769.661                    -8064295.174 8  -8064295.171 7                  -6283866.278 8       250.000          88.000         107.000                  
G24  22185850.700    22185849.994    22185855.855                   -15064506.144 8 -15064506.145 8                 -11738588.510 9       296.000         210.000         741.000                  
G25  20867666.655    20867666.199    20867671.711                   -18207607.357 8 -18207607.357 8                 -14187756.681 9       387.000         359.000        1155.000                  
G28  25018746.160    25018743.496    25018751.804                      121485.570 7    121485.567 6                     94635.748 6        86.000          22.000          19.000                  
G29  19692405.381    19692404.964    19692407.409                   -26480030.166 9 -26480030.168 9                 -20633792.856 9       895.000        1784.000        3380.000                  
G32  22003186.881    22003186.359    22003191.903                   -16390385.763 8 -16390385.765 8                 -12771744.357 9       353.000         324.000         720.000                  
> 2024 10 31 17 42 10.0000000  0 10
G10  23333264.744    23333264.100    23333271.850                    -7379875.669 8  -7379875.673 7                  -5750567.503 8       201.000          95.000         145.000                  
G12  23343706.015    23343705.368    23343709.236                    -7158950.261 8  -7158950.268 8                  -5578421.445 8       247.000         142.000         325.000                  
G15  23876422.283    23876421.799    23876426.830                    -6011839.177 8  -6011839.181 7                  -4684545.713 8       180.000          75.000         155.000                  
G18  24149624.944    24149655.963    24149680.568                    -1213515.112 7  -1213515.105 6                   -945598.955 6        91.000          21.000          20.000                  
G23  23011576.449    23011576.655    23011581.406                    -8322777.981 8  -8322777.983 7                  -6485281.095 8       253.000          87.000         116.000                  
G24  22185521.275    22185520.840    22185526.603                   -15066236.363 8 -15066236.364 8                 -11739936.793 9       297.000         218.000         745.000                  
G25  20927179.255    20927178.254    20927183.926                   -17894870.045 8 -17894870.047 8                 -13944065.513 9       373.000         336.000        1142.000                  
G28  25075055.800    25075053.045    25075060.867                      417386.807 7    417386.769 6                    325206.931 6        85.000          23.000          21.000                  
G29  19673536.859    19673536.287    19673538.719                   -26579185.788 9 -26579185.790 9                 -20711056.976 9       909.000        1836.000        3466.000                  
G32  22047866.772    22047866.582    22047872.119                   -16155591.229 8 -16155591.231 8                 -12588787.818 9       344.000         306.000         717.000                  
> 2024 10 31 17 42 20.0000000  0 10
G10  23325743.299    23325742.883    23325750.660                    -7419400.285 8  -7419400.289 7                  -5781365.877 8       201.000          96.000         149.000                  
G12  23404130.854    23404130.472    23404134.332                    -6841416.358 8  -6841416.355 8                  -5330992.941 8       241.000         148.000         299.000                  
G15  23817467.555    23817466.874    23817471.698                    -6321648.547 8  -6321648.546 7                  -4925955.156 8       189.000          85.000         173.000                  
G18  24075103.511    24075133.878    24075142.550                    -1605126.922 7  -1605126.896 6                  -1250748.438 6       100.000          21.000          18.000                  
G23  22962600.265    22962600.407    22962604.950                    -8580149.771 8  -8580149.768 7                  -6685830.171 8       260.000          88.000         118.000                  
G24  22185649.322    22185648.788    22185654.602                   -15065564.215 8 -15065564.218 8                 -11739413.087 9       296.000         215.000         770.000                  
G25  20987314.391    20987313.904    20987319.732                   -17578855.008 8 -17578855.009 8                 -13697820.269 9       357.000         307.000        1119.000                  
G28  25131539.875    25131536.443    25131545.463                      714205.382 7    714205.398 6                    556492.870 6        76.000          23.000          22.000                  
G29  19655884.886    19655884.428    19655886.755                   -26671947.107 9 -26671947.109 9                 -20783338.517 9       919.000        1895.000        3506.000                  
G32  22092951.935    22092951.672    22092957.208                   -15918669.130 8 -15918669.133 8                 -12404173.432 9       343.000         303.000         685.000                  
> 2024 10 31 17 42 30.0000000  0 10
G10  23318450.948    23318450.885    23318458.729                    -7457719.195 8  -7457719.201 7                  -5811224.718 8       198.000         100.000         157.000                  
G12  23464825.284    23464825.130    23464829.081                    -6522466.126 8  -6522466.127 8                  -5082460.814 8       237.000         140.000         279.000                  
G15  23758723.694    23758723.858    23758728.371                    -6630343.086 8  -6630343.086 7                  -5166495.893 8       195.000          88.000         188.000                  
G18  24000767.422    24000798.580    24000822.935                    -1995754.616 7  -1995754.606 6                  -1555136.150 6        96.000          19.000          15.000                  
G23  22913841.087    22913840.811    22913845.493                    -8836380.610 8  -8836380.610 7                  -6885490.188 8       260.000          87.000         122.000                  
G24  22186232.353    22186231.913    22186237.665                   -15062499.806 8 -15062499.807 8                 -11737025.266 9       296.000         212.000         793.000                  
G25  21048061.060    21048060.168    21048066.201                   -17259631.752 8 -17259631.755 8                 -13449075.109 9       354.000         303.000        1093.000                  
G28  25188192.933    25188187.309    25188197.517                     1011906.558 7   1011906.546 6                    788466.612 6        73.000          24.000          18.000                  
G29  19639454.298    19639453.873    19639456.216                   -26758289.907 9 -26758289.908 9                 -20850618.604 9       928.000        1908.000        3552.000                  
G32  22138435.252    22138434.660    22138440.386                   -15679654.292 8 -15679654.292 8                 -12217928.330 9       331.000         284.000         657.000                  
> 2024 10 31 17 42 40.0000000  0 10
G10  23311393.965    23311392.804    23311400.617                    -7494808.315 8  -7494808.315 8                  -5840125.256 8       196.000         103.000         154.000                  
G12  23525782.423    23525781.790    23525786.102                    -6202138.206 8  -6202138.209 8                  -4832855.172 8       229.000         132.000         253.000                  
G15  23700202.054    23700201.872    23700206.607                    -6937874.826 8  -6937874.826 7                  -5406130.556 8       202.000          94.000         202.000                  
G18  23926634.783    23926664.886    23926684.186                    -2385325.499 7  -2385325.505 6                  -1858695.582 6        99.000          21.000          13.000                  
G23  22865308.382    22865308.071    22865312.377                    -9091420.266 8  -9091420.261 7                  -7084222.012 8       264.000          91.000         132.000                  
G24  22187272.349    22187272.057    22187278.080                   -15057033.487 8 -15057033.489 8                 -11732765.812 9       289.000         205.000         810.000                  
G25  21109408.522    21109407.717    21109413.707                   -16937249.727 8 -16937249.728 8                 -13197868.567 9       353.000         301.000        1050.000                  
G28  25245007.963    25245003.766    25245015.375                     1310475.856 7   1310475.848 6                   1021116.627 6        66.000          22.000          18.000                  
G29  19624253.262    19624252.848    19624255.155                   -26838171.824 9 -26838171.826 9                 -20912864.228 9       947.000        1992.000        3542.000                  
G32  22184313.838    22184313.492    22184318.915                   -15438561.500 8 -15438561.500 8                 -12030064.041 9       309.000         237.000         610.000                  
> 2024 10 31 17 42 50.0000000  0 10
G10  23304568.598    23304568.570    23304576.326                    -7530669.938 8  -7530669.932 7                  -5868069.285 8       204.000          96.000         151.000                  
G12  23586989.214    23586988.521    23586992.918                    -5880497.143 8  -5880497.147 8                  -4582226.304 8       225.000         121.000         241.000                  
G15  23641906.568    23641905.693    23641910.203                    -7244222.004 8  -7244222.006 7                  -5644842.178 8       210.000         100.000         209.000                  
G18  23852711.867    23852741.513    23852763.484                    -2773792.788 8  -2773792.773 6                  -2161399.549 6       104.000          19.000          20.000                  
G23  22817007.055    22817006.594    22817011.022                    -9345244.702 8  -9345244.701 7                  -7282006.905 8       266.000          97.000         127.000                  
G24  22188766.554    22188766.204    22188772.034                   -15049182.252 8 -15049182.254 8                 -11726647.964 9       289.000         207.000         812.000                  
G25  21171342.426    21171341.906    21171347.869                   -16611784.721 8 -16611784.720 8                 -12944259.692 9       344.000         293.000         972.000                  
G28  25301982.985    25301978.332    25301987.986                     1609872.428 7   1609872.468 6                   1254411.339 6        62.000          20.000          18.000                  
G29  19610284.388    19610283.962    19610286.238                   -26911578.876 9 -26911578.878 9                 -20970064.494 9       973.000        2083.000        3592.000                  
G32  22230579.881    22230579.444    22230585.019                   -15195431.962 8 -15195431.966 8                 -11840612.678 9       289.000         218.000         590.000                  
> 2024 10 31 17 43  0.0000000  0  9
G10  23297978.942    23297978.546    23297986.278                    -7565299.812 8  -7565299.809 7                  -5895053.475 8       202.000         100.000         149.000                  
G12  23648434.906    23648433.890    23648438.594                    -5557600.599 8  -5557600.599 8                  -4330619.146 8       221.000         123.000         224.000                  
G15  23583841.295    23583840.463    23583844.659                    -7549356.092 8  -7549356.092 8                  -5882608.529 8       215.000         104.000         220.000                  
G18  23779008.519    23779038.491    23779046.194                    -3161102.673 8  -3161102.671 6                  -2463200.606 6       111.000          24.000          16.000                  
G23  22768943.252    22768942.176    22768946.605                    -9597823.145 8  -9597823.142 7                  -7478820.884 8       267.000          96.000         129.000                  
G24  22190711.988    22190711.892    22190717.861                   -15038956.797 8 -15038956.797 8                 -11718680.057 9       291.000         205.000         831.000                  
G25  21233850.622    21233849.465    21233855.497                   -16283305.938 8 -16283305.937 8                 -12688302.416 9       327.000         264.000         945.000                  
G29  19597551.081    19597550.719    19597553.057                   -26978492.302 9 -26978492.304 9                 -21022204.782 9       992.000        2193.000        3791.000                  
G32  22277226.925    22277226.615    22277232.273                   -14950300.341 8 -14950300.344 8                 -11649601.240 9       289.000         210.000         587.000                  
> 2024 10 31 17 43 10.0000000  0  9
G10  23291629.451    23291628.538    23291636.227                    -7598669.086 8  -7598669.089 8                  -5921055.350 8       213.000         103.000         152.000                  
G12  23710112.951    23710112.206    23710116.932                    -5233481.230 8  -5233481.226 8                  -4078059.128 8       213.000         105.000         205.000                  
G15  23526016.176    23526016.049    23526019.865                    -7853223.854 8  -7853223.861 8                  -6119388.126 8       219.000         112.000         231.000                  
G18  23705540.493    23705569.027    23705572.700                    -3547176.277 8  -3547176.285 6                  -2764043.931 6       116.000          20.000          19.000                  
G23  22721125.590    22721125.728    22721129.950                    -9849099.987 8  -9849099.987 8                  -7674620.618 8       265.000         102.000         134.000                  
G24  22193112.663    22193112.172    22193118.077                   -15026343.487 8 -15026343.487 8                 -11708851.465 9       295.000         210.000         846.000                  
G25  21296923.190    21296921.994    21296928.255                   -15951857.852 8 -15951857.850 8                 -12430031.379 9       319.000         255.000         886.000                  
G29  19586061.454    19586060.956    19586063.285                   -27038871.054 9 -27038871.057 9                 -21069253.106 9      1011.000        2276.000        3819.000                  
G32  22324253.202    22324253.032    22324258.606                   -14703176.648 8 -14703176.648 8                 -11457037.517 9       285.000         209.000         583.000                  
> 2024 10 31 17 43 20.0000000  0  9
G10  23285514.669    23285514.371    23285521.875                    -7630799.034 8  -7630799.039 8                  -5946091.479 8       214.000         118.000         140.000                  
G12  23772008.428    23772007.738    23772011.878                    -4908221.184 8  -4908221.178 8                  -3824610.261 8       210.000         103.000         183.000                  
G15  23468433.149    23468433.000    23468436.739                    -8155821.924 8  -8155821.925 8                  -6355178.346 8       223.000         111.000         233.000                  
G18  23632314.468    23632340.796    23632321.988                    -3931984.405 8  -3931984.397 6                  -3063900.185 7       126.000          22.000          57.000                  
G23  22673557.719    22673557.642    22673561.894                   -10099069.599 8 -10099069.589 7                  -7869401.711 8       269.000          92.000         148.000                  
G24  22195960.309    22195959.945    22195965.627                   -15011379.041 8 -15011379.041 8                 -11697190.793 9       293.000         216.000         844.000                  
G25  21360542.646    21360541.749    21360547.826                   -15617534.972 8 -15617534.974 8                 -12169520.233 9       313.000         242.000         836.000                  
G29  19575813.134    19575812.658    19575814.918                   -27092726.106 9 -27092726.108 9                 -21111218.014 9      1026.000        2331.000        3813.000                  
G32  22371647.147    22371646.643    22371652.292                   -14454121.073 8 -14454121.076 8                 -11262968.411 9       277.000         192.000         547.000                  
> 2024 10 31 17 43 30.0000000  0  9
G10  23279642.484    23279642.201    23279649.309                    -7661657.714 8  -7661657.709 8                  -5970136.965 8       218.000         115.000         148.000                  
G12  23834115.228    23834114.261    23834119.282                    -4581849.643 8  -4581849.653 8                  -3570295.290 8       204.000         101.000         167.000                  
G15  23411102.478    23411102.548    23411106.208                    -8457093.604 8  -8457093.603 8                  -6589935.001 8       226.000         116.000         236.000                  
G18  23559343.781    23559367.447    23559348.557                    -4315444.113 8  -4315444.093 6                  -3362699.337 7       144.000          22.000          72.000                  
G23  22626249.081    22626249.619    22626253.778                   -10347672.902 8 -10347672.900 8                  -8063118.137 8       277.000         106.000         152.000                  
G24  22199258.275    22199257.841    22199263.748                   -14994047.255 8 -14994047.257 8                 -11683685.419 9       294.000         206.000         857.000                  
G25  21424701.354    21424700.410    21424706.775                   -15280378.430 8 -15280378.427 8                 -11906801.018 9       301.000         219.000         783.000                  
G29  19566813.894    19566813.502    19566815.707                   -27140016.958 9 -27140016.960 9                 -21148067.951 9      1036.000        2386.000        3867.000                  
G32  22419407.186    22419406.791    22419412.372                   -14203140.468 8 -14203140.471 8                 -11067399.260 9       271.000         187.000         526.000                  
> 2024 10 31 17 43 40.0000000  0  9
G10  23274011.801    23274011.300    23274018.553                    -7691246.957 8  -7691246.959 8                  -5993193.237 8       215.000         122.000         147.000                  
G12  23896421.692    23896420.976    23896425.670                    -4254428.819 8  -4254428.821 7                  -3315162.669 8       199.000          92.000         148.000                  
G15  23354028.996    23354028.821    23354032.460                    -8757015.849 8  -8757015.850 8                  -6823640.154 8       224.000         118.000         241.000                  
G18  23486639.973    23486655.320    23486643.287                    -4697505.867 8  -4697505.852 6                  -3660409.158 7       158.000          25.000          78.000                  
G23  22579206.838    22579206.703    22579210.416                   -10594884.452 8 -10594884.449 8                  -8255750.073 8       276.000         107.000         158.000                  
G24  22203003.274    22203003.086    22203008.849                   -14974365.859 8 -14974365.857 8                 -11668349.155 9       294.000         213.000         858.000                  
G25  21489385.406    21489384.374    21489390.754                   -14940463.006 8 -14940463.006 8                 -11641932.009 9       290.000         211.000         731.000                  
G29  19559064.705    19559064.295    19559066.361                   -27180739.183 9 -27180739.185 9                 -21179799.464 9      1037.000        2382.000        3771.000                  
G32  22467525.975    22467525.584    22467531.126                   -13950275.503 8 -13950275.506 8                 -10870361.750 9       270.000         190.000         518.000                  
> 2024 10 31 17 43 50.0000000  0  9
G10  23268622.598    23268622.459    23268629.662                    -7719563.969 8  -7719563.966 8                  -6015258.116 8       220.000         112.000         142.000                  
G12  23958917.122    23958916.321    23958921.004                    -3926015.884 8  -3926015.883 7                  -3059256.956 8       195.000          80.000         135.000                  
G15  23297217.412    23297217.138    23297220.693                    -9055560.864 8  -9055560.870 8                  -7056272.130 8       223.000         117.000         254.000                  
G18  23414212.123    23414213.988    23414215.344                    -5078114.977 8  -5078114.967 6                  -3956987.069 7       179.000          45.000          83.000                  
G23  22532433.710    22532433.978    22532437.692                   -10840673.961 8 -10840673.956 8                  -8447273.919 8       279.000         102.000         167.000                  
G24  22207193.605    22207192.879    22207198.494                   -14952348.272 8 -14952348.273 8                 -11651192.460 9       296.000         217.000         872.000                  
G25  21554580.916    21554579.888    21554586.233                   -14597858.635 8 -14597858.637 8                 -11374967.694 9       285.000         201.000         657.000                  
G29  19552566.751    19552566.339    19552568.376                   -27214885.661 9 -27214885.663 9                 -21206407.008 9      1027.000        2342.000        3674.000                  
G32  22515996.474    22515996.070    22516001.479                   -13695562.142 8 -13695562.141 8                 -10671883.900 9       273.000         194.000         541.000                  
> 2024 10 31 17 44  0.0000000  0  9
G10  23263480.757    23263480.108    23263487.230                    -7746585.229 8  -7746585.229 8                  -6036313.275 8       223.000         124.000         147.000                  
G12  24021593.940    24021593.520    24021598.281                    -3596646.928 8  -3596646.934 7                  -2802606.259 8       185.000          86.000         123.000                  
G15  23240676.728    23240676.863    23240680.417                    -9352679.933 8  -9352679.936 8                  -7287792.983 8       222.000         112.000         261.000                  
G18  23342074.465    23342074.540    23342078.663                    -5457195.614 8  -5457195.607 6                  -4252373.969 7       186.000          48.000          97.000                  
G23  22485942.060    22485941.628    22485945.676                   -11084990.207 8 -11084990.198 8                  -8637649.754 8       284.000         106.000         171.000                  
G24  22211828.148    22211828.419    22211834.132                   -14927987.346 8 -14927987.346 8                 -11632209.758 9       295.000         209.000         869.000                  
G25  21620278.904    21620278.070    21620284.117                   -14252614.368 8 -14252614.366 8                 -11105946.288 9       284.000         191.000         600.000                  
G29  19547325.089    19547324.539    19547326.626                   -27242430.742 9 -27242430.744 9                 -21227870.593 9      1012.000        2254.000        3549.000                  
G32  22564815.556    22564815.393    22564820.783                   -13439015.545 8 -13439015.548 8                 -10471977.527 9       275.000         197.000         569.000                  
> 2024 10 31 17 44 10.0000000  0  9
G10  23258584.637    23258583.888    23258591.213                    -7772312.633 8  -7772312.631 8                  -6056360.204 8       223.000         125.000         140.000                  
G12  24084441.644    24084440.654    24084445.453                    -3266383.093 8  -3266383.091 7                  -2545258.219 8       175.000          77.000         120.000                  
G15  23184412.495    23184412.284    23184415.824                    -9648349.561 8  -9648349.554 8                  -7518184.397 8       220.000         112.000         291.000                  
G18  23270237.505    23270238.285    23270241.485                    -5834696.925 8  -5834696.914 6                  -4546530.226 8       194.000          49.000         113.000                  
G23  22439734.878    22439734.766    22439738.680                   -11327807.287 8 -11327807.282 8                  -8826857.405 8       286.000         105.000         173.000                  
G24  22216906.276    22216906.331    22216912.052                   -14901301.629 8 -14901301.631 8                 -11611415.510 9       296.000         214.000         870.000                  
G25  21686464.993    21686464.219    21686470.239                   -13904804.403 8 -13904804.403 8                 -10834925.617 9       275.000         184.000         553.000                  
G29  19543339.164    19543338.667    19543340.695                   -27263376.208 9 -27263376.210 9                 -21244191.611 9       996.000        2212.000        3422.000                  
G32  22613975.709    22613975.413    22613981.259                   -13180676.282 8 -13180676.284 8                 -10270674.241 9       266.000         187.000         597.000                  
> 2024 10 31 17 44 20.0000000  0  9
G10  23253934.976    23253934.849    23253941.640                    -7796744.024 8  -7796744.023 8                  -6075397.222 8       221.000         123.000         140.000                  
G12  24147448.372    24147447.747    24147453.048                    -2935280.943 8  -2935280.951 7                  -2287256.896 8       168.000          73.000         107.000                  
G15  23128428.967    23128428.904    23128432.365                    -9942542.085 8  -9942542.086 8                  -7747424.826 8       222.000         113.000         302.000                  
G18  23198712.392    23198712.393    23198715.802                    -6210563.530 8  -6210563.523 7                  -4839412.700 8       194.000          55.000         122.000                  
G23  22393819.275    22393819.051    22393822.383                   -11569094.984 8 -11569094.976 8                  -9014873.313 8       292.000         112.000         174.000                  
G24  22222423.903    22222424.107    22222429.560                   -14872305.763 8 -14872305.763 8                 -11588821.127 9       302.000         226.000         860.000                  
G25  21753125.451    21753125.257    21753131.244                   -13554498.667 8 -13554498.669 8                 -10561960.162 8       259.000         167.000         484.000                  
G29  19540609.290    19540608.695    19540610.761                   -27277721.710 9 -27277721.712 9                 -21255369.793 9       976.000        2126.000        3342.000                  
G32  22663470.094    22663469.943    22663475.702                   -12920580.745 8 -12920580.749 8                 -10068002.399 9       265.000         178.000         606.000                  
> 2024 10 31 17 44 30.0000000  0  9
G10  23249536.597    23249536.435    23249542.798                    -7819855.645 8  -7819855.645 8                  -6093405.823 8       220.000         120.000         151.000                  
G12  24210608.744    24210607.798    24210612.945                    -2603375.000 8  -2603374.993 7                  -2028629.214 8       165.000          62.000         101.000                  
G15  23072735.960    23072735.850    23072739.418                   -10235208.047 8 -10235208.046 8                  -7975475.739 8       226.000         114.000         317.000                  
G18  23127512.737    23127512.258    23127515.906                    -6584718.018 8  -6584718.005 7                  -5130961.073 8       204.000          56.000         132.000                  
G23  22348203.528    22348203.701    22348207.494                   -11808801.350 8 -11808801.347 8                  -9201657.022 8       297.000         122.000         178.000                  
G24  22228382.885    22228382.614    22228387.963                   -14840993.054 8 -14840993.056 8                 -11564421.399 9       303.000         220.000         853.000                  
G25  21820252.536    21820251.672    21820258.111                   -13201745.220 8 -13201745.228 8                 -10287087.372 8       245.000         149.000         429.000                  
G29  19539138.744    19539138.429    19539140.503                   -27285447.506 9 -27285447.508 9                 -21261389.755 9       970.000        2083.000        3380.000                  
G32  22713295.943    22713295.692    22713301.586                   -12658743.658 8 -12658743.664 8                  -9863973.471 9       265.000         179.000         609.000                  
> 2024 10 31 17 44 40.0000000  0  9
G10  23245388.895    23245388.473    23245395.243                    -7841649.962 8  -7841649.964 8                  -6110387.939 8       221.000         127.000         141.000                  
G12  24273909.949    24273908.815    24273914.326                    -2270725.772 8  -2270725.773 7                  -1769422.324 8       149.000          56.000         101.000                  
G15  23017338.702    23017337.857    23017341.236                   -10526324.045 8 -10526324.045 8                  -8202318.896 8       227.000         118.000         336.000                  
G18  23056648.500    23056648.263    23056651.769                    -6957108.800 8  -6957108.796 7                  -5421135.150 8       221.000          75.000         149.000                  
G23  22302894.660    22302894.816    22302897.934                   -12046900.550 8 -12046900.546 8                  -9387188.400 8       303.000         115.000         180.000                  
G24  22234778.011    22234778.133    22234783.409                   -14807383.259 8 -14807383.260 8                 -11538231.720 9       303.000         227.000         835.000                  
G25  21887831.169    21887830.311    21887836.552                   -12846618.070 8 -12846618.069 8                 -10010364.913 8       230.000         132.000         371.000                  
G29  19538926.492    19538926.188    19538928.171                   -27286562.102 9 -27286562.104 9                 -21262258.130 9       962.000        2055.000        3354.000                  
G32  22763445.583    22763445.360    22763451.279                   -12395205.927 8 -12395205.929 8                  -9658619.335 9       267.000         178.000         615.000                  
> 2024 10 31 17 44 50.0000000  0  9
G10  23241492.312    23241492.099    23241498.516                    -7862124.858 8  -7862124.854 8                  -6126341.920 8       218.000         121.000         151.000                  
G12  24337341.491    24337340.916    24337346.524                    -1937388.617 8  -1937388.622 7                  -1509679.357 7       144.000          55.000          89.000                  
G15  22962240.656    22962240.510    22962243.615                   -10815862.045 8 -10815862.047 8                  -8427932.458 8       230.000         119.000         331.000                  
G18  22986130.912    22986130.841    22986134.266                    -7327679.244 8  -7327679.237 7                  -5709890.810 8       241.000          79.000         153.000                  
G23  22257898.004    22257897.232    22257900.743                   -12283361.970 8 -12283361.972 8                  -9571443.594 8       304.000         127.000         186.000                  
G24  22241608.266    22241607.788    22241613.214                   -14771491.675 8 -14771491.677 8                 -11510264.019 9       299.000         221.000         818.000                  
G25  21955848.189    21955847.312    21955853.518                   -12489186.384 8 -12489186.384 8                  -9731846.693 8       221.000         127.000         327.000                  
G29  19539971.416    19539970.873    19539972.865                   -27281071.513 9 -27281071.514 9                 -21257979.606 9       957.000        2040.000        3376.000                  
G32  22813911.844    22813911.661    22813917.517                   -12130003.743 8 -12130003.746 8                  -9451968.200 9       275.000         191.000         612.000                  
> 2024 10 31 17 45  0.0000000  0  9
G10  23237851.083    23237850.890    23237857.387                    -7881256.848 8  -7881256.848 8                  -6141249.489 8       218.000         122.000         144.000                  
G12  24400898.012    24400897.903    24400903.275                    -1603397.057 8  -1603397.068 6                  -1249426.424 7       136.000          43.000          85.000                  
G15  22907452.846    22907452.617    22907455.408                   -11103772.360 8 -11103772.362 8                  -8652277.714 8       236.000         127.000         341.000                  
G18  22915975.167    22915974.753    22915977.906                    -7696350.978 8  -7696350.979 7                  -5997166.990 8       253.000          91.000         173.000                  
G23  22213222.114    22213221.484    22213224.779                   -12518133.463 8 -12518133.458 8                  -9754381.978 8       307.000         124.000         197.000                  
G24  22248872.980    22248872.814    22248878.185                   -14733312.520 8 -14733312.520 8                 -11480513.792 9       292.000         215.000         784.000                  
G25  22024294.874    22024293.864    22024299.900                   -12129497.581 8 -12129497.581 8                  -9451569.668 8       212.000         108.000         291.000                  
G29  19542275.595    19542275.064    19542276.990                   -27268962.380 9 -27268962.382 9                 -21248543.775 9       963.000        2047.000        3466.000                  
G32  22864692.405    22864691.894    22864697.625                   -11863151.837 8 -11863151.841 8                  -9244031.549 9       283.000         203.000         607.000                  
> 2024 10 31 17 45 10.0000000  0  9
G10  23234464.989    23234464.812    23234471.426                    -7899048.592 8  -7899048.589 8                  -6155112.721 8       219.000         122.000         152.000                  
G12  24464567.867    24464567.285    24464573.605                    -1268810.426 8  -1268810.435 6                   -988709.773 7       128.000          46.000          76.000                  
G15  22852978.986    22852979.216    22852981.859                   -11390031.390 8 -11390031.386 8                  -8875336.275 8       240.000         129.000         349.000                  
G18  22846189.743    22846189.746    22846192.918                    -8063071.341 8  -8063071.335 8                  -6282922.646 8       269.000         104.000         190.000                  
G23  22168872.515    22168872.316    22168875.283                   -12751188.872 8 -12751188.872 8                  -9935983.178 8       312.000         130.000         207.000                  
G24  22256569.573    22256569.287    22256574.599                   -14692866.240 8 -14692866.242 8                 -11448996.981 9       289.000         194.000         768.000                  
G25  22093156.575    22093155.925    22093161.757                   -11767624.944 8 -11767624.954 7                  -9169590.946 8       197.000          95.000         269.000                  
G29  19545836.440    19545835.979    19545837.757                   -27250249.642 9 -27250249.645 9                 -21233962.280 9       959.000        2053.000        3584.000                  
G32  22915778.600    22915778.356    22915783.991                   -11594690.949 8 -11594690.948 8                  -9034841.133 9       296.000         229.000         618.000                  
> 2024 10 31 17 45 20.0000000  0  9
G10  23231334.282    23231334.439    23231340.760                    -7915498.248 8  -7915498.253 8                  -6167930.185 8       217.000         115.000         151.000                  
G12  24528340.896    24528340.552    24528345.929                     -933683.110 8   -933683.114 6                   -727571.797 7       123.000          36.000          70.000                  
G15  22798825.031    22798825.270    22798827.767                   -11674611.004 8 -11674611.004 8                  -9097086.221 8       249.000         145.000         359.000                  
G18  22776787.241    22776786.986    22776790.294                    -8427782.830 8  -8427782.829 7                  -6567112.980 8       265.000          96.000         203.000                  
G23  22124855.421    22124855.606    22124858.270                   -12982497.436 8 -12982497.430 8                 -10116223.218 8       313.000         128.000         221.000                  
G24  22264694.456    22264694.050    22264699.308                   -14650169.088 8 -14650169.092 8                 -11415726.248 9       278.000         193.000         753.000                  
G25  22162420.699    22162420.620    22162426.326                   -11403636.920 8 -11403636.927 7                  -8885963.865 8       182.000          89.000         244.000                  
G29  19550651.404    19550650.963    19550652.795                   -27224945.976 9 -27224945.978 9                 -21214245.002 9       968.000        2069.000        3683.000                  
G32  22967164.533    22967164.164    22967169.524                   -11324657.290 8 -11324657.293 8                  -8824425.174 9       313.000         244.000         599.000                  
> 2024 10 31 17 45 30.0000000  0  9
G10  23228463.587    23228463.711    23228469.708                    -7930582.759 8  -7930582.757 8                  -6179683.906 8       221.000         126.000         162.000                  
G12  24592210.051    24592210.080    24592215.060                     -598047.725 8   -598047.718 6                   -466037.902 7       120.000          38.000          77.000                  
G15  22745001.013    22744999.976    22745002.772                   -11957461.643 8 -11957461.646 8                  -9317488.934 8       254.000         156.000         388.000                  
G18  22707782.229    22707781.621    22707784.935                    -8790406.302 8  -8790406.288 7                  -6849676.309 8       262.000          89.000         228.000                  
G23  22081181.107    22081180.859    22081183.698                   -13212007.039 8 -13212007.033 8                 -10295061.492 8       308.000         115.000         223.000                  
G24  22273248.023    22273248.288    22273253.231                   -14605216.197 8 -14605216.195 8                 -11380697.803 9       281.000         184.000         747.000                  
G25  22232080.194    22232078.400    22232084.762                   -11037580.380 8 -11037580.379 7                  -8600724.953 8       172.000          82.000         216.000                  
G29  19556721.944    19556721.493    19556723.322                   -27193044.642 9 -27193044.644 9                 -21189386.689 9       974.000        2108.000        3705.000                  
G32  23018846.507    23018846.234    23018851.643                   -11053065.697 8 -11053065.699 8                  -8612795.233 9       322.000         255.000         576.000                  
> 2024 10 31 17 45 40.0000000  0  9
G10  23225852.372    23225852.062    23225858.242                    -7944304.931 8  -7944304.927 8                  -6190376.090 8       217.000         120.000         174.000                  
G12  24656164.998    24656164.910    24656169.964                     -261962.252 8   -261962.258 6                   -204153.281 7       109.000          37.000          66.000                  
G15  22691508.983    22691508.681    22691511.478                   -12238559.398 8 -12238559.398 8                  -9536525.789 8       261.000         162.000         406.000                  
G18  22639184.287    22639184.018    22639186.962                    -9150888.052 8  -9150888.050 7                  -7130570.797 8       261.000          97.000         244.000                  
G23  22037853.967    22037853.830    22037856.448                   -13439691.266 8 -13439691.271 8                 -10472477.424 8       301.000         112.000         240.000                  
G24  22282227.934    22282227.606    22282232.682                   -14558028.719 8 -14558028.723 8                 -11343928.133 9       272.000         175.000         741.000                  
G25  22302117.755    22302116.760    22302122.899                   -10669527.625 8 -10669527.624 7                  -8313930.552 8       172.000          73.000         199.000                  
G29  19564044.076    19564043.469    19564045.223                   -27154566.830 9 -27154566.832 9                 -21159403.859 9       973.000        2123.000        3659.000                  
G32  23070817.585    23070817.183    23070822.333                   -10779956.645 8 -10779956.647 8                  -8399982.855 9       320.000         262.000         557.000                  
> 2024 10 31 17 45 50.0000000  0  9
G10  23223500.969    23223499.957    23223506.060                    -7956663.209 8  -7956663.209 8                  -6200005.532 8       214.000         111.000         168.000                  
G12  24720194.913    24720194.924    24720200.934                       74520.098 8     74520.128 6                     58040.609 7       107.000          34.000          57.000                  
G15  22638356.651    22638356.388    22638358.988                   -12517875.921 8 -12517875.921 8                  -9754174.697 8       267.000         167.000         431.000                  
G18  22571005.385    22571005.064    22571007.739                    -9509169.742 8  -9509169.734 7                  -7409750.981 8       262.000          97.000         261.000                  
G23  21994879.679    21994879.722    21994882.564                   -13665519.270 8 -13665519.263 8                 -10648446.972 8       291.000         112.000         252.000                  
G24  22291629.271    22291628.570    22291633.941                   -14508623.645 8 -14508623.647 8                 -11305430.479 9       271.000         174.000         720.000                  
G25  22372522.531    22372521.700    22372527.810                   -10299546.289 8 -10299546.293 7                  -8025633.359 8       160.000          68.000         179.000                  
G29  19572613.841    19572613.309    19572615.073                   -27109531.510 9 -27109531.511 9                 -21124311.292 9       974.000        2116.000        3686.000                  
G32  23123069.960    23123069.773    23123075.145                   -10505366.239 8 -10505366.240 8                  -8186016.178 9       311.000         248.000         537.000                  
> 2024 10 31 17 46  0.0000000  0  9
G10  23221411.227    23221412.032    23221417.736                    -7967634.660 8  -7967634.659 8                  -6208554.352 8       210.000         117.000         176.000                  
G12  24784296.684    24784294.952    24784300.946                      411367.793 7    411367.791 6                    320519.165 7       100.000          31.000          58.000                  
G15  22585552.831    22585552.327    22585554.933                   -12795361.422 8 -12795361.420 8                  -9970396.853 8       273.000         178.000         446.000                  
G18  22503260.300    22503260.261    22503262.644                    -9865171.284 8  -9865171.278 7                  -7687154.446 8       263.000          97.000         267.000                  
G23  21952269.316    21952269.071    21952271.898                   -13889438.705 8 -13889438.703 8                 -10822929.345 8       289.000         115.000         263.000                  
G24  22301453.027    22301452.931    22301457.992                   -14456996.772 8 -14456996.775 8                 -11265201.569 9       268.000         182.000         722.000                  
G25  22443285.728    22443285.221    22443291.571                    -9927682.226 8  -9927682.217 7                  -7735869.108 8       150.000          57.000         158.000                  
G29  19582431.656    19582431.115    19582432.828                   -27057938.290 9 -27057938.292 9                 -21084108.684 9       971.000        2102.000        3649.000                  
G32  23175601.735    23175601.615    23175606.964                   -10229309.044 8 -10229309.044 8                  -7970906.559 9       302.000         238.000         516.000                  
> 2024 10 31 17 46 10.0000000  0  9
G10  23219587.753    23219587.243    23219593.297                    -7977221.910 8  -7977221.907 8                  -6216024.602 8       207.000         104.000         167.000                  
G12  24848455.248    24848454.097    24848459.648                      748524.372 7    748524.361 6                    583238.399 6        97.000          31.000          46.000                  
G15  22533102.520    22533101.421    22533103.937                   -13070991.476 8 -13070991.479 8                 -10185173.237 8       280.000         186.000         458.000                  
G18  22435959.828    22435959.138    22435961.964                   -10218837.751 8 -10218837.746 7                  -7962738.393 8       262.000          95.000         275.000                  
G23  21910026.967    21910026.714    21910029.408                   -14111422.610 8 -14111422.609 8                 -10995903.541 8       291.000         107.000         275.000                  
G24  22311696.423    22311695.963    22311700.841                   -14403169.576 8 -14403169.575 8                 -11223258.131 9       270.000         180.000         720.000                  
G25  22514394.551    22514393.079    22514399.208                    -9554006.365 8  -9554006.369 7                  -7444693.086 8       139.000          52.000         142.000                  
G29  19593492.133    19593491.722    19593493.355                   -26999814.182 9 -26999814.185 9                 -21038817.081 9       961.000        2069.000        3550.000                  
G32  23228405.003    23228404.987    23228410.415                    -9951824.955 8  -9951824.955 8                  -7754685.086 8       297.000         225.000         495.000                  
> 2024 10 31 17 46 20.0000000  0  9
G10  23218026.483    23218026.076    23218032.013                    -7985423.961 8  -7985423.958 8                  -6222415.505 8       210.000         103.000         175.000                  
G12  24912662.118    24912661.857    24912667.797                     1085937.526 7   1085937.529 6                    846157.558 7        92.000          31.000          56.000                  
G15  22481009.263    22481009.166    22481011.285                   -13344738.063 8 -13344738.066 8                 -10398481.997 8       285.000         182.000         471.000                  
G18  22369114.289    22369113.806    22369116.550                   -10570110.334 8 -10570110.327 7                  -8236457.004 8       260.000          96.000         280.000                  
G23  21868159.035    21868158.736    21868161.085                   -14331440.366 8 -14331440.362 8                 -11167345.689 8       283.000         103.000         279.000                  
G24  22322354.391    22322354.003    22322358.882                   -14347160.038 8 -14347160.037 8                 -11179614.182 9       266.000         178.000         724.000                  
G25  22585834.749    22585833.658    22585839.240                    -9178585.642 8  -9178585.649 6                  -7152157.435 8       133.000          46.000         130.000                  
G29  19605790.621    19605790.195    19605791.868                   -26935184.703 9 -26935184.705 9                 -20988456.365 9       950.000        2004.000        3479.000                  
G32  23281473.345    23281472.878    23281478.277                    -9672950.160 8  -9672950.161 8                  -7537379.958 8       290.000         215.000         472.000                  
> 2024 10 31 17 46 30.0000000  0  9
G10  23216733.717    23216732.890    23216738.422                    -7992218.638 8  -7992218.636 8                  -6227709.779 8       208.000         109.000         174.000                  
G12  24976912.928    24976912.281    24976918.370                     1423576.522 7   1423576.546 6                   1109252.652 6        85.000          24.000          47.000                  
G15  22429284.768    22429284.486    22429286.854                   -13616551.713 8 -13616551.715 8                 -10610284.594 8       285.000         186.000         482.000                  
G18  22302739.411    22302739.153    22302742.061                   -10918908.710 8 -10918908.710 7                  -8508247.680 8       264.000          94.000         287.000                  
G23  21826674.249    21826674.113    21826677.199                   -14549440.097 8 -14549440.092 7                 -11337215.363 8       274.000          99.000         284.000                  
G24  22333427.853    22333427.991    22333432.897                   -14288965.196 8 -14288965.199 8                 -11134267.413 9       263.000         170.000         722.000                  
G25  22657597.119    22657596.990    22657603.236                    -8801465.401 8  -8801465.387 6                  -6858297.514 8       121.000          44.000         124.000                  
G29  19619325.878    19619325.458    19619327.123                   -26864056.101 9 -26864056.103 9                 -20933031.406 9       927.000        1911.000        3448.000                  
G32  23334803.364    23334803.064    23334808.185                    -9392699.480 8  -9392699.480 8                  -7319002.727 8       281.000         210.000         447.000                  
> 2024 10 31 17 46 40.0000000  0  9
G10  23215707.676    23215707.072    23215712.957                    -7997608.766 8  -7997608.767 8                  -6231909.622 8       206.000         109.000         182.000                  
G12  25041196.083    25041194.978    25041201.946                     1761386.274 7   1761386.285 6                   1372480.797 6        83.000          27.000          43.000                  
G15  22377932.655    22377932.251    22377934.630                   -13886407.998 8 -13886408.000 8                 -10820561.985 9       282.000         184.000         510.000                  
G18  22236846.897    22236846.399    22236849.161                   -11265177.245 8 -11265177.248 8                  -8778067.072 8       280.000         102.000         291.000                  
G23  21785579.418    21785579.173    21785582.049                   -14765394.820 8 -14765394.814 7                 -11505491.548 8       265.000          88.000         284.000                  
G24  22344913.813    22344913.621    22344918.581                   -14228607.097 8 -14228607.099 8                 -11087235.002 9       266.000         175.000         730.000                  
G25  22729672.333    22729670.920    22729676.727                    -8422715.502 8  -8422715.501 6                  -6563167.747 8       116.000          40.000         114.000                  
G29  19634091.461    19634091.166    19634092.863                   -26786461.517 9 -26786461.519 9                 -20872568.022 9       907.000        1844.000        3411.000                  
G32  23388387.867    23388387.219    23388392.285                    -9111112.590 8  -9111112.588 8                  -7099584.305 8       280.000         197.000         413.000                  
> 2024 10 31 17 46 50.0000000  0  9
G10  23214949.243    23214948.374    23214954.439                    -8001593.683 8  -8001593.679 8                  -6235014.517 8       212.000         109.000         190.000                  
G12  25105503.909    25105501.120    25105507.332                     2099315.512 7   2099315.512 6                   1635802.016 6        82.000          23.000          39.000                  
G15  22326958.506    22326957.905    22326960.190                   -14154278.868 8 -14154278.864 8                 -11029292.318 9       287.000         187.000         516.000                  
G18  22171446.611    22171446.259    22171448.828                   -11608856.547 8 -11608856.542 8                  -9045868.890 8       284.000         111.000         294.000                  
G23  21744879.180    21744879.081    21744881.896                   -14979273.941 8 -14979273.939 7                 -11672150.395 8       261.000          94.000         295.000                  
G24  22356807.766    22356807.460    22356812.233                   -14166104.522 8 -14166104.521 8                 -11038531.590 9       265.000         168.000         736.000                  
G25  22802043.061    22802042.614    22802048.601                    -8042401.841 8  -8042401.838 6                  -6266819.477 8       114.000          42.000         103.000                  
G29  19650081.649    19650081.255    19650083.031                   -26702432.601 9 -26702432.602 9                 -20807090.878 9       892.000        1785.000        3398.000                  
G32  23442219.318    23442218.750    23442223.922                    -8828225.448 8  -8828225.447 8                  -6879152.720 8       273.000         180.000         379.000                  
> 2024 10 31 17 47  0.0000000  0  9
G10  23214462.446    23214462.102    23214467.500                    -8004150.521 8  -8004150.521 8                  -6237006.641 8       211.000         113.000         198.000                  
G12  25169827.540    25169825.191    25169831.032                     2437335.573 7   2437335.582 6                   1899193.974 6        75.000          27.000          41.000                  
G15  22276371.278    22276370.885    22276373.240                   -14420114.028 8 -14420114.030 8                 -11236436.397 9       289.000         186.000         538.000                  
G18  22106554.835    22106554.526    22106556.950                   -11949864.734 8 -11949864.730 8                  -9311589.335 8       285.000         112.000         306.000                  
G23  21704584.767    21704584.107    21704586.860                   -15191024.668 8 -15191024.670 7                 -11837150.767 8       272.000          95.000         298.000                  
G24  22369109.957    22369109.774    22369114.817                   -14101454.098 8 -14101454.098 8                 -10988154.542 9       264.000         176.000         759.000                  
G25  22874703.564    22874703.149    22874709.309                    -7660567.697 8  -7660567.693 6                  -5969286.431 8       105.000          30.000         103.000                  
G29  19667294.072    19667293.702    19667295.381                   -26611980.590 9 -26611980.592 9                 -20736608.733 9       887.000        1752.000        3292.000                  
G32  23496295.008    23496295.221    23496300.318                    -8544051.666 8  -8544051.667 8                  -6657718.568 8       261.000         178.000         346.000                  
> 2024 10 31 17 47 10.0000000  0  9
G10  23214246.747    23214246.410    23214251.938                    -8005283.353 8  -8005283.350 8                  -6237889.170 8       214.000         111.000         209.000                  
G12  25234156.204    25234155.592    25234162.054                     2775391.605 7   2775391.590 6                   2162613.940 6        73.000          22.000          41.000                  
G15  22226175.870    22226175.960    22226178.121                   -14683889.948 8 -14683889.950 8                 -11441975.888 9       295.000         197.000         539.000                  
G18  22042181.611    22042181.450    22042183.819                   -12288146.621 8 -12288146.618 8                  -9575185.396 8       292.000         112.000         311.000                  
G23  21664699.896    21664699.320    21664701.744                   -15400621.036 8 -15400621.035 7                 -12000472.428 8       276.000          97.000         294.000                  
G24  22381816.936    22381816.507    22381821.442                   -14034679.571 8 -14034679.571 8                 -10936122.353 9       266.000         173.000         790.000                  
G25  22947640.735    22947639.582    22947645.913                    -7277282.723 8  -7277282.727 6                  -5670622.873 7       102.000          36.000          88.000                  
G29  19685721.100    19685720.765    19685722.407                   -26515145.497 9 -26515145.499 9                 -20661152.762 9       873.000        1699.000        3141.000                  
G32  23550608.913    23550608.864    23550613.855                    -8258631.579 8  -8258631.579 8                  -6435313.284 8       255.000         173.000         327.000                  
> 2024 10 31 17 47 20.0000000  0  9
G10  23214301.981    23214301.951    23214307.151                    -8004991.308 8  -8004991.306 8                  -6237661.427 8       217.000         122.000         215.000                  
G12  25298483.096    25298482.619    25298488.816                     3113434.090 7   3113434.063 6                   2426023.327 6        70.000          24.000          37.000                  
G15  22176378.178    22176378.108    22176380.346                   -14945578.020 8 -14945578.021 8                 -11645888.493 9       300.000         203.000         540.000                  
G18  21978338.905    21978338.717    21978340.894                   -12623641.798 8 -12623641.793 8                  -9836610.011 8       312.000         125.000         321.000                  
G23  21625230.490    21625229.932    21625232.498                   -15608032.100 8 -15608032.102 8                 -12162091.271 8       283.000         101.000         298.000                  
G24  22394924.275    22394923.682    22394928.802                   -13965799.774 8 -13965799.776 8                 -10882449.703 9       267.000         169.000         777.000                  
G25  23020840.754    23020839.890    23020846.651                    -6892611.222 7  -6892611.215 6                  -5370878.912 7        95.000          30.000          78.000                  
G29  19705355.838    19705355.392    19705357.104                   -26411964.266 9 -26411964.268 9                 -20580751.758 9       853.000        1632.000        3003.000                  
G32  23605153.365    23605152.873    23605158.014                    -7972000.401 8  -7972000.402 8                  -6211964.303 8       249.000         158.000         303.000                  
> 2024 10 31 17 47 30.0000000  0  9
G10  23214632.337    23214632.621    23214638.041                    -8003252.960 8  -8003252.955 8                  -6236306.710 8       222.000         119.000         213.000                  
G12  25362802.705    25362802.782    25362808.813                     3451434.617 7   3451434.639 6                   2689399.980 6        67.000          21.000          29.000                  
G15  22126987.350    22126987.016    22126989.205                   -15205129.028 8 -15205129.027 8                 -11848135.860 9       310.000         223.000         551.000                  
G18  21915042.133    21915041.872    21915043.987                   -12956269.116 8 -12956269.106 8                 -10095799.944 8       327.000         134.000         328.000                  
G23  21586187.053    21586186.604    21586189.069                   -15813206.287 8 -15813206.280 8                 -12321967.100 8       281.000         105.000         292.000                  
G24  22408432.044    22408431.944    22408436.990                   -13894813.158 8 -13894813.159 8                 -10827135.385 9       255.000         169.000         786.000                  
G25  23094295.968    23094295.915    23094302.659                    -6506596.387 7  -6506596.386 6                  -5070088.225 7        90.000          32.000          71.000                  
G29  19726194.716    19726194.237    19726195.951                   -26302455.121 9 -26302455.123 9                 -20495419.917 9       837.000        1571.000        2856.000                  
G32  23659924.689    23659924.777    23659929.696                    -7684172.580 8  -7684172.580 8                  -5987682.882 8       243.000         152.000         279.000                  
> 2024 10 31 17 47 40.0000000  0  9
G10  23215238.843    23215237.836    23215243.102                    -8000071.630 8  -8000071.623 8                  -6233827.604 8       219.000         116.000         214.000                  
G12  25427103.382    25427104.217    25427110.605                     3789340.498 7   3789340.494 6                   2952702.856 6        61.000          26.000          35.000                  
G15  22078007.911    22078007.210    22078009.446                   -15462518.559 8 -15462518.558 8                 -12048698.971 9       323.000         238.000         557.000                  
G18  21852301.298    21852301.450    21852303.392                   -13285971.992 8 -13285971.987 8                 -10352711.097 8       331.000         141.000         349.000                  
G23  21547574.341    21547573.896    21547576.243                   -16016116.771 8 -16016116.770 8                 -12480079.012 8       279.000         112.000         283.000                  
G24  22422337.240    22422336.859    22422341.709                   -13821742.983 8 -13821742.988 8                 -10770197.523 9       258.000         166.000         779.000                  
G25  23167995.397    23167994.833    23168002.283                    -6119305.703 7  -6119305.702 6                  -4768303.352 7        84.000          26.000          64.000                  
G29  19748229.324    19748228.764    19748230.488                   -26186662.711 9 -26186662.713 9                 -20405192.032 9       822.000        1515.000        2706.000                  
G32  23714917.056    23714916.778    23714921.714                    -7395187.133 8  -7395187.138 8                  -5762499.424 8       238.000         148.000         256.000                  
> 2024 10 31 17 47 50.0000000  0 10
G10  23216117.819    23216117.645    23216123.030                    -7995447.262 8  -7995447.264 8                  -6230224.066 8       223.000         120.000         224.000                  
G12  25491378.063    25491378.433    25491385.525                     4127102.906 7   4127102.870 6                   3215893.841 6        56.000          20.000          34.000                  
G13  24747831.154    24747827.208    24747840.151                     -254128.913 7   -254128.925 6                   -198026.392 6        89.000          21.000          18.000                  
G15  22029444.702    22029444.455    22029446.259                   -15717718.802 8 -15717718.805 8                 -12247556.145 9       340.000         258.000         579.000                  
G18  21790129.113    21790128.671    21790130.760                   -13612690.254 8 -13612690.251 8                 -10607296.587 8       322.000         137.000         358.000                  
G23  21509398.347    21509397.408    21509399.967                   -16216733.269 8 -16216733.274 8                 -12636403.395 8       286.000         112.000         278.000                  
G24  22436634.274    22436634.442    22436639.046                   -13746609.208 8 -13746609.210 8                 -10711651.663 9       251.000         170.000         789.000                  
G25  23241925.347    23241924.440    23241931.437                    -5730802.732 7  -5730802.734 6                  -4465573.868 7        80.000          25.000          53.000                  
G29  19771451.344    19771450.783    19771452.454                   -26064629.975 9 -26064629.977 9                 -20310101.561 9       813.000        1486.000        2575.000                  
G32  23770122.761    23770122.566    23770127.358                    -7105079.462 8  -7105079.463 8                  -5536441.514 8       232.000         138.000         231.000                  
> 2024 10 31 17 48  0.0000000  0 10
G10  23217276.467    23217276.092    23217281.459                    -7989357.837 8  -7989357.832 8                  -6225478.938 8       216.000         116.000         223.000                  
G12  25555620.228    25555620.861    25555628.458                     4464695.556 7   4464695.559 6                   3478952.521 6        55.000          19.000          29.000                  
G13  24691028.718    24691025.471    24691030.752                     -552630.824 7   -552630.798 6                   -430623.641 6        92.000          20.000          22.000                  
G15  21981307.329    21981307.347    21981309.383                   -15970679.734 8 -15970679.735 8                 -12444668.409 9       357.000         287.000         589.000                  
G18  21728539.983    21728539.771    21728541.980                   -13936341.552 8 -13936341.548 8                 -10859492.237 8       319.000         140.000         364.000                  
G23  21471668.180    21471668.123    21471670.128                   -16415003.555 8 -16415003.555 8                 -12790899.572 8       297.000         122.000         270.000                  
G24  22451324.802    22451324.693    22451329.635                   -13669409.921 8 -13669409.921 8                 -10651496.318 9       247.000         147.000         791.000                  
G25  23316077.435    23316077.308    23316084.348                    -5341128.521 7  -5341128.507 6                  -4161931.739 7        76.000          25.000          55.000                  
G29  19795856.566    19795856.025    19795857.633                   -25936379.603 9 -25936379.605 9                 -20210166.183 9       813.000        1482.000        2413.000                  
G32  23825539.464    23825539.108    23825544.034                    -6813862.773 8  -6813862.773 8                  -5309519.442 8       231.000         136.000         212.000                  
> 2024 10 31 17 48 10.0000000  0 10
G10  23218713.133    23218712.433    23218717.967                    -7981808.581 8  -7981808.582 8                  -6219596.298 8       216.000         110.000         222.000                  
G12  25619821.717    25619820.410    25619827.888                     4802065.354 7   4802065.346 6                   3741837.503 6        52.000          22.000          31.000                  
G13  24634320.771    24634318.433    24634339.432                     -850630.428 7   -850630.408 6                   -662832.674 6        90.000          23.000          16.000                  
G15  21933601.239    21933600.980    21933602.580                   -16221378.688 8 -16221378.689 8                 -12640018.101 9       375.000         326.000         590.000                  
G18  21667545.557    21667544.844    21667547.152                   -14256870.732 8 -14256870.726 8                 -11109255.075 8       323.000         134.000         367.000                  
G23  21434389.893    21434389.914    21434391.899                   -16610902.681 8 -16610902.675 8                 -12943548.106 8       310.000         129.000         262.000                  
G24  22466403.610    22466403.538    22466408.382                   -13590170.527 8 -13590170.533 8                 -10589751.280 9       244.000         149.000         776.000                  
G25  23390441.272    23390440.109    23390446.330                    -4950350.950 7  -4950350.936 6                  -3857429.873 7        78.000          25.000          58.000                  
G29  19821435.064    19821434.603    19821436.205                   -25801963.258 9 -25801963.260 9                 -20105426.155 9       817.000        1499.000        2348.000                  
G32  23881159.405    23881158.851    23881164.260                    -6521577.347 8  -6521577.350 8                  -5081764.596 8       219.000         120.000         203.000                  
> 2024 10 31 17 48 20.0000000  0  9
G10  23220427.287    23220426.427    23220431.929                    -7972801.465 8  -7972801.458 8                  -6212577.667 8       209.000         115.000         216.000                  
G13  24577711.596    24577709.537    24577717.259                    -1148110.046 7  -1148110.054 6                   -894633.414 6        92.000          21.000          18.000                  
G15  21886330.052    21886329.760    21886331.410                   -16469789.611 8 -16469789.612 8                 -12833584.914 9       390.000         347.000         596.000                  
G18  21607155.776    21607155.293    21607157.690                   -14574219.183 8 -14574219.181 8                 -11356539.436 8       320.000         138.000         348.000                  
G23  21397568.200    21397567.788    21397570.183                   -16804402.342 8 -16804402.338 8                 -13094326.937 8       313.000         135.000         259.000                  
G24  22481866.528    22481866.072    22481870.970                   -13508913.264 8 -13508913.265 8                 -10526433.881 9       241.000         145.000         755.000                  
G25  23465001.244    23465001.140    23465007.953                    -4558533.998 7  -4558534.023 6                  -3552118.118 7        80.000          23.000          59.000                  
G29  19848177.640    19848177.085    19848178.651                   -25661430.802 9 -25661430.803 9                 -19995920.328 9       831.000        1546.000        2284.000                  
G32  23936975.744    23936975.514    23936980.729                    -6228259.945 8  -6228259.942 8                  -4853205.627 8       211.000         118.000         185.000                  
> 2024 10 31 17 48 30.0000000  0  9
G10  23222424.216    23222423.541    23222428.925                    -7962306.307 8  -7962306.306 8                  -6204399.543 8       210.000         109.000         217.000                  
G13  24521210.729    24521209.794    24521230.279                    -1445019.577 7  -1445019.560 6                  -1125992.964 6        92.000          24.000          21.000                  
G15  21839505.269    21839505.121    21839506.795                   -16715854.223 8 -16715854.225 8                 -13025323.438 9       407.000         387.000         611.000                  
G18  21547388.919    21547388.320    21547390.737                   -14888296.061 8 -14888296.053 8                 -11601274.526 8       327.000         142.000         343.000                  
G23  21361213.896    21361213.972    21361216.199                   -16995442.129 8 -16995442.126 8                 -13243188.975 8       326.000         143.000         248.000                  
G24  22497715.244    22497714.710    22497719.501                   -13425628.246 8 -13425628.247 8                 -10461536.420 9       238.000         145.000         739.000                  
G25  23539755.055    23539753.130    23539759.920                    -4165708.978 7  -4165708.987 6                  -3246020.877 7        80.000          28.000          51.000                  
G29  19876080.130    19876079.673    19876081.224                   -25514801.531 9 -25514801.533 9                 -19881663.741 9       836.000        1572.000        2223.000                  
G32  23992987.755    23992987.746    23992992.813                    -5933914.986 8  -5933914.980 8                  -4623845.980 8       205.000         103.000         158.000                  
> 2024 10 31 17 48 40.0000000  0  9
G10  23224700.036    23224699.650    23224705.102                    -7950344.413 8  -7950344.415 8                  -6195078.497 8       209.000         108.000         209.000                  
G13  24464818.485    24464817.885    24464834.440                    -1741360.248 7  -1741360.242 6                  -1356908.116 6        92.000          21.000          23.000                  
G15  21793128.954    21793128.295    21793129.856                   -16959565.822 8 -16959565.821 8                 -13215228.447 9       425.000         408.000         641.000                  
G18  21488251.927    21488251.482    21488253.535                   -15199061.958 8 -15199061.954 8                 -11843429.640 8       335.000         152.000         316.000                  
G23  21325330.153    21325330.007    21325331.906                   -17184013.226 8 -17184013.224 8                 -13390127.390 8       335.000         147.000         234.000                  
G24  22513941.735    22513940.954    22513945.951                   -13340357.191 8 -13340357.192 8                 -10395091.401 9       241.000         144.000         726.000                  
G25  23614682.510    23614681.516    23614687.858                    -3771958.212 7  -3771958.198 6                  -2939202.293 7        88.000          36.000          57.000                  
G29  19905129.194    19905128.733    19905130.250                   -25362147.867 9 -25362147.870 9                 -19762712.827 9       854.000        1622.000        2136.000                  
G32  24049185.192    24049184.871    24049189.907                    -5638598.094 8  -5638598.095 7                  -4393728.998 8       197.000          99.000         159.000                  
> 2024 10 31 17 48 50.0000000  0  9
G10  23227260.989    23227259.902    23227265.497                    -7936890.141 8  -7936890.136 8                  -6184594.566 8       212.000         110.000         209.000                  
G13  24408545.245    24408544.013    24408546.848                    -2037085.942 7  -2037085.925 6                  -1587343.109 6        91.000          25.000          23.000                  
G15  21747209.869    21747209.473    21747210.896                   -17200870.764 8 -17200870.763 8                 -13403258.143 9       442.000         434.000         669.000                  
G18  21429761.400    21429761.111    21429763.294                   -15506430.409 8 -15506430.404 8                 -12082937.397 8       354.000         163.000         294.000                  
G23  21289926.802    21289926.406    21289928.322                   -17370059.733 8 -17370059.730 8                 -13535098.575 8       341.000         155.000         245.000                  
G24  22530547.000    22530546.631    22530551.376                   -13253094.814 8 -13253094.814 8                 -10327094.704 9       245.000         144.000         713.000                  
G25  23689781.869    23689779.741    23689785.856                    -3377316.433 7  -3377316.463 6                  -2631689.426 7        86.000          27.000          57.000                  
G29  19935319.711    19935319.103    19935320.597                   -25203496.623 9 -25203496.625 9                 -19639088.475 9       857.000        1652.000        2122.000                  
G32  24105565.250    24105565.346    24105570.025                    -5342317.706 8  -5342317.700 7                  -4162861.241 8       188.000          88.000         150.000                  
> 2024 10 31 17 49  0.0000000  0  9
G10  23230103.909    23230103.466    23230108.249                    -7921948.596 8  -7921948.596 8                  -6172951.725 8       211.000         114.000         203.000                  
G13  24352389.291    24352388.977    24352391.281                    -2332181.193 7  -2332181.180 6                  -1817287.093 6        89.000          19.000          27.000                  
G15  21701753.144    21701752.802    21701754.345                   -17439746.058 8 -17439746.059 8                 -13589394.616 9       454.000         463.000         694.000                  
G18  21371928.209    21371928.035    21371929.836                   -15810345.722 8 -15810345.715 8                 -12319754.398 8       379.000         191.000         279.000                  
G23  21255008.246    21255007.960    21255009.999                   -17553556.623 8 -17553556.623 8                 -13678083.025 8       343.000         154.000         261.000                  
G24  22547526.347    22547526.482    22547530.926                   -13163866.724 8 -13163866.726 8                 -10257566.285 9       241.000         145.000         702.000                  
G25  23765034.875    23765035.192    23765040.584                    -2981848.612 7  -2981848.608 6                  -2323532.908 6        85.000          29.000          45.000                  
G29  19966640.082    19966639.518    19966641.031                   -25038906.978 9 -25038906.978 9                 -19510836.802 9       853.000        1620.000        2100.000                  
G32  24162121.594    24162121.789    24162126.545                    -5045112.813 8  -5045112.813 7                  -3931273.114 8       179.000          84.000         137.000                  
> 2024 10 31 17 49 10.0000000  0  9
G10  23233229.850    23233229.607    23233234.635                    -7905519.996 8  -7905519.994 8                  -6160150.143 8       204.000         111.000         203.000                  
G13  24296357.457    24296357.881    24296360.120                    -2626625.224 7  -2626625.193 6                  -2046723.660 6        90.000          24.000          19.000                  
G15  21656764.205    21656763.894    21656765.405                   -17676163.799 8 -17676163.799 8                 -13773616.117 9       464.000         500.000         733.000                  
G18  21314763.687    21314763.648    21314765.134                   -16110747.244 8 -16110747.241 8                 -12553833.384 8       415.000         234.000         258.000                  
G23  21220580.433    21220580.466    21220582.309                   -17734474.189 8 -17734474.192 8                 -13819057.670 8       351.000         168.000         274.000                  
G24  22564876.096    22564875.772    22564880.518                   -13072693.600 8 -13072693.600 8                 -10186522.261 9       245.000         157.000         686.000                  
G25  23840435.939    23840435.964    23840442.320                    -2585614.248 7  -2585614.254 6                  -2014779.082 6        78.000          26.000          41.000                  
G29  19999079.861    19999079.346    19999080.797                   -24868434.472 9 -24868434.473 9                 -19378001.092 9       840.000        1566.000        2080.000                  
G32  24218847.067    24218847.195    24218852.267                    -4747017.201 8  -4747017.207 7                  -3698990.927 8       174.000          80.000         141.000                  
> 2024 10 31 17 49 20.0000000  0  9
G10  23236643.104    23236642.644    23236647.603                    -7887583.699 8  -7887583.699 7                  -6146173.766 8       202.000          99.000         188.000                  
G13  24240458.330    24240459.104    24240460.483                    -2920376.173 7  -2920376.199 6                  -2275620.143 6        93.000          25.000          24.000                  
G15  21612252.166    21612252.020    21612253.526                   -17910075.119 8 -17910075.119 9                 -13955884.561 9       474.000         513.000         772.000                  
G18  21258283.589    21258283.249    21258284.537                   -16407553.416 8 -16407553.409 8                 -12785110.796 8       448.000         269.000         252.000                  
G23  21186653.876    21186653.603    21186655.399                   -17912761.494 8 -17912761.495 8                 -13957982.731 8       369.000         178.000         293.000                  
G24  22582596.360    22582595.676    22582600.363                   -12979575.223 8 -12979575.225 8                 -10113962.443 9       244.000         146.000         661.000                  
G25  23915976.290    23915975.299    23915982.420                    -2188651.403 7  -2188651.427 6                  -1705457.643 6        77.000          24.000          39.000                  
G29  20032632.237    20032631.771    20032633.324                   -24692114.990 9 -24692114.991 9                 -19240609.292 9       817.000        1483.000        2088.000                  
G32  24275740.858    24275740.189    24275745.078                    -4448043.546 8  -4448043.543 7                  -3466024.573 8       160.000          74.000         134.000                  
> 2024 10 31 17 49 30.0000000  0  9
G10  23240341.868    23240341.635    23240346.630                    -7868145.501 8  -7868145.504 7                  -6131027.056 8       197.000          95.000         188.000                  
G13  24184695.074    24184694.212    24184696.407                    -3213418.449 7  -3213418.452 6                  -2503964.425 6        92.000          24.000          26.000                  
G15  21568221.661    21568221.383    21568222.773                   -18141457.838 8 -18141457.839 9                 -14136182.658 9       486.000         526.000         820.000                  
G18  21202497.773    21202497.470    21202498.806                   -16700709.364 8 -16700709.360 8                 -13013543.869 8       485.000         299.000         254.000                  
G23  21153231.876    21153231.852    21153233.741                   -18088394.522 8 -18088394.523 8                 -14094839.521 8       387.000         197.000         305.000                  
G24  22600680.878    22600680.760    22600685.213                   -12884538.044 8 -12884538.047 8                 -10039907.456 9       243.000         148.000         639.000                  
G25  23991641.305    23991640.957    23991647.312                    -1791024.092 7  -1791024.099 6                  -1395618.457 6        74.000          25.000          27.000                  
G29  20067285.360    20067284.783    20067286.341                   -24510012.369 9 -24510012.370 9                 -19098711.144 9       804.000        1437.000        2137.000                  
G32  24332793.816    24332792.647    24332797.851                    -4148230.779 8  -4148230.781 7                  -3232404.377 8       155.000          65.000         125.000                  
> 2024 10 31 17 49 40.0000000  0  9
G10  23244326.684    23244325.887    23244331.200                    -7847206.070 8  -7847206.077 7                  -6114710.557 8       191.000          95.000         188.000                  
G13  24129068.231    24129068.851    24129071.325                    -3505731.049 7  -3505731.029 6                  -2731740.193 6        94.000          26.000          22.000                  
G15  21524677.218    21524676.916    21524678.282                   -18370284.633 8 -18370284.635 9                 -14314489.127 9       493.000         540.000         852.000                  
G18  21147417.844    21147417.586    21147419.147                   -16990155.007 9 -16990155.001 8                 -13239085.795 8       518.000         358.000         266.000                  
G23  21120321.055    21120320.241    21120322.151                   -18261344.054 8 -18261344.055 8                 -14229605.272 8       404.000         208.000         319.000                  
G24  22619126.661    22619126.659    22619131.268                   -12787603.222 8 -12787603.223 8                  -9964373.779 9       242.000         144.000         623.000                  
G25  24067425.479    24067422.602    24067429.753                    -1392790.008 7  -1392789.992 6                  -1085306.382 6        68.000          25.000          26.000                  
G29  20103027.237    20103026.810    20103028.361                   -24322186.497 9 -24322186.499 9                 -18952353.318 9       785.000        1378.000        2186.000                  
G32  24389998.848    24389998.600    24390003.545                    -3847612.397 8  -3847612.404 7                  -2998156.446 8       150.000          52.000         115.000                  
> 2024 10 31 17 49 50.0000000  0  9
G10  23248600.576    23248599.942    23248605.522                    -7824745.113 8  -7824745.104 7                  -6097208.438 8       183.000          87.000         186.000                  
G13  24073589.929    24073589.749    24073592.377                    -3797271.828 7  -3797271.832 6                  -2958914.522 6        91.000          22.000          24.000                  
G15  21481628.219    21481628.007    21481629.472                   -18596507.203 8 -18596507.204 9                 -14490766.326 9       496.000         562.000         862.000                  
G18  21093059.694    21093059.360    21093060.673                   -17275809.484 9 -17275809.479 8                 -13461673.568 8       557.000         402.000         284.000                  
G23  21087929.876    21087929.211    21087930.945                   -18431560.065 8 -18431560.063 8                 -14362241.004 8       412.000         213.000         328.000                  
G24  22637934.324    22637933.771    22637938.286                   -12688771.137 8 -12688771.137 8                  -9887361.706 9       238.000         147.000         619.000                  
G25  24143313.299    24143312.792    24143319.043                     -993986.967 7   -993986.979 6                   -774551.081 6        64.000          25.000          29.000                  
G29  20139850.935    20139850.351    20139851.970                   -24128677.540 9 -24128677.541 9                 -18801567.109 9       774.000        1347.000        2244.000                  
G32  24447355.479    24447355.196    24447360.602                    -3546200.698 8  -3546200.690 7                  -2763290.346 8       140.000          53.000         101.000                  
> 2024 10 31 17 50  0.0000000  0  9
G10  23253162.793    23253162.724    23253167.558                    -7800768.765 8  -7800768.770 7                  -6078525.473 8       180.000          85.000         174.000                  
G13  24018262.613    24018261.328    24018263.500                    -4088024.652 7  -4088024.650 6                  -3185474.906 6        95.000          21.000          30.000                  
G15  21439079.243    21439078.938    21439080.322                   -18820103.651 9 -18820103.652 9                 -14664997.202 9       502.000         577.000         872.000                  
G18  21039433.184    21039433.022    21039434.265                   -17557618.406 9 -17557618.398 8                 -13681264.806 8       585.000         443.000         294.000                  
G23  21056063.175    21056062.747    21056064.560                   -18599018.986 8 -18599018.985 8                 -14492728.357 8       420.000         225.000         338.000                  
G24  22657097.775    22657096.755    22657101.313                   -12588068.397 8 -12588068.397 8                  -9808891.983 9       236.000         149.000         615.000                  
G25  24219300.220    24219299.110    24219305.473                     -594676.956 7   -594676.984 6                   -463400.752 6        58.000          23.000          28.000                  
G29  20177742.879    20177742.450    20177744.155                   -23929553.139 9 -23929553.140 9                 -18646405.226 9       768.000        1318.000        2275.000                  
G32  24504855.870    24504856.186    24504861.293                    -3244034.087 8  -3244034.091 6                  -2527836.008 7       134.000          47.000          94.000                  
> 2024 10 31 17 50 10.0000000  0  9
G10  23258014.439    23258013.268    23258018.399                    -7775278.280 8  -7775278.274 7                  -6058662.650 8       173.000          74.000         177.000                  
G13  23963086.060    23963086.704    23963088.279                    -4377968.299 7  -4377968.323 6                  -3411404.673 6        97.000          19.000          31.000                  
G15  21397034.910    21397034.752    21397035.968                   -19041047.304 9 -19041047.305 9                 -14837160.971 9       518.000         598.000         890.000                  
G18  20986549.355    20986549.331    20986550.718                   -17835522.650 9 -17835522.644 8                 -13897813.451 8       598.000         463.000         325.000                  
G23  21024726.480    21024726.327    21024727.990                   -18763692.477 8 -18763692.475 8                 -14621045.245 8       415.000         214.000         348.000                  
G24  22676611.780    22676611.659    22676616.177                   -12485516.855 8 -12485516.858 8                  -9728981.635 9       232.000         138.000         612.000                  
G25  24295371.935    24295370.665    24295378.429                     -194917.064 7   -194917.058 6                   -151899.835 6        52.000          19.000          19.000                  
G29  20216691.415    20216691.007    20216692.597                   -23724877.218 9 -23724877.220 9                 -18486917.481 9       751.000        1270.000        2226.000                  
G32  24562493.996    24562493.898    24562499.195                    -2941145.822 8  -2941145.819 6                  -2291819.347 7       128.000          46.000          77.000                  
> 2024 10 31 17 50 20.0000000  0  8
G10  23263156.645    23263156.500    23263161.671                    -7748249.262 8  -7748249.259 7                  -6037600.968 8       167.000          82.000         167.000                  
G13  23908075.242    23908075.550    23908076.178                    -4667055.653 8  -4667055.642 6                  -3636667.309 6       106.000          21.000          28.000                  
G15  21355505.436    21355505.269    21355506.452                   -19259285.777 9 -19259285.778 9                 -15007216.809 9       531.000         631.000         921.000                  
G18  20934425.210    20934424.890    20934426.275                   -18109437.677 9 -18109437.670 8                 -14111253.624 8       599.000         467.000         345.000                  
G23  20993930.453    20993930.135    20993931.980                   -18925526.729 8 -18925526.731 8                 -14747149.739 8       420.000         231.000         360.000                  
G24  22696479.453    22696479.108    22696483.615                   -12381112.644 8 -12381112.642 8                  -9647627.646 9       231.000         131.000         610.000                  
G29  20256688.773    20256688.359    20256690.013                   -23514689.044 9 -23514689.045 9                 -18323134.470 9       739.000        1219.000        2150.000                  
G32  24620267.602    24620267.400    24620272.688                    -2637543.245 8  -2637543.249 6                  -2055246.080 7       125.000          49.000          70.000                  
> 2024 10 31 17 50 30.0000000  0  8
G10  23268590.438    23268589.487    23268594.782                    -7719696.880 8  -7719696.866 7                  -6015352.242 8       166.000          71.000         165.000                  
G13  23853228.067    23853227.485    23853229.532                    -4955278.908 8  -4955278.895 6                  -3861256.562 6       111.000          20.000          30.000                  
G15  21314493.318    21314492.921    21314494.057                   -19474806.410 9 -19474806.411 9                 -15175154.849 9       537.000         658.000         937.000                  
G18  20883068.337    20883068.110    20883069.576                   -18379318.691 9 -18379318.686 8                 -14321550.413 8       604.000         476.000         367.000                  
G23  20963677.451    20963677.242    20963678.818                   -19084507.589 8 -19084507.589 8                 -14871030.823 8       439.000         244.000         356.000                  
G24  22716692.334    22716692.244    22716696.857                   -12274891.463 8 -12274891.465 8                  -9564857.838 9       227.000         130.000         616.000                  
G29  20297720.002    20297719.607    20297721.227                   -23299068.554 9 -23299068.555 9                 -18155118.490 9       726.000        1182.000        2076.000                  
G32  24678167.230    24678168.635    24678173.853                    -2333272.992 8  -2333272.987 6                  -1818152.555 7       114.000          37.000          67.000                  
> 2024 10 31 17 50 40.0000000  0  8
G10  23274314.394    23274313.970    23274319.357                    -7689614.816 8  -7689614.817 7                  -5991911.557 8       164.000          68.000         158.000                  
G13  23798551.235    23798550.277    23798551.276                    -5242608.513 8  -5242608.557 6                  -4085149.559 6       117.000          22.000          25.000                  
G15  21274004.490    21274004.296    21274005.428                   -19687575.192 9 -19687575.193 9                 -15340948.588 9       544.000         666.000         968.000                  
G18  20832491.874    20832491.610    20832493.040                   -18645099.652 9 -18645099.645 8                 -14528652.353 8       618.000         494.000         381.000                  
G23  20933974.194    20933973.906    20933975.258                   -19240599.552 8 -19240599.549 8                 -14992660.817 8       446.000         259.000         349.000                  
G24  22737248.221    22737248.249    22737253.037                   -12166867.481 8 -12166867.479 8                  -9480683.243 9       220.000         133.000         633.000                  
G29  20339773.643    20339773.180    20339774.910                   -23078075.106 9 -23078075.108 9                 -17982915.788 9       710.000        1134.000        1968.000                  
G32  24736191.134    24736191.236    24736197.549                    -2028359.924 8  -2028359.909 6                  -1580558.120 7       109.000          36.000          62.000                  
> 2024 10 31 17 50 50.0000000  0  8
G10  23280333.054    23280332.837    23280338.053                    -7657985.202 8  -7657985.200 7                  -5967264.992 8       164.000          63.000         162.000                  
G13  23744050.412    23744051.027    23744052.883                    -5529003.085 8  -5529003.078 6                  -4308313.900 6       117.000          26.000          29.000                  
G15  21234048.218    21234048.076    21234049.059                   -19897546.617 9 -19897546.619 9                 -15504562.571 9       554.000         681.000         986.000                  
G18  20782710.273    20782709.967    20782711.275                   -18906703.271 9 -18906703.265 9                 -14732499.227 8       623.000         516.000         394.000                  
G23  20904829.466    20904828.994    20904830.521                   -19393755.766 8 -19393755.765 8                 -15112003.212 8       457.000         270.000         348.000                  
G24  22758147.938    22758147.237    22758151.777                   -12057043.321 8 -12057043.318 8                  -9395105.919 9       214.000         117.000         642.000                  
G29  20382840.561    20382840.089    20382841.713                   -22851757.403 9 -22851757.404 9                 -17806564.316 9       705.000        1118.000        1849.000                  
G32  24794335.336    24794334.145    24794340.750                    -1722817.070 8  -1722817.085 6                  -1342472.956 7       103.000          33.000          61.000                  
> 2024 10 31 17 51  0.0000000  0  8
G10  23286644.110    23286643.119    23286648.358                    -7624823.320 8  -7624823.320 7                  -5941424.453 8       166.000          73.000         153.000                  
G13  23689732.491    23689731.900    23689732.784                    -5814454.159 8  -5814454.167 6                  -4530743.102 6       122.000          22.000          33.000                  
G15  21194626.691    21194626.408    21194627.364                   -20104708.300 9 -20104708.299 9                 -15665987.145 9       551.000         686.000        1008.000                  
G18  20733731.814    20733731.686    20733732.992                   -19164085.683 9 -19164085.675 9                 -14933056.843 8       634.000         527.000         424.000                  
G23  20876245.679    20876245.649    20876247.055                   -19543962.681 8 -19543962.681 8                 -15229047.450 8       467.000         290.000         340.000                  
G24  22779382.118    22779381.881    22779386.404                   -11945454.717 8 -11945454.714 8                  -9308153.696 9       214.000         119.000         663.000                  
G29  20426905.064    20426904.257    20426905.925                   -22620198.149 9 -22620198.150 9                 -17626128.516 9       694.000        1091.000        1701.000                  
G32  24852589.181    24852589.021    24852594.443                    -1416690.294 7  -1416690.312 6                  -1103932.796 6        98.000          31.000          48.000                  
> 2024 10 31 17 51 10.0000000  0  8
G10  23293249.624    23293248.647    23293253.244                    -7590112.828 8  -7590112.825 7                  -5914377.201 8       170.000          75.000         165.000                  
G13  23635600.156    23635598.700    23635600.669                    -6098921.388 8  -6098921.360 6                  -4752405.629 6       129.000          23.000          38.000                  
G15  21155747.764    21155747.681    21155748.718                   -20309016.411 9 -20309016.411 9                 -15825188.162 9       548.000         686.000        1035.000                  
G18  20685571.527    20685571.089    20685572.169                   -19417171.746 9 -19417171.739 9                 -15130266.657 8       645.000         539.000         466.000                  
G23  20848232.198    20848231.778    20848233.278                   -19691175.310 8 -19691175.310 8                 -15343758.489 8       475.000         296.000         318.000                  
G24  22800951.725    22800951.163    22800956.009                   -11832105.677 8 -11832105.679 8                  -9219829.709 9       211.000         112.000         669.000                  
G29  20471956.677    20471956.185    20471957.680                   -22383449.334 9 -22383449.336 9                 -17441648.908 9       699.000        1077.000        1589.000                  
G32  24910953.029    24910951.316    24910957.016                    -1109993.558 7  -1109993.541 6                   -864948.528 6        90.000          29.000          41.000                  
> 2024 10 31 17 51 20.0000000  0  8
G10  23300148.902    23300148.552    23300153.244                    -7553852.893 8  -7553852.897 7                  -5886122.598 8       170.000          69.000         164.000                  
G13  23581658.487    23581657.735    23581660.623                    -6382379.735 8  -6382379.748 6                  -4973282.063 6       134.000          26.000          36.000                  
G15  21117417.667    21117417.481    21117418.433                   -20510442.814 9 -20510442.815 9                 -15982143.699 9       550.000         683.000        1068.000                  
G18  20638239.263    20638239.114    20638240.295                   -19665902.253 9 -19665902.246 9                 -15324082.530 8       634.000         512.000         492.000                  
G23  20820793.850    20820793.554    20820794.659                   -19835364.403 8 -19835364.403 8                 -15456113.517 8       493.000         313.000         296.000                  
G24  22822852.730    22822852.142    22822856.845                   -11717015.795 8 -11717015.792 8                  -9130149.227 9       209.000         116.000         691.000                  
G29  20517983.042    20517982.596    20517983.932                   -22141579.200 9 -22141579.201 9                 -17253178.663 9       702.000        1092.000        1493.000                  
G32  24969417.485    24969416.821    24969422.577                     -802756.104 7   -802756.106 6                   -625542.898 6        90.000          30.000          40.000                  
> 2024 10 31 17 51 30.0000000  0  8
G10  23307342.198    23307341.525    23307346.399                    -7516053.007 8  -7516053.010 7                  -5856668.032 8       167.000          68.000         165.000                  
G13  23527913.483    23527912.891    23527914.252                    -6664814.145 8  -6664814.150 6                  -5193360.611 6       143.000          25.000          40.000                  
G15  21079639.092    21079639.031    21079639.951                   -20708969.626 9 -20708969.628 9                 -16136839.817 9       557.000         700.000        1101.000                  
G18  20591745.592    20591745.279    20591746.289                   -19910228.631 9 -19910228.624 8                 -15514466.616 9       620.000         499.000         512.000                  
G23  20793934.350    20793934.218    20793935.243                   -19976511.169 9 -19976511.170 8                 -15566097.903 8       505.000         335.000         301.000                  
G24  22845078.399    22845078.870    22845083.321                   -11600214.784 8 -11600214.786 8                  -9039135.399 9       204.000         112.000         695.000                  
G29  20564968.862    20564968.391    20564969.849                   -21894666.942 9 -21894666.942 9                 -17060779.493 9       695.000        1080.000        1446.000                  
G32  25027978.463    25027977.383    25027983.420                     -495017.119 7   -495017.150 6                   -385746.477 6        80.000          22.000          40.000                  
> 2024 10 31 17 51 40.0000000  0  8
G10  23314833.278    23314833.136    23314837.720                    -7476685.215 8  -7476685.213 7                  -5825991.723 8       165.000          77.000         168.000                  
G13  23474372.358    23474372.102    23474372.719                    -6946171.914 8  -6946171.908 6                  -5412600.234 6       144.000          24.000          45.000                  
G15  21042422.997    21042422.809    21042423.783                   -20904541.823 9 -20904541.824 9                 -16289233.637 9       564.000         718.000        1137.000                  
G18  20546105.744    20546105.582    20546106.846                   -20150065.349 9 -20150065.341 8                 -15701352.267 9       600.000         460.000         542.000                  
G23  20767664.704    20767664.341    20767665.440                   -20114559.667 9 -20114559.667 8                 -15673668.056 8       517.000         348.000         309.000                  
G24  22867632.498    22867632.097    22867636.978                   -11481694.971 8 -11481694.971 8                  -8946782.242 9       202.000         102.000         699.000                  
G29  20612906.154    20612905.667    20612907.096                   -21642755.060 9 -21642755.062 9                 -16864484.514 9       685.000        1040.000        1420.000                  
G32  25086634.552    25086633.841    25086639.513                     -186778.063 7   -186778.083 6                   -145560.407 6        78.000          23.000          32.000                  
> 2024 10 31 17 51 50.0000000  0  8
G10  23322617.207    23322616.922    23322621.754                    -7435779.575 8  -7435779.569 7                  -5794117.097 8       169.000          73.000         167.000                  
G13  23421035.545    23421034.636    23421036.657                    -7226458.081 8  -7226458.094 6                  -5631004.835 6       152.000          23.000          45.000                  
G15  21005768.431    21005768.137    21005769.184                   -21097162.443 9 -21097162.445 9                 -16439327.523 9       569.000         731.000        1178.000                  
G18  20501325.760    20501325.610    20501326.897                   -20385385.385 9 -20385385.378 8                 -15884718.431 9       574.000         441.000         584.000                  
G23  20741984.041    20741983.716    20741984.954                   -20249512.184 9 -20249512.186 8                 -15778825.766 8       538.000         371.000         332.000                  
G24  22890503.579    22890503.376    22890507.938                   -11361506.567 8 -11361506.570 8                  -8853128.887 9       206.000         107.000         701.000                  
G29  20661775.500    20661775.052    20661776.558                   -21385944.559 9 -21385944.561 9                 -16664372.432 9       664.000         984.000        1358.000                  
G32  25145373.765    25145373.037    25145379.911                      121901.831 7    121901.836 6                     94969.149 6        77.000          24.000          37.000                  
> 2024 10 31 17 52  0.0000000  0  8
G10  23330700.745    23330700.335    23330705.171                    -7393300.168 8  -7393300.173 7                  -5761016.163 8       167.000          68.000         176.000                  
G13  23367914.357    23367914.441    23367915.774                    -7505611.405 8  -7505611.398 6                  -5848526.722 6       154.000          25.000          47.000                  
G15  20969687.595    20969687.141    20969688.225                   -21286768.750 9 -21286768.751 9                 -16587072.594 9       571.000         740.000        1213.000                  
G18  20457422.851    20457422.646    20457424.139                   -20616096.207 9 -20616096.199 8                 -16064493.006 9       564.000         421.000         632.000                  
G23  20716904.664    20716904.300    20716905.450                   -20381305.250 9 -20381305.251 8                 -15881521.572 8       539.000         373.000         344.000                  
G24  22913695.049    22913694.645    22913699.464                   -11239633.780 8 -11239633.780 8                  -8758163.023 9       203.000         105.000         690.000                  
G29  20711570.109    20711569.717    20711571.242                   -21124271.294 9 -21124271.295 9                 -16460471.181 9       639.000         912.000        1264.000                  
G32  25204198.146    25204199.658    25204204.654                      431029.690 7    431029.668 6                    335847.789 6        73.000          19.000          37.000                  
> 2024 10 31 17 52 10.0000000  0  9
G05  24610524.076    24610526.836    24610531.817                     -325032.750 7   -325032.730 6                   -253275.600 7        81.000          28.000          73.000                  
G10  23339079.303    23339078.905    23339083.725                    -7349271.388 8  -7349271.393 7                  -5726707.931 8       168.000          72.000         172.000                  
G13  23315009.652    23315008.448    23315009.565                    -7783630.853 8  -7783630.837 6                  -6065165.065 7       158.000          25.000          51.000                  
G15  20934180.492    20934180.277    20934181.290                   -21473358.457 9 -21473358.459 9                 -16732467.068 9       579.000         746.000        1249.000                  
G18  20414403.284    20414402.854    20414404.306                   -20842166.145 9 -20842166.138 8                 -16240651.311 9       568.000         423.000         660.000                  
G23  20692426.580    20692426.628    20692427.861                   -20509935.959 9 -20509935.959 8                 -15981753.206 8       528.000         357.000         369.000                  
G24  22937199.187    22937198.602    22937203.192                   -11116120.989 8 -11116120.992 8                  -8661919.237 9       206.000         107.000         689.000                  
G29  20762271.972    20762271.487    20762272.896                   -20857831.876 9 -20857831.878 9                 -16252856.047 9       629.000         891.000        1197.000                  
G32  25263100.521    25263099.886    25263105.333                      740552.618 7    740552.626 6                    577034.294 6        69.000          29.000          30.000                  
> 2024 10 31 17 52 20.0000000  0  9
G05  24567034.775    24567037.505    24567038.593                     -553557.068 7   -553557.055 6                   -431346.381 8        86.000          28.000         158.000                  
G10  23347756.019    23347755.264    23347759.877                    -7303675.268 8  -7303675.261 7                  -5691178.403 8       167.000          74.000         177.000                  
G13  23262327.976    23262327.398    23262328.250                    -8060472.713 8  -8060472.703 6                  -6280885.809 7       156.000          24.000          56.000                  
G15  20899255.924    20899255.857    20899256.863                   -21656887.175 9 -21656887.175 9                 -16875476.353 9       575.000         750.000        1300.000                  
G18  20372280.436    20372280.237    20372281.766                   -21063521.763 9 -21063521.756 8                 -16413136.125 9       572.000         435.000         689.000                  
G23  20668559.502    20668559.249    20668560.419                   -20635359.312 9 -20635359.311 8                 -16079485.596 8       528.000         358.000         377.000                  
G24  22961014.272    22961013.898    22961018.456                   -10990970.194 8 -10990970.191 8                  -8564399.087 9       206.000         109.000         674.000                  
G29  20813870.545    20813869.923    20813871.199                   -20586680.920 9 -20586680.920 9                 -16041569.587 9       626.000         876.000        1152.000                  
G32  25322073.336    25322073.572    25322080.372                     1050460.364 7   1050460.348 6                    818520.582 6        69.000          22.000          32.000                  
> 2024 10 31 17 52 30.0000000  0  9
G05  24523850.125    24523849.802    24523851.933                     -780504.093 7   -780504.091 6                   -608187.973 8        90.000          28.000         157.000                  
G10  23356731.447    23356730.097    23356735.199                    -7256511.626 8  -7256511.619 7                  -5654427.427 8       170.000          73.000         181.000                  
G13  23209875.229    23209874.177    23209876.448                    -8336110.776 8  -8336110.789 6                  -6495668.528 7       159.000          26.000          56.000                  
G15  20864919.095    20864919.012    20864919.984                   -21837328.341 9 -21837328.343 9                 -17016079.760 9       577.000         748.000        1331.000                  
G18  20331065.504    20331065.188    20331066.724                   -21280108.035 9 -21280108.027 8                 -16581904.568 9       594.000         467.000         693.000                  
G23  20645307.739    20645307.315    20645308.424                   -20757548.426 9 -20757548.427 8                 -16174697.803 8       528.000         362.000         388.000                  
G24  22985137.513    22985137.612    22985141.816                   -10864201.055 8 -10864201.057 8                  -8465617.888 9       205.000         102.000         658.000                  
G29  20866351.389    20866350.923    20866352.277                   -20310891.341 9 -20310891.342 9                 -15826668.616 9       623.000         865.000        1115.000                  
G32  25381115.533    25381114.854    25381120.729                     1360725.201 7   1360725.204 6                   1060285.139 6        65.000          23.000          27.000                  
> 2024 10 31 17 52 40.0000000  0  9
G05  24480964.536    24480965.016    24480966.735                    -1005863.528 7  -1005863.514 6                   -783792.490 8        96.000          33.000         166.000                  
G10  23366001.032    23366001.312    23366006.331                    -7207791.887 8  -7207791.879 7                  -5616463.910 8       165.000          68.000         181.000                  
G13  23157654.619    23157653.849    23157655.278                    -8610530.170 8  -8610530.182 6                  -6709501.649 7       156.000          26.000          58.000                  
G15  20831172.748    20831172.444    20831173.475                   -22014667.198 9 -22014667.200 9                 -17154265.790 9       580.000         759.000        1384.000                  
G18  20290766.044    20290765.998    20290767.307                   -21491882.144 9 -21491882.137 9                 -16746923.272 9       625.000         514.000         680.000                  
G23  20622674.045    20622673.755    20622674.890                   -20876488.283 9 -20876488.283 8                 -16267378.125 8       523.000         348.000         410.000                  
G24  23009563.380    23009562.647    23009567.073                   -10735844.760 8 -10735844.763 8                  -8365599.946 9       207.000         102.000         635.000                  
G29  20919698.775    20919698.470    20919699.871                   -20030547.963 9 -20030547.964 9                 -15608219.230 9       614.000         846.000        1102.000                  
G32  25440220.433    25440216.629    25440224.127                     1671308.130 7   1671308.144 6                   1302297.541 6        67.000          24.000          25.000                  
> 2024 10 31 17 52 50.0000000  0  9
G05  24438391.545    24438391.775    24438393.939                    -1229584.991 7  -1229584.983 6                   -958120.660 8        99.000          32.000         166.000                  
G10  23375574.020    23375573.918    23375578.774                    -7157487.331 8  -7157487.333 7                  -5577265.480 8       164.000          67.000         185.000                  
G13  23105677.079    23105676.670    23105677.780                    -8883675.716 8  -8883675.716 6                  -6922342.171 7       160.000          28.000          64.000                  
G15  20798027.031    20798026.578    20798027.628                   -22188849.167 9 -22188849.169 9                 -17289991.912 9       578.000         759.000        1421.000                  
G18  20251398.373    20251398.137    20251399.308                   -21698761.857 9 -21698761.849 9                 -16908128.163 9       659.000         568.000         664.000                  
G23  20600669.145    20600668.908    20600670.078                   -20992124.017 9 -20992124.018 8                 -16357483.806 8       526.000         357.000         423.000                  
G24  23034291.736    23034292.061    23034296.205                   -10605892.246 8 -10605892.253 7                  -8264338.199 9       200.000         100.000         621.000                  
G29  20973904.520    20973904.027    20973905.392                   -19745695.992 9 -19745695.993 9                 -15386256.663 9       610.000         829.000        1074.000                  
G32  25499380.068    25499379.325    25499385.717                     1982210.604 7   1982210.609 6                   1544558.927 6        65.000          21.000          23.000                  
> 2024 10 31 17 53  0.0000000  0  9
G05  24396128.863    24396128.428    24396130.486                    -1451679.272 8  -1451679.263 6                  -1131180.912 8       105.000          32.000         173.000                  
G10  23385442.365    23385441.545    23385446.669                    -7105630.401 8  -7105630.390 7                  -5536857.405 8       162.000          64.000         187.000                  
G13  23053940.847    23053939.785    23053940.901                    -9155553.207 8  -9155553.203 6                  -7134194.610 7       157.000          31.000          71.000                  
G15  20765480.532    20765480.312    20765481.288                   -22359880.932 9 -22359880.933 9                 -17423263.327 9       575.000         746.000        1432.000                  
G18  20212965.616    20212965.401    20212966.593                   -21900726.842 9 -21900726.835 9                 -17065503.400 9       679.000         591.000         658.000                  
G23  20579291.731    20579291.637    20579292.817                   -21104462.291 9 -21104462.291 8                 -16445020.043 8       535.000         358.000         438.000                  
G24  23059315.063    23059314.714    23059319.169                   -10474395.513 8 -10474395.509 7                  -8161873.162 9       196.000          99.000         606.000                  
G29  21028947.765    21028947.139    21028948.566                   -19456442.039 9 -19456442.040 9                 -15160863.984 9       599.000         802.000        1059.000                  
G32  25558592.525    25558591.835    25558598.437                     2293373.208 7   2293373.206 6                   1787023.035 6        63.000          25.000          24.000                  
> 2024 10 31 17 53 10.0000000  0  9
G05  24354185.925    24354186.298    24354187.527                    -1672089.870 8  -1672089.886 6                  -1302929.194 8       109.000          34.000         176.000                  
G10  23395612.328    23395611.618    23395616.577                    -7052186.496 8  -7052186.497 7                  -5495212.728 8       159.000          64.000         182.000                  
G13  23002456.091    23002455.806    23002457.279                    -9426101.072 8  -9426101.062 6                  -7345010.986 7       157.000          23.000          72.000                  
G15  20733545.042    20733544.899    20733545.814                   -22527702.370 9 -22527702.373 9                 -17554033.191 9       573.000         734.000        1445.000                  
G18  20175484.746    20175484.460    20175485.537                   -22097690.423 9 -22097690.415 9                 -17218981.442 9       689.000         620.000         643.000                  
G23  20558553.431    20558553.295    20558554.340                   -21213442.997 9 -21213442.996 8                 -16529939.991 8       540.000         370.000         454.000                  
G24  23084635.013    23084634.522    23084638.867                   -10341339.415 8 -10341339.423 7                  -8058193.036 9       194.000          91.000         590.000                  
G29  21084820.867    21084820.424    21084821.816                   -19162825.963 9 -19162825.963 9                 -14932072.243 9       591.000         783.000        1044.000                  
G32  25617856.913    25617855.592    25617862.123                     2604803.940 7   2604803.924 6                   2029696.019 6        63.000          24.000          26.000                  
> 2024 10 31 17 53 20.0000000  0  9
G05  24312562.756    24312562.658    24312564.308                    -1890820.307 8  -1890820.295 6                  -1473368.278 8       116.000          38.000         178.000                  
G10  23406078.784    23406079.044    23406083.677                    -6997180.922 8  -6997180.912 7                  -5452351.169 8       156.000          59.000         180.000                  
G13  22951225.404    22951225.132    22951227.118                    -9695317.436 8  -9695317.456 6                  -7554789.827 7       161.000          27.000          72.000                  
G15  20702220.547    20702220.332    20702221.292                   -22692313.534 9 -22692313.536 9                 -17682301.546 9       569.000         731.000        1475.000                  
G18  20138960.062    20138960.098    20138961.165                   -22289626.638 9 -22289626.630 9                 -17368542.059 9       686.000         620.000         628.000                  
G23  20538453.669    20538453.666    20538454.887                   -21319066.301 9 -21319066.301 8                 -16612243.789 8       538.000         372.000         454.000                  
G24  23110242.914    23110242.527    23110246.771                   -10206768.558 8 -10206768.556 7                  -7953332.580 9       192.000          92.000         568.000                  
G29  21141505.380    21141504.743    21141506.160                   -18864947.640 9 -18864947.640 9                 -14699959.271 9       579.000         749.000        1034.000                  
G32  25677162.115    25677160.666    25677166.792                     2916451.141 7   2916451.169 6                   2272537.703 6        59.000          24.000          23.000                  
> 2024 10 31 17 53 30.0000000  0  9
G05  24271267.103    24271266.486    24271267.965                    -2107831.826 8  -2107831.811 6                  -1642467.922 8       118.000          38.000         187.000                  
G10  23416846.627    23416846.272    23416851.604                    -6940596.562 8  -6940596.565 7                  -5408259.390 8       150.000          56.000         176.000                  
G13  22900257.628    22900256.523    22900258.686                    -9963157.781 8  -9963157.790 6                  -7763496.454 7       162.000          29.000          79.000                  
G15  20671514.989    20671514.625    20671515.732                   -22853672.311 9 -22853672.313 9                 -17808035.584 9       563.000         732.000        1543.000                  
G18  20103405.561    20103405.407    20103406.350                   -22476467.985 9 -22476467.976 9                 -17514132.652 9       698.000         647.000         622.000                  
G23  20519001.387    20519001.001    20519002.130                   -21421290.336 9 -21421290.336 8                 -16691898.805 8       551.000         387.000         440.000                  
G24  23136138.454    23136138.121    23136142.430                   -10070685.120 8 -10070685.116 7                  -7847293.493 9       190.000          88.000         550.000                  
G29  21198989.681    21198989.262    21198990.708                   -18562864.869 9 -18562864.869 9                 -14464570.107 9       561.000         694.000        1043.000                  
G32  25736506.330    25736504.648    25736512.085                     3228305.942 7   3228305.959 6                   2515541.054 6        57.000          24.000          19.000                  
> 2024 10 31 17 53 40.0000000  0  9
G05  24230302.707    24230301.533    24230302.684                    -2323103.631 8  -2323103.640 6                  -1810211.983 8       121.000          47.000         189.000                  
G10  23427914.880    23427914.058    23427919.017                    -6882434.433 8  -6882434.426 7                  -5362938.179 8       145.000          52.000         174.000                  
G13  22849556.224    22849555.623    22849556.995                   -10229595.442 8 -10229595.439 6                  -7971110.090 7       167.000          25.000          81.000                  
G15  20641432.638    20641432.440    20641433.537                   -23011754.964 9 -23011754.965 9                 -17931216.795 9       562.000         711.000        1588.000                  
G18  20068829.356    20068829.306    20068830.326                   -22658165.910 9 -22658165.902 9                 -17655715.385 9       699.000         647.000         620.000                  
G23  20500199.909    20500199.943    20500200.704                   -21520091.694 9 -21520091.693 8                 -16768886.816 8       561.000         392.000         417.000                  
G24  23162318.283    23162318.199    23162322.328                    -9933109.146 8  -9933109.154 7                  -7740091.407 9       191.000          89.000         523.000                  
G29  21257259.599    21257259.281    21257260.871                   -18256653.625 9 -18256653.627 9                 -14225963.951 9       539.000         662.000        1065.000                  
G32  25795885.497    25795882.661    25795890.898                     3540341.665 7   3540341.679 6                   2758685.443 6        56.000          20.000          24.000                  
> 2024 10 31 17 53 50.0000000  0  9
G05  24189670.016    24189669.506    24189670.692                    -2536626.654 8  -2536626.661 6                  -1976593.376 8       127.000          47.000         191.000                  
G10  23439280.313    23439279.231    23439284.661                    -6822707.388 8  -6822707.382 7                  -5316397.552 8       141.000          55.000         177.000                  
G13  22799125.144    22799123.617    22799125.348                   -10494615.298 8 -10494615.297 6                  -8177618.956 7       167.000          29.000          83.000                  
G15  20611976.429    20611975.973    20611976.953                   -23166549.760 9 -23166549.763 9                 -18051836.048 9       567.000         726.000        1598.000                  
G18  20035239.156    20035238.932    20035239.859                   -22834684.580 9 -22834684.573 9                 -17793262.336 9       714.000         669.000         649.000                  
G23  20482051.998    20482051.983    20482052.880                   -21615459.114 9 -21615459.113 8                 -16843199.017 8       546.000         383.000         393.000                  
G24  23188776.310    23188775.478    23188780.039                    -9794072.421 8  -9794072.415 7                  -7631751.068 9       181.000          86.000         514.000                  
G29  21316298.755    21316298.177    21316299.777                   -17946401.898 9 -17946401.898 9                 -13984209.367 9       526.000         615.000        1072.000                  
G32  25855289.573    25855289.524    25855296.116                     3852520.136 7   3852520.117 6                   3001941.046 6        54.000          21.000          27.000                  
> 2024 10 31 17 54  0.0000000  0  8
G05  24149379.828    24149379.334    24149380.642                    -2748351.519 8  -2748351.540 6                  -2141573.595 8       128.000          41.000         185.000                  
G10  23450949.029    23450948.313    23450953.263                    -6761387.836 8  -6761387.865 6                  -5268616.016 8       139.000          50.000         169.000                  
G13  22748973.099    22748971.864    22748973.887                   -10758161.821 8 -10758161.826 6                  -8382979.775 7       171.000          31.000          80.000                  
G15  20583154.986    20583154.879    20583155.961                   -23318004.887 9 -23318004.888 9                 -18169852.958 9       564.000         732.000        1620.000                  
G18  20002648.501    20002648.375    20002649.277                   -23005948.761 9 -23005948.753 9                 -17926714.880 9       725.000         686.000         692.000                  
G23  20464567.510    20464567.096    20464568.200                   -21707341.431 9 -21707341.431 8                 -16914795.549 8       540.000         367.000         395.000                  
G24  23215513.635    23215513.162    23215517.327                    -9653566.225 8  -9653566.231 7                  -7522265.683 8       182.000          84.000         496.000                  
G29  21376097.401    21376096.973    21376098.621                   -17632157.344 9 -17632157.345 9                 -13739343.495 9       514.000         581.000        1046.000                  
> 2024 10 31 17 54 10.0000000  0  8
G05  24109429.231    24109429.396    24109430.233                    -2958290.161 8  -2958290.167 7                  -2305161.976 8       134.000          55.000         190.000                  
G10  23462915.027    23462913.646    23462918.671                    -6698509.419 8  -6698509.429 6                  -5219619.770 8       137.000          49.000         169.000                  
G13  22699101.340    22699100.394    22699101.554                   -11020240.258 8 -11020240.273 6                  -8587196.616 7       174.000          27.000          79.000                  
G15  20554967.794    20554967.462    20554968.519                   -23466130.063 9 -23466130.063 9                 -18285275.100 9       563.000         724.000        1630.000                  
G18  19971060.445    19971060.223    19971061.130                   -23171945.302 9 -23171945.294 9                 -18056062.766 9       727.000         700.000         720.000                  
G23  20447743.819    20447743.681    20447744.715                   -21795748.984 9 -21795748.983 8                 -16983684.477 8       528.000         365.000         397.000                  
G24  23242521.413    23242520.129    23242524.492                    -9511642.851 8  -9511642.855 7                  -7411675.994 8       176.000          83.000         489.000                  
G29  21436635.300    21436634.832    21436636.418                   -17314028.709 8 -17314028.710 9                 -13491451.068 9       496.000         554.000         987.000                  
> 2024 10 31 17 54 20.0000000  0  8
G05  24069828.978    24069828.876    24069830.054                    -3166389.810 8  -3166389.827 6                  -2467317.394 8       133.000          47.000         185.000                  
G10  23475182.252    23475181.622    23475186.682                    -6634041.119 8  -6634041.113 6                  -5169384.669 8       139.000          48.000         166.000                  
G13  22649519.934    22649519.609    22649520.258                   -11280791.066 8 -11280791.054 6                  -8790223.098 7       175.000          27.000          91.000                  
G15  20527424.382    20527424.273    20527425.246                   -23610870.632 9 -23610870.633 9                 -18398059.894 9       575.000         747.000        1635.000                  
G18  19940489.130    19940489.121    19940489.921                   -23332597.445 9 -23332597.438 9                 -18181246.188 9       728.000         710.000         748.000                  
G23  20431591.832    20431591.699    20431592.687                   -21880627.929 9 -21880627.929 8                 -17049823.842 8       526.000         347.000         404.000                  
G24  23269799.233    23269799.470    23269803.656                    -9368289.824 8  -9368289.829 7                  -7299972.292 8       172.000          76.000         471.000                  
G29  21497903.935    21497903.389    21497904.992                   -16992060.224 8 -16992060.226 9                 -13240566.554 9       483.000         519.000         932.000                  
> 2024 10 31 17 54 30.0000000  0  8
G05  24030578.998    24030577.978    24030579.028                    -3372654.985 8  -3372654.997 6                  -2628043.352 8       139.000          46.000         196.000                  
G10  23487748.188    23487746.547    23487751.817                    -6568009.158 8  -6568009.163 6                  -5117931.129 8       135.000          49.000         161.000                  
G13  22600229.869    22600229.676    22600230.432                   -11539811.736 8 -11539811.735 6                  -8992057.269 7       180.000          29.000          86.000                  
G15  20500524.685    20500524.562    20500525.499                   -23752229.517 9 -23752229.519 9                 -18508209.608 9       581.000         779.000        1643.000                  
G18  19910938.642    19910938.467    19910939.359                   -23487886.738 9 -23487886.732 9                 -18302250.764 9       723.000         693.000         760.000                  
G23  20416110.529    20416110.381    20416111.703                   -21961982.078 9 -21961982.077 8                 -17113216.616 8       521.000         357.000         420.000                  
G24  23297343.302    23297342.050    23297346.290                    -9223551.771 8  -9223551.770 7                  -7187189.348 8       176.000          73.000         465.000                  
G29  21559883.899    21559883.490    21559884.962                   -16666353.288 8 -16666353.289 8                 -12986768.961 9       472.000         498.000         911.000                  
> 2024 10 31 17 54 40.0000000  0  8
G05  23991683.586    23991682.708    23991683.995                    -3577049.493 8  -3577049.493 7                  -2787311.630 8       144.000          51.000         201.000                  
G10  23500612.653    23500612.936    23500617.868                    -6500399.220 8  -6500399.205 6                  -5065247.994 8       135.000          45.000         145.000                  
G13  22551238.699    22551239.005    22551239.604                   -11797259.024 8 -11797259.021 6                  -9192665.446 7       184.000          25.000          86.000                  
G15  20474275.500    20474275.419    20474276.368                   -23890169.347 9 -23890169.348 9                 -18615695.124 9       591.000         796.000        1685.000                  
G18  19882419.649    19882419.382    19882420.309                   -23637755.217 9 -23637755.211 9                 -18419031.333 9       717.000         681.000         789.000                  
G23  20401307.149    20401306.912    20401307.980                   -22039775.128 9 -22039775.128 8                 -17173834.520 8       535.000         367.000         436.000                  
G24  23325148.640    23325147.732    23325151.913                    -9077432.594 8  -9077432.597 7                  -7073330.205 8       171.000          72.000         458.000                  
G29  21622563.605    21622563.251    21622564.817                   -16336968.695 8 -16336968.697 8                 -12730105.660 9       449.000         454.000         872.000                  
> 2024 10 31 17 54 50.0000000  0  8
G05  23953150.434    23953149.899    23953150.932                    -3779540.969 8  -3779540.953 6                  -2945097.044 8       139.000          50.000         210.000                  
G10  23513780.894    23513780.693    23513785.763                    -6431200.540 8  -6431200.541 6                  -5011326.882 8       133.000          47.000         145.000                  
G13  22502555.023    22502554.775    22502555.950                   -12053093.011 8 -12053092.991 6                  -9392016.492 7       179.000          26.000          94.000                  
G15  20448683.510    20448683.347    20448684.240                   -24024656.657 9 -24024656.659 9                 -18720490.365 9       598.000         821.000        1711.000                  
G18  19854942.315    19854941.954    19854942.875                   -23782149.679 9 -23782149.673 9                 -18531546.436 9       712.000         682.000         793.000                  
G23  20387187.489    20387187.243    20387188.234                   -22113974.818 9 -22113974.820 8                 -17231652.418 8       545.000         381.000         449.000                  
G24  23353215.288    23353214.474    23353218.848                    -8929939.648 8  -8929939.659 7                  -6958400.599 8       169.000          67.000         448.000                  
G29  21685931.302    21685930.762    21685932.312                   -16003970.794 8 -16003970.796 8                 -12470626.801 9       432.000         413.000         826.000                  
> 2024 10 31 17 55  0.0000000  0  8
G05  23914977.964    23914978.152    23914979.474                    -3980133.547 8  -3980133.558 7                  -3101402.792 8       143.000          57.000         221.000                  
G10  23527246.548    23527245.904    23527250.851                    -6360438.950 8  -6360438.938 6                  -4956187.917 8       130.000          45.000         126.000                  
G13  22454179.691    22454178.861    22454180.237                   -12307310.198 8 -12307310.199 6                  -9590107.696 7       189.000          28.000          89.000                  
G15  20423747.616    20423747.655    20423748.434                   -24155694.824 9 -24155694.825 9                 -18822597.956 9       609.000         846.000        1745.000                  
G18  19828509.504    19828509.095    19828510.135                   -23921054.548 9 -23921054.543 9                 -18639783.937 9       708.000         670.000         791.000                  
G23  20373750.558    20373750.241    20373751.454                   -22184585.827 9 -22184585.827 8                 -17286673.931 8       545.000         382.000         460.000                  
G24  23381535.276    23381534.454    23381538.830                    -8781116.649 8  -8781116.637 7                  -6842434.579 8       164.000          63.000         444.000                  
G29  21749966.969    21749966.587    21749968.224                   -15667460.248 8 -15667460.249 8                 -12208410.819 9       406.000         364.000         777.000                  
> 2024 10 31 17 55 10.0000000  0  8
G05  23877175.235    23877174.660    23877175.726                    -4178791.584 8  -4178791.573 7                  -3256201.119 8       148.000          56.000         231.000                  
G10  23541011.641    23541011.329    23541016.162                    -6288100.621 8  -6288100.616 6                  -4899820.319 8       127.000          44.000         127.000                  
G13  22406119.174    22406119.035    22406119.823                   -12559867.276 8 -12559867.264 6                  -9786905.307 7       189.000          31.000          88.000                  
G15  20399475.228    20399475.016    20399475.780                   -24283248.081 9 -24283248.083 9                 -18921990.039 9       616.000         846.000        1723.000                  
G18  19803131.494    19803131.338    19803132.167                   -24054415.835 9 -24054415.831 9                 -18743701.765 9       721.000         700.000         801.000                  
G23  20361002.967    20361002.749    20361003.874                   -22251573.778 9 -22251573.774 8                 -17338872.289 8       554.000         384.000         482.000                  
G24  23410107.382    23410107.077    23410111.181                    -8630967.558 8  -8630967.553 7                  -6725435.249 8       164.000          68.000         440.000                  
G29  21814659.985    21814659.100    21814660.768                   -15327497.972 8 -15327497.974 8                 -11943505.173 9       371.000         308.000         721.000                  
> 2024 10 31 17 55 20.0000000  0  8
G05  23839745.696    23839745.496    23839746.550                    -4375483.366 8  -4375483.355 7                  -3409467.309 8       148.000          54.000         232.000                  
G10  23555079.205    23555078.910    23555083.743                    -6214175.362 8  -6214175.363 6                  -4842216.142 8       129.000          39.000         117.000                  
G13  22358382.874    22358382.354    22358382.929                   -12810724.352 8 -12810724.341 6                  -9982378.250 7       189.000          26.000          96.000                  
G15  20375871.693    20375871.516    20375872.285                   -24407284.602 9 -24407284.603 9                 -19018641.815 9       619.000         866.000        1689.000                  
G18  19778818.005    19778817.751    19778818.646                   -24182184.398 9 -24182184.393 9                 -18843261.626 9       731.000         717.000         790.000                  
G23  20348951.038    20348950.697    20348951.816                   -22314908.307 9 -22314908.306 8                 -17388223.816 9       569.000         410.000         513.000                  
G24  23438931.033    23438930.368    23438934.572                    -8479499.782 8  -8479499.779 7                  -6607408.380 8       160.000          70.000         429.000                  
G29  21879996.658    21879996.351    21879998.166                   -14984148.315 8 -14984148.315 8                 -11675960.011 9       340.000         249.000         688.000                  
> 2024 10 31 17 55 30.0000000  0  8
G05  23802689.162    23802689.349    23802690.253                    -4570213.858 8  -4570213.863 7                  -3561205.212 8       149.000          58.000         235.000                  
G10  23569444.038    23569443.177    23569448.411                    -6138689.443 8  -6138689.462 6                  -4783395.865 8       131.000          40.000         107.000                  
G13  22310970.634    22310969.241    22310970.858                   -13059877.648 8 -13059877.651 6                 -10176523.568 7       183.000          33.000          93.000                  
G15  20352936.757    20352936.446    20352937.058                   -24527809.311 9 -24527809.314 9                 -19112557.114 9       624.000         881.000        1679.000                  
G18  19755570.848    19755570.707    19755571.472                   -24304348.741 9 -24304348.739 9                 -18938454.563 9       745.000         748.000         825.000                  
G23  20337592.739    20337592.385    20337593.541                   -22374596.004 9 -22374596.001 8                 -17434733.646 9       566.000         413.000         532.000                  
G24  23467996.120    23467996.318    23468000.341                    -8326756.960 8  -8326756.958 7                  -6488387.977 8       163.000          67.000         416.000                  
G29  21945959.527    21945958.898    21945960.921                   -14637511.773 8 -14637511.775 8                 -11405853.636 9       317.000         228.000         656.000                  
> 2024 10 31 17 55 40.0000000  0  8
G05  23766013.868    23766013.083    23766014.171                    -4762948.392 8  -4762948.387 7                  -3711387.834 8       153.000          52.000         247.000                  
G10  23584107.927    23584107.411    23584112.056                    -6061629.771 8  -6061629.755 7                  -4723349.275 8       129.000          51.000         107.000                  
G13  22263891.112    22263889.837    22263890.664                   -13307284.059 8 -13307284.071 6                 -10369307.691 8       184.000          28.000         104.000                  
G15  20330676.167    20330675.917    20330676.671                   -24644788.237 9 -24644788.239 9                 -19203709.452 9       626.000         881.000        1671.000                  
G18  19733399.605    19733399.345    19733400.266                   -24420859.347 9 -24420859.344 9                 -19029241.993 9       749.000         747.000         873.000                  
G23  20326934.452    20326934.274    20326935.425                   -22430604.664 9 -22430604.663 8                 -17478376.691 9       572.000         416.000         525.000                  
G24  23497304.263    23497304.086    23497308.517                    -8172743.293 8  -8172743.298 7                  -6368377.324 8       161.000          70.000         411.000                  
G29  22012536.415    22012535.959    22012537.540                   -14287649.342 8 -14287649.339 8                 -11133233.584 9       303.000         207.000         635.000                  
> 2024 10 31 17 55 50.0000000  0  8
G05  23729723.736    23729723.042    23729723.492                    -4953655.752 8  -4953655.755 7                  -3859990.846 8       156.000          56.000         260.000                  
G10  23599074.206    23599072.969    23599077.218                    -5982986.514 8  -5982986.514 6                  -4662068.733 8       137.000          41.000         107.000                  
G13  22217151.067    22217150.068    22217150.958                   -13552903.466 8 -13552903.446 6                 -10560699.329 8       181.000          30.000         101.000                  
G15  20309096.355    20309096.133    20309096.824                   -24758190.996 9 -24758190.999 9                 -19292075.175 9       629.000         902.000        1683.000                  
G18  19712312.728    19712312.455    19712313.407                   -24531671.178 9 -24531671.176 9                 -19115588.819 9       749.000         754.000         905.000                  
G23  20316981.916    20316981.702    20316982.683                   -22482905.775 9 -22482905.773 8                 -17519130.733 9       580.000         426.000         502.000                  
G24  23526852.925    23526852.420    23526856.657                    -8017465.935 8  -8017465.933 7                  -6247381.969 8       163.000          71.000         401.000                  
G29  22079714.928    22079714.112    22079716.064                   -13934625.008 8 -13934625.010 8                 -10858149.717 9       285.000         185.000         626.000                  
> 2024 10 31 17 56  0.0000000  0  8
G05  23693816.809    23693817.046    23693817.871                    -5142341.593 8  -5142341.605 7                  -4007018.651 8       159.000          60.000         263.000                  
G10  23614334.375    23614334.584    23614339.087                    -5902786.659 8  -5902786.660 7                  -4599575.233 7       140.000          52.000          99.000                  
G13  22170751.264    22170750.760    22170751.529                   -13796732.407 8 -13796732.401 6                 -10750695.811 7       189.000          34.000          99.000                  
G15  20288195.649    20288195.473    20288196.159                   -24868024.481 9 -24868024.482 9                 -19377659.643 9       638.000         920.000        1709.000                  
G18  19692311.673    19692311.372    19692312.280                   -24636777.432 9 -24636777.429 9                 -19197489.742 9       750.000         752.000         947.000                  
G23  20307733.219    20307732.917    20307733.829                   -22531508.231 9 -22531508.230 8                 -17557002.709 8       575.000         410.000         470.000                  
G24  23556633.433    23556633.154    23556637.058                    -7860968.760 8  -7860968.762 7                  -6125436.092 8       161.000          64.000         391.000                  
G29  22147475.721    22147474.988    22147476.937                   -13578539.203 8 -13578539.201 8                 -10580680.277 9       270.000         160.000         620.000                  
> 2024 10 31 17 56 10.0000000  0  8
G05  23658302.765    23658302.164    23658303.329                    -5328971.867 8  -5328971.876 7                  -4152444.720 8       168.000          69.000         270.000                  
G10  23629894.836    23629894.501    23629898.570                    -5821017.608 8  -5821017.595 7                  -4535858.997 7       145.000          51.000          89.000                  
G13  22124701.390    22124700.243    22124701.544                   -14038727.672 8 -14038727.660 6                 -10939263.452 8       187.000          28.000         104.000                  
G15  20267980.392    20267980.160    20267980.805                   -24974256.314 9 -24974256.316 9                 -19460437.626 9       651.000         962.000        1711.000                  
G18  19673404.673    19673404.571    19673405.532                   -24736132.980 9 -24736132.979 9                 -19274909.594 9       744.000         746.000        1030.000                  
G23  20299193.977    20299193.637    20299194.657                   -22576381.773 9 -22576381.772 8                 -17591969.038 8       561.000         406.000         460.000                  
G24  23586645.450    23586644.495    23586648.882                    -7703255.850 8  -7703255.852 7                  -6002542.898 8       160.000          69.000         384.000                  
G29  22215806.936    22215807.054    22215808.950                   -13219452.540 8 -13219452.543 8                 -10300872.502 9       251.000         144.000         582.000                  
> 2024 10 31 17 56 20.0000000  0  9
G05  23623184.600    23623184.268    23623185.250                    -5513516.584 8  -5513516.581 7                  -4296245.695 8       173.000          72.000         274.000                  
G10  23645755.490    23645754.795    23645759.103                    -5737670.652 8  -5737670.631 7                  -4470913.219 7       144.000          52.000          93.000                  
G13  22079006.236    22079007.129    22079007.135                   -14278849.791 8 -14278849.789 6                 -11126371.513 8       191.000          29.000         113.000                  
G15  20248455.815    20248455.622    20248456.298                   -25076858.526 9 -25076858.527 9                 -19540387.336 9       662.000        1002.000        1722.000                  
G18  19655600.092    19655599.715    19655600.617                   -24829698.030 9 -24829698.030 9                 -19347817.375 9       752.000         770.000        1075.000                  
G23  20291369.222    20291368.952    20291369.876                   -22617500.628 9 -22617500.627 8                 -17624009.638 8       560.000         402.000         445.000                  
G24  23616886.283    23616886.420    23616890.459                    -7544334.974 8  -7544334.978 7                  -5878708.434 8       160.000          61.000         363.000                  
G27  24890645.758    24890674.960    24890693.414                     -320362.488 7   -320362.479 6                   -249636.429 6        84.000          17.000          19.000                  
G29  22284697.811    22284697.635    22284699.683                   -12857429.056 8 -12857429.058 8                 -10018776.289 9       234.000         127.000         530.000                  
> 2024 10 31 17 56 30.0000000  0  9
G05  23588461.171    23588461.510    23588462.806                    -5695984.696 8  -5695984.686 7                  -4438428.547 8       177.000          80.000         277.000                  
G10  23661910.272    23661909.758    23661913.719                    -5652775.940 8  -5652775.946 7                  -4404761.409 7       142.000          52.000          86.000                  
G13  22033669.872    22033669.505    22033670.879                   -14517097.984 8 -14517097.998 6                 -11312019.359 8       191.000          26.000         117.000                  
G15  20229619.784    20229619.562    20229620.232                   -25175842.333 9 -25175842.336 9                 -19617517.513 9       675.000        1037.000        1746.000                  
G18  19638896.988    19638896.611    19638897.493                   -24917473.068 9 -24917473.069 9                 -19416213.461 9       775.000         809.000        1122.000                  
G23  20284256.374    20284255.976    20284257.059                   -22654878.430 9 -22654878.429 8                 -17653135.136 8       561.000         400.000         432.000                  
G24  23647349.596    23647348.828    23647352.893                    -7384252.580 8  -7384252.578 7                  -5753968.869 8       161.000          62.000         352.000                  
G27  24837597.495    24837624.264    24837616.990                     -599131.599 7   -599131.609 6                   -466856.816 6        82.000          16.000          21.000                  
G29  22354128.028    22354127.600    22354129.715                   -12492571.356 8 -12492571.360 8                  -9734471.587 8       219.000         108.000         477.000                  
> 2024 10 31 17 56 40.0000000  0  9
G05  23554143.036    23554143.438    23554143.948                    -5876329.678 8  -5876329.676 7                  -4578956.987 8       181.000          79.000         276.000                  
G10  23678364.748    23678363.883    23678367.981                    -5566308.134 8  -5566308.132 7                  -4337383.792 7       143.000          53.000          79.000                  
G13  21988700.156    21988700.146    21988700.220                   -14753415.847 8 -14753415.855 6                 -11496163.058 8       189.000          27.000         110.000                  
G15  20211480.881    20211480.464    20211481.064                   -25271163.894 9 -25271163.897 9                 -19691793.987 9       682.000        1053.000        1758.000                  
G18  19623305.812    19623305.632    19623306.410                   -24999404.453 9 -24999404.454 9                 -19480056.050 9       808.000         883.000        1176.000                  
G23  20277863.166    20277863.064    20277864.005                   -22688473.787 9 -22688473.785 8                 -17679313.262 8       549.000         380.000         431.000                  
G24  23678034.793    23678034.347    23678038.354                    -7222999.382 8  -7222999.380 7                  -5628316.971 8       155.000          62.000         336.000                  
G27  24784914.539    24784939.874    24784919.366                     -875971.017 7   -875971.021 6                   -682575.597 7        85.000          20.000          78.000                  
G29  22424088.831    22424088.440    22424090.192                   -12124926.156 8 -12124926.152 7                  -9447994.818 8       207.000          97.000         430.000                  
> 2024 10 31 17 56 50.0000000  0  9
G05  23520230.748    23520229.607    23520230.519                    -6054545.730 8  -6054545.738 7                  -4717826.523 8       188.000          87.000         283.000                  
G10  23695114.487    23695114.319    23695118.414                    -5478282.287 8  -5478282.263 7                  -4268792.138 7       137.000          52.000          86.000                  
G13  21944100.695    21944100.077    21944101.085                   -14987787.257 8 -14987787.253 6                 -11678790.047 8       194.000          27.000         122.000                  
G15  20194038.968    20194038.812    20194039.288                   -25362820.315 9 -25362820.317 9                 -19763214.518 9       675.000        1050.000        1775.000                  
G18  19608829.088    19608828.813    19608829.626                   -25075480.454 9 -25075480.455 9                 -19539336.004 9       849.000         970.000        1215.000                  
G23  20272189.999    20272189.884    20272190.685                   -22718286.334 9 -22718286.331 8                 -17702543.740 8       556.000         398.000         409.000                  
G24  23708936.721    23708936.843    23708940.641                    -7060606.413 8  -7060606.418 7                  -5501776.954 8       149.000          57.000         313.000                  
G27  24732611.793    24732627.233    24732613.222                    -1150841.970 7  -1150841.961 6                   -896760.549 7        87.000          18.000          81.000                  
G29  22494563.407    22494562.926    22494564.723                   -11754580.151 8 -11754580.146 7                  -9159413.544 8       199.000          91.000         396.000                  
> 2024 10 31 17 57  0.0000000  0  9
G05  23486725.105    23486723.913    23486724.632                    -6230619.886 8  -6230619.885 7                  -4855027.055 8       194.000          91.000         291.000                  
G10  23712159.935    23712160.180    23712164.213                    -5388706.337 8  -5388706.337 6                  -4198992.609 7       135.000          48.000          84.000                  
G13  21899876.254    21899875.551    21899876.184                   -15220188.828 8 -15220188.821 6                 -11859882.097 8       196.000          29.000         115.000                  
G15  20177296.637    20177296.389    20177296.935                   -25450801.889 9 -25450801.891 9                 -19831771.534 9       680.000        1052.000        1788.000                  
G18  19595469.876    19595469.557    19595470.332                   -25145683.659 9 -25145683.661 9                 -19594039.751 9       874.000        1020.000        1251.000                  
G23  20267238.177    20267237.923    20267238.666                   -22744309.146 9 -22744309.146 8                 -17722821.191 8       557.000         391.000         398.000                  
G24  23740051.369    23740051.206    23740055.573                    -6897097.266 8  -6897097.271 7                  -5374367.189 8       148.000          56.000         294.000                  
G27  24680687.374    24680694.415    24680689.182                    -1423698.322 7  -1423698.330 6                  -1109375.715 7        88.000          21.000          80.000                  
G29  22565537.454    22565536.676    22565538.236                   -11381612.427 8 -11381612.426 7                  -8868789.375 8       189.000          78.000         359.000                  
> 2024 10 31 17 57 10.0000000  0  9
G05  23453632.138    23453632.109    23453632.839                    -6404518.318 8  -6404518.328 7                  -4990532.212 8       195.000         100.000         285.000                  
G10  23729503.406    23729503.336    23729507.440                    -5297567.342 8  -5297567.349 6                  -4127975.134 7       128.000          49.000          78.000                  
G13  21856034.518    21856034.229    21856034.975                   -15450576.200 8 -15450576.193 6                 -12039404.644 8       205.000          38.000         116.000                  
G15  20161259.548    20161259.082    20161259.566                   -25535078.484 9 -25535078.486 9                 -19897441.557 9       681.000        1051.000        1789.000                  
G18  19583235.097    19583234.933    19583235.687                   -25209977.281 9 -25209977.283 9                 -19644138.629 9       889.000        1065.000        1297.000                  
G23  20263012.554    20263012.267    20263012.872                   -22766514.950 9 -22766514.948 8                 -17740124.354 8       558.000         397.000         388.000                  
G24  23771378.434    23771377.767    23771382.143                    -6732474.471 8  -6732474.473 7                  -5246089.648 8       149.000          53.000         277.000                  
G27  24629159.272    24629161.321    24629163.152                    -1694472.955 7  -1694472.971 6                  -1320368.757 7        92.000          31.000          85.000                  
G29  22636998.722    22636998.038    22636999.578                   -11006080.772 8 -11006080.783 7                  -8576167.338 8       176.000          69.000         345.000                  
> 2024 10 31 17 57 20.0000000  0  9
G05  23420956.711    23420955.767    23420956.416                    -6576233.371 8  -6576233.362 7                  -5124336.037 8       200.000          91.000         285.000                  
G10  23747141.454    23747141.522    23747145.745                    -5204878.384 8  -5204878.379 6                  -4055749.896 7       132.000          43.000          72.000                  
G13  21812579.995    21812579.736    21812580.513                   -15678930.686 8 -15678930.679 6                 -12217343.128 8       212.000          31.000         126.000                  
G15  20145927.498    20145927.399    20145927.903                   -25615646.579 9 -25615646.582 9                 -19960221.835 9       684.000        1065.000        1795.000                  
G18  19572126.645    19572126.464    19572127.306                   -25268352.091 9 -25268352.094 9                 -19689625.446 9       891.000        1073.000        1297.000                  
G23  20259513.581    20259513.207    20259513.806                   -22784903.112 9 -22784903.111 8                 -17754452.737 8       576.000         422.000         406.000                  
G24  23802911.581    23802911.058    23802915.120                    -6566766.389 8  -6566766.394 7                  -5116966.421 8       144.000          56.000         262.000                  
G27  24578037.519    24578036.484    24578040.705                    -1963124.621 7  -1963124.630 6                  -1529707.557 7        91.000          30.000          91.000                  
G29  22708932.249    22708931.162    22708933.109                   -10628068.526 8 -10628068.540 7                  -8281612.373 8       160.000          63.000         332.000                  
> 2024 10 31 17 57 30.0000000  0  9
G05  23388697.540    23388697.019    23388697.922                    -6745753.036 8  -6745753.035 8                  -5256429.193 8       203.000         103.000         283.000                  
G10  23765073.622    23765072.610    23765077.146                    -5110648.060 8  -5110648.071 6                  -3982323.596 7       129.000          43.000          76.000                  
G13  21769517.185    21769516.217    21769517.032                   -15905229.228 8 -15905229.231 6                 -12393679.582 8       218.000          38.000         127.000                  
G15  20131303.133    20131302.913    20131303.446                   -25692498.614 9 -25692498.616 9                 -20020106.497 9       689.000        1074.000        1835.000                  
G18  19562146.824    19562146.692    19562147.437                   -25320795.916 9 -25320795.919 9                 -19730490.720 9       880.000        1045.000        1274.000                  
G23  20256741.773    20256741.340    20256742.001                   -22799469.102 9 -22799469.100 8                 -17765802.810 8       587.000         435.000         429.000                  
G24  23834647.282    23834646.390    23834650.130                    -6399996.682 8  -6399996.690 7                  -4987015.948 8       142.000          52.000         231.000                  
G27  24527328.309    24527326.834    24527329.927                    -2229607.570 7  -2229607.564 6                  -1737356.444 7        92.000          31.000          92.000                  
G29  22781321.786    22781321.295    22781323.375                   -10247654.094 8 -10247654.099 6                  -7985185.579 8       141.000          45.000         303.000                  
> 2024 10 31 17 57 40.0000000  0  9
G05  23356863.252    23356862.649    23356863.444                    -6913044.289 8  -6913044.288 8                  -5386785.912 8       210.000         103.000         285.000                  
G10  23783300.835    23783299.856    23783303.652                    -5014863.818 8  -5014863.822 6                  -3907686.402 7       123.000          44.000          69.000                  
G13  21726853.475    21726852.670    21726853.463                   -16129427.530 8 -16129427.523 6                 -12568379.494 8       232.000          40.000         124.000                  
G15  20117391.122    20117390.972    20117391.430                   -25765606.344 9 -25765606.347 9                 -20077073.515 9       695.000        1095.000        1830.000                  
G18  19553301.722    19553301.552    19553302.375                   -25367277.000 9 -25367277.002 9                 -19766709.706 9       865.000        1019.000        1278.000                  
G23  20254701.865    20254701.574    20254702.355                   -22810187.822 9 -22810187.819 8                 -17774155.012 8       586.000         437.000         454.000                  
G24  23866584.087    23866583.271    23866586.870                    -6232167.718 8  -6232167.730 6                  -4856240.071 8       141.000          50.000         218.000                  
G27  24477043.094    24477041.172    24477045.529                    -2493854.747 7  -2493854.740 6                  -1943263.180 7        98.000          29.000          93.000                  
G29  22854158.748    22854158.396    22854160.100                    -9864894.195 8  -9864894.166 6                  -7686931.155 8       140.000          41.000         275.000                  
> 2024 10 31 17 57 50.0000000  0  9
G05  23325454.052    23325453.263    23325453.985                    -7078100.518 8  -7078100.521 8                  -5515401.067 8       214.000         113.000         282.000                  
G10  23801820.190    23801819.644    23801823.703                    -4917539.500 8  -4917539.502 6                  -3831849.179 7       127.000          43.000          66.000                  
G13  21684593.563    21684592.417    21684593.086                   -16351507.426 8 -16351507.423 6                 -12741428.699 8       248.000          46.000         126.000                  
G15  20104191.898    20104191.840    20104192.306                   -25834968.323 9 -25834968.325 9                 -20131121.764 9       698.000        1125.000        1860.000                  
G18  19545592.230    19545591.838    19545592.669                   -25407791.450 9 -25407791.453 9                 -19798279.367 9       848.000         980.000        1281.000                  
G23  20253393.751    20253393.413    20253394.366                   -22817061.103 9 -22817061.102 8                 -17779510.764 8       581.000         428.000         440.000                  
G24  23898716.384    23898715.895    23898719.851                    -6063307.887 8  -6063307.880 7                  -4724660.919 8       139.000          53.000         209.000                  
G27  24427190.411    24427189.678    24427193.657                    -2755825.344 8  -2755825.355 6                  -2147395.965 7       102.000          31.000          93.000                  
G29  22927426.900    22927426.019    22927427.450                    -9479871.293 8  -9479871.301 6                  -7386913.344 8       132.000          47.000         236.000                  
> 2024 10 31 17 58  0.0000000  0  9
G05  23294471.948    23294471.591    23294472.078                    -7240910.841 8  -7240910.846 8                  -5642266.163 8       215.000         117.000         277.000                  
G10  23820630.580    23820631.263    23820634.668                    -4818684.360 8  -4818684.366 6                  -3754819.094 7       126.000          45.000          67.000                  
G13  21642739.886    21642739.609    21642740.141                   -16571446.129 8 -16571446.135 6                 -12912809.438 8       261.000          50.000         131.000                  
G15  20091706.690    20091706.442    20091706.971                   -25900579.059 9 -25900579.063 9                 -20182246.972 9       706.000        1134.000        1879.000                  
G18  19539019.070    19539018.822    19539019.742                   -25442332.412 9 -25442332.414 9                 -19825194.365 9       844.000         972.000        1268.000                  
G23  20252818.266    20252817.693    20252818.387                   -22820086.794 9 -22820086.792 8                 -17781868.375 8       575.000         428.000         435.000                  
G24  23931040.046    23931040.739    23931044.361                    -5893440.903 8  -5893440.913 6                  -4592296.971 8       139.000          47.000         197.000                  
G27  24377782.153    24377780.029    24377783.950                    -3015473.974 8  -3015473.980 6                  -2349719.434 7       105.000          44.000          93.000                  
G29  23001109.542    23001108.718    23001110.820                    -9092662.957 8  -9092662.957 6                  -7085192.594 8       132.000          37.000         213.000                  
> 2024 10 31 17 58 10.0000000  0  9
G05  23263923.634    23263923.031    23263923.698                    -7401442.838 8  -7401442.840 8                  -5767355.950 8       211.000         108.000         275.000                  
G10  23839736.861    23839736.313    23839739.997                    -4718286.310 8  -4718286.300 6                  -3676586.723 7       127.000          33.000          65.000                  
G13  21601302.824    21601302.658    21601302.550                   -16789199.526 8 -16789199.523 6                 -13082487.345 8       269.000          48.000         135.000                  
G15  20079940.092    20079939.967    20079940.468                   -25962412.245 9 -25962412.246 9                 -20230428.632 9       713.000        1158.000        1895.000                  
G18  19533587.919    19533587.664    19533588.506                   -25470873.331 9 -25470873.333 9                 -19847434.008 9       857.000         974.000        1252.000                  
G23  20252978.535    20252978.433    20252979.086                   -22819242.125 9 -22819242.124 8                 -17781210.122 8       562.000         400.000         436.000                  
G24  23963555.952    23963556.703    23963560.119                    -5722568.901 8  -5722568.889 6                  -4459149.890 8       134.000          47.000         185.000                  
G27  24328827.896    24328825.825    24328828.502                    -3272733.869 8  -3272733.866 6                  -2550181.558 7       112.000          39.000          98.000                  
G29  23075198.259    23075196.978    23075199.071                    -8703324.782 8  -8703324.797 6                  -6781812.220 8       131.000          34.000         194.000                  
> 2024 10 31 17 58 20.0000000  0  9
G05  23233810.322    23233809.776    23233810.575                    -7559688.450 8  -7559688.451 8                  -5890664.145 8       217.000         110.000         283.000                  
G10  23859132.315    23859133.043    23859136.373                    -4616357.440 8  -4616357.421 6                  -3597161.530 7       126.000          44.000          65.000                  
G13  21560285.713    21560285.318    21560285.554                   -17004747.483 8 -17004747.474 7                 -13250446.735 8       279.000          56.000         143.000                  
G15  20068892.816    20068892.637    20068893.157                   -26020466.201 9 -26020466.204 9                 -20275665.444 9       706.000        1137.000        1907.000                  
G18  19529298.736    19529298.469    19529299.178                   -25493413.285 9 -25493413.288 9                 -19864997.573 9       868.000        1006.000        1220.000                  
G23  20253875.373    20253875.122    20253875.750                   -22814528.999 9 -22814528.997 8                 -17777537.520 8       557.000         389.000         418.000                  
G24  23996258.858    23996258.531    23996262.104                    -5550717.890 8  -5550717.891 6                  -4325239.951 8       131.000          47.000         181.000                  
G27  24280335.001    24280333.492    24280336.294                    -3527562.287 8  -3527562.274 6                  -2748749.024 8       115.000          37.000         109.000                  
G29  23149677.060    23149676.199    23149678.419                    -8311935.842 8  -8311935.836 6                  -6476833.857 8       123.000          37.000         186.000                  
> 2024 10 31 17 58 30.0000000  0  9
G05  23204133.477    23204132.981    23204133.458                    -7715641.430 8  -7715641.433 8                  -6012185.859 8       216.000         119.000         291.000                  
G10  23878818.430    23878817.497    23878821.640                    -4512911.413 8  -4512911.406 6                  -3516554.163 7       127.000          42.000          71.000                  
G13  21519691.594    21519691.033    21519691.489                   -17218071.366 8 -17218071.365 7                 -13416673.081 8       290.000          54.000         140.000                  
G15  20058564.669    20058564.394    20058564.863                   -26074741.378 9 -26074741.381 9                 -20317957.758 9       708.000        1146.000        1902.000                  
G18  19526151.031    19526150.685    19526151.409                   -25509954.646 9 -25509954.650 9                 -19877886.912 9       873.000        1023.000        1176.000                  
G23  20255507.719    20255507.346    20255507.934                   -22805951.417 9 -22805951.416 8                 -17770853.627 8       552.000         389.000         411.000                  
G24  24029141.998    24029141.093    24029145.376                    -5377915.267 8  -5377915.266 6                  -4190588.506 8       129.000          44.000         167.000                  
G27  24232312.751    24232311.654    24232314.924                    -3779918.151 8  -3779918.147 6                  -2945389.838 8       117.000          38.000         114.000                  
G29  23224531.069    23224530.261    23224532.248                    -7918576.304 8  -7918576.322 6                  -6170319.971 8       114.000          36.000         172.000                  
> 2024 10 31 17 58 40.0000000  0  9
G05  23174900.054    23174899.461    23174900.008                    -7869263.968 8  -7869263.968 8                  -6131891.646 8       222.000         109.000         289.000                  
G10  23898795.538    23898794.729    23898799.042                    -4407929.941 8  -4407929.916 6                  -3434750.361 7       125.000          44.000          76.000                  
G13  21479530.069    21479529.609    21479529.747                   -17429120.522 8 -17429120.515 7                 -13581126.910 8       302.000          56.000         141.000                  
G15  20048961.375    20048961.187    20048961.608                   -26125206.670 9 -26125206.673 9                 -20357281.327 9       714.000        1160.000        1912.000                  
G18  19524149.938    19524149.793    19524150.494                   -25520469.408 9 -25520469.410 9                 -19886080.195 9       875.000        1027.000        1188.000                  
G23  20257880.443    20257880.106    20257880.768                   -22793482.207 9 -22793482.205 8                 -17761137.308 8       541.000         372.000         417.000                  
G24  24062207.071    24062206.796    24062210.774                    -5204156.229 8  -5204156.204 6                  -4055191.803 8       125.000          40.000         159.000                  
G27  24184774.893    24184774.208    24184777.678                    -4029728.362 8  -4029728.362 6                  -3140047.020 8       124.000          48.000         137.000                  
G29  23299750.100    23299750.012    23299751.803                    -7523293.762 8  -7523293.777 6                  -5862307.636 8       113.000          33.000         167.000                  
> 2024 10 31 17 58 50.0000000  0  9
G05  23146108.725    23146107.935    23146108.352                    -8020564.502 8  -8020564.503 8                  -6249788.082 8       219.000         120.000         289.000                  
G10  23919059.750    23919058.622    23919063.101                    -4301441.102 8  -4301441.102 6                  -3351771.977 7       125.000          42.000          68.000                  
G13  21439802.268    21439801.700    21439802.116                   -17637890.736 8 -17637890.738 7                 -13743804.939 8       317.000          59.000         143.000                  
G15  20040080.053    20040079.919    20040080.245                   -26171878.126 9 -26171878.129 9                 -20393648.660 9       716.000        1156.000        1912.000                  
G18  19523292.087    19523291.906    19523292.596                   -25524977.655 9 -25524977.658 9                 -19889593.080 9       868.000        1000.000        1195.000                  
G23  20260989.818    20260989.478    20260990.369                   -22777141.186 9 -22777141.186 8                 -17748403.985 8       535.000         365.000         407.000                  
G24  24095446.900    24095446.315    24095449.680                    -5029482.244 8  -5029482.250 6                  -3919082.158 8       120.000          41.000         148.000                  
G27  24137726.813    24137726.190    24137729.515                    -4276966.323 8  -4276966.331 6                  -3332699.868 8       125.000          47.000         148.000                  
G29  23375318.184    23375317.349    23375319.738                    -7126181.718 8  -7126181.731 6                  -5552869.714 8       115.000          35.000         157.000                  
> 2024 10 31 17 59  0.0000000  0  9
G05  23117765.664    23117765.172    23117765.935                    -8169505.055 8  -8169505.052 8                  -6365845.584 8       223.000         123.000         302.000                  
G10  23939613.540    23939613.476    23939617.356                    -4193426.483 8  -4193426.511 6                  -3267604.683 7       126.000          38.000          74.000                  
G13  21400517.937    21400517.580    21400517.805                   -17844331.094 8 -17844331.094 7                 -13904667.499 8       332.000          66.000         142.000                  
G15  20031926.510    20031926.269    20031926.559                   -26214725.555 9 -26214725.558 9                 -20427036.228 9       717.000        1162.000        1929.000                  
G18  19523581.991    19523581.685    19523582.370                   -25523454.424 9 -25523454.426 9                 -19888406.114 9       849.000         967.000        1167.000                  
G23  20264841.342    20264840.934    20264841.619                   -22756902.169 9 -22756902.167 8                 -17732633.274 8       544.000         379.000         386.000                  
G24  24128860.998    24128860.313    24128864.467                    -4853887.852 8  -4853887.850 6                  -3782255.314 8       118.000          35.000         141.000                  
G27  24091182.849    24091181.461    24091185.407                    -4521558.816 8  -4521558.828 6                  -3523291.322 8       124.000          49.000         157.000                  
G29  23451225.851    23451225.397    23451227.125                    -6727286.371 8  -6727286.380 6                  -5242042.220 8       118.000          33.000         147.000                  
> 2024 10 31 17 59 10.0000000  0  9
G05  23089870.653    23089870.256    23089870.715                    -8316095.484 8  -8316095.485 8                  -6480071.822 8       225.000         125.000         308.000                  
G10  23960453.065    23960453.248    23960457.074                    -4083915.153 8  -4083915.154 6                  -3182271.133 7       122.000          45.000          81.000                  
G13  21361677.808    21361677.287    21361677.506                   -18048438.207 8 -18048438.209 7                 -14063711.958 8       345.000          75.000         150.000                  
G15  20024497.229    20024496.835    20024497.211                   -26253766.924 9 -26253766.927 9                 -20457458.044 9       719.000        1174.000        1926.000                  
G18  19525014.832    19525014.597    19525015.384                   -25515923.983 9 -25515923.987 9                 -19882538.207 9       836.000         938.000        1191.000                  
G23  20269430.173    20269429.894    20269430.469                   -22732787.170 9 -22732787.169 8                 -17713842.313 8       552.000         382.000         368.000                  
G24  24162442.535    24162442.094    24162445.959                    -4677415.027 8  -4677415.027 6                  -3644743.978 8       115.000          40.000         137.000                  
G27  24045145.348    24045145.522    24045148.776                    -4763480.281 8  -4763480.284 6                  -3711801.447 8       126.000          47.000         166.000                  
G29  23527455.084    23527454.499    23527456.082                    -6326700.916 8  -6326700.904 6                  -4929897.752 8       122.000          37.000         137.000                  
> 2024 10 31 17 59 20.0000000  0  9
G05  23062427.646    23062427.629    23062428.194                    -8460306.183 8  -8460306.184 8                  -6592443.728 8       230.000         130.000         315.000                  
G10  23981578.399    23981578.671    23981583.054                    -3972896.569 8  -3972896.577 6                  -3095763.100 7       124.000          44.000          76.000                  
G13  21323290.008    21323288.830    21323289.287                   -18250168.996 8 -18250169.005 7                 -14220904.732 8       363.000          77.000         158.000                  
G15  20017796.099    20017795.814    20017796.134                   -26288980.968 9 -26288980.971 9                 -20484897.526 9       715.000        1166.000        1946.000                  
G18  19527593.637    19527593.363    19527594.118                   -25502372.538 9 -25502372.540 9                 -19871978.608 9       840.000         948.000        1203.000                  
G23  20274759.993    20274759.627    20274760.217                   -22704779.140 9 -22704779.139 8                 -17692017.821 8       546.000         392.000         359.000                  
G24  24196190.967    24196190.611    24196194.381                    -4500065.725 8  -4500065.734 6                  -3506549.680 8       117.000          40.000         125.000                  
G27  23999630.407    23999630.126    23999633.222                    -5002665.538 8  -5002665.545 7                  -3898179.477 8       133.000          51.000         171.000                  
G29  23603996.821    23603994.839    23603996.553                    -5924478.053 8  -5924478.047 6                  -4616477.383 8       122.000          36.000         125.000                  
> 2024 10 31 17 59 30.0000000  0  9
G05  23035440.472    23035440.497    23035440.857                    -8602125.291 8  -8602125.292 8                  -6702952.065 8       231.000         132.000         314.000                  
G10  24002991.221    24002990.664    24002994.518                    -3860377.884 8  -3860377.875 6                  -3008086.127 7       124.000          44.000          69.000                  
G13  21285358.654    21285358.351    21285358.058                   -18449498.298 8 -18449498.295 7                 -14376226.215 8       377.000          85.000         160.000                  
G15  20011823.748    20011823.598    20011823.974                   -26320364.877 9 -26320364.879 9                 -20509352.490 9       711.000        1136.000        1969.000                  
G18  19531317.056    19531316.822    19531317.536                   -25482805.736 9 -25482805.738 9                 -19856731.724 9       861.000         993.000        1233.000                  
G23  20280830.274    20280829.934    20280830.425                   -22672879.520 9 -22672879.518 8                 -17667160.936 8       553.000         390.000         366.000                  
G24  24230102.725    24230102.313    24230106.071                    -4321859.586 8  -4321859.569 6                  -3367687.729 8       115.000          35.000         118.000                  
G27  23954644.520    23954643.984    23954647.578                    -5239067.310 8  -5239067.319 7                  -4082388.560 8       135.000          53.000         188.000                  
G29  23680834.495    23680833.805    23680834.956                    -5520688.108 8  -5520688.089 6                  -4301835.907 8       121.000          43.000         119.000                  
> 2024 10 31 17 59 40.0000000  0  9
G05  23008908.599    23008908.057    23008908.762                    -8741552.522 8  -8741552.520 8                  -6811596.593 8       234.000         129.000         314.000                  
G10  24024684.940    24024684.091    24024688.200                    -3746377.592 8  -3746377.605 6                  -2919254.692 7       124.000          44.000          68.000                  
G13  21247887.053    21247886.844    21247886.728                   -18646411.860 8 -18646411.859 7                 -14529665.308 8       387.000          86.000         160.000                  
G15  20006578.815    20006578.579    20006578.866                   -26347927.549 9 -26347927.551 9                 -20530829.871 9       704.000        1129.000        1951.000                  
G18  19536181.660    19536181.524    19536182.111                   -25457241.994 9 -25457241.996 9                 -19836811.905 9       886.000        1052.000        1267.000                  
G23  20287638.477    20287638.266    20287638.924                   -22637101.467 9 -22637101.467 8                 -17639281.898 8       551.000         377.000         382.000                  
G24  24264171.651    24264170.918    24264174.779                    -4142827.090 8  -4142827.068 6                  -3228181.860 8       112.000          32.000         110.000                  
G27  23910195.458    23910194.824    23910198.206                    -5472649.536 8  -5472649.546 6                  -4264400.600 8       137.000          49.000         199.000                  
G29  23757957.291    23757955.357    23757956.758                    -5115411.543 8  -5115411.549 6                  -3986036.032 8       121.000          41.000         116.000                  
> 2024 10 31 17 59 50.0000000  0  9
G05  22982838.951    22982838.691    22982839.245                    -8878548.326 8  -8878548.321 8                  -6918346.509 8       234.000         130.000         327.000                  
G10  24046664.418    24046663.584    24046666.998                    -3630874.824 8  -3630874.828 6                  -2829252.485 7       121.000          44.000          66.000                  
G13  21210885.419    21210885.030    21210885.184                   -18840856.252 8 -18840856.247 7                 -14681180.378 8       404.000         100.000         161.000                  
G15  20002066.780    20002066.472    20002066.762                   -26371639.193 9 -26371639.195 9                 -20549306.453 9       696.000        1098.000        1974.000                  
G18  19542191.189    19542191.019    19542191.513                   -25425662.107 9 -25425662.109 9                 -19812204.181 9       912.000        1123.000        1275.000                  
G23  20295189.666    20295189.303    20295190.113                   -22597419.534 9 -22597419.533 8                 -17608360.868 8       536.000         364.000         402.000                  
G24  24298399.276    24298398.975    24298402.255                    -3962959.280 8  -3962959.263 6                  -3088025.095 8       113.000          35.000         107.000                  
G27  23866296.642    23866296.708    23866299.674                    -5703337.103 8  -5703337.108 7                  -4444157.060 8       138.000          53.000         215.000                  
G29  23835353.484    23835352.663    23835353.178                    -4708689.095 8  -4708689.076 6                  -3669109.488 8       116.000          35.000         106.000                  
> 2024 10 31 18 00  0.0000000  0  9
G05  22957228.548    22957227.864    22957228.471                    -9013133.744 8  -9013133.747 8                  -7023218.209 8       239.000         143.000         332.000                  
G10  24068922.232    24068921.245    24068924.864                    -3513909.034 8  -3513909.040 6                  -2738110.263 7       121.000          45.000          65.000                  
G13  21174352.772    21174352.328    21174351.995                   -19032838.333 8 -19032838.339 8                 -14830776.768 8       421.000         108.000         163.000                  
G15  19998281.463    19998281.138    19998281.522                   -26391530.762 9 -26391530.764 9                 -20564806.352 9       691.000        1067.000        1978.000                  
G18  19549337.318    19549337.175    19549337.669                   -25388108.796 9 -25388108.798 9                 -19782941.843 9       924.000        1151.000        1281.000                  
G23  20303476.908    20303476.649    20303477.359                   -22553869.271 9 -22553869.270 8                 -17574425.564 8       531.000         356.000         403.000                  
G24  24332776.622    24332775.599    24332778.838                    -3782307.273 8  -3782307.273 6                  -2947257.265 8       110.000          34.000         103.000                  
G27  23822952.462    23822951.635    23822954.769                    -5931115.330 8  -5931115.330 7                  -4621646.503 8       134.000          55.000         245.000                  
G29  23913005.935    23913005.507    23913006.682                    -4300621.092 8  -4300621.100 6                  -3351134.470 8       113.000          34.000         104.000                  
> 2024 10 31 18 00 10.0000000  0  9
G05  22932085.277    22932084.334    22932084.947                    -9145263.366 8  -9145263.363 8                  -7126176.302 8       240.000         132.000         332.000                  
G10  24091463.368    24091462.569    24091466.671                    -3395453.088 8  -3395453.086 6                  -2645806.874 7       117.000          36.000          63.000                  
G13  21138299.593    21138299.279    21138299.133                   -19222298.532 8 -19222298.530 8                 -14978408.055 8       437.000         115.000         169.000                  
G15  19995229.707    19995229.528    19995229.859                   -26407567.193 9 -26407567.196 9                 -20577302.253 9       691.000        1078.000        1961.000                  
G18  19557624.475    19557624.241    19557624.776                   -25344559.748 9 -25344559.750 9                 -19749007.505 9       931.000        1171.000        1325.000                  
G23  20312505.941    20312505.940    20312506.583                   -22506420.155 9 -22506420.154 8                 -17537452.194 8       522.000         345.000         407.000                  
G24  24367304.832    24367304.720    24367308.516                    -3600855.279 8  -3600855.310 6                  -2805866.082 7       111.000          30.000          86.000                  
G27  23780176.175    23780175.828    23780179.170                    -6155903.034 8  -6155903.043 7                  -4796805.680 8       139.000          53.000         266.000                  
G29  23990908.018    23990907.682    23990908.720                    -3891240.587 8  -3891240.601 6                  -3032136.727 7       101.000          32.000          94.000                  
> 2024 10 31 18 00 20.0000000  0  9
G05  22907405.922    22907405.483    22907405.938                    -9274951.796 8  -9274951.798 8                  -7227232.174 8       243.000         151.000         331.000                  
G10  24114281.726    24114281.354    24114285.180                    -3275539.565 8  -3275539.572 6                  -2552367.693 7       115.000          34.000          64.000                  
G13  21102726.387    21102725.827    21102726.056                   -19409236.810 8 -19409236.809 8                 -15124074.211 8       447.000         120.000         186.000                  
G15  19992906.849    19992906.667    19992906.983                   -26419773.703 9 -26419773.706 9                 -20586813.801 9       690.000        1078.000        1937.000                  
G18  19567045.117    19567044.888    19567045.462                   -25295053.962 9 -25295053.963 9                 -19710431.554 9       922.000        1151.000        1361.000                  
G23  20322271.477    20322271.289    20322272.077                   -22455102.030 9 -22455102.029 8                 -17497464.017 8       511.000         329.000         399.000                  
G24  24401978.916    24401977.880    24401981.589                    -3418647.036 8  -3418647.040 6                  -2663885.603 7       114.000          33.000          94.000                  
G27  23737973.127    23737973.034    23737976.630                    -6377679.002 8  -6377678.989 6                  -4969618.050 8       138.000          47.000         278.000                  
G29  24069043.529    24069042.556    24069043.608                    -3480639.677 7  -3480639.688 6                  -2712188.021 7        99.000          35.000          92.000                  
> 2024 10 31 18 00 30.0000000  0  9
G05  22883196.617    22883196.426    22883196.896                    -9402171.457 8  -9402171.457 8                  -7326364.330 8       248.000         152.000         328.000                  
G10  24137380.245    24137379.519    24137382.772                    -3154158.893 8  -3154158.910 6                  -2457785.313 7       120.000          35.000          64.000                  
G13  21067641.150    21067640.637    21067640.483                   -19593611.034 8 -19593611.034 8                 -15267742.405 8       460.000         124.000         183.000                  
G15  19991316.099    19991315.787    19991316.071                   -26428133.851 9 -26428133.853 9                 -20593328.185 9       700.000        1112.000        1934.000                  
G18  19577599.502    19577599.262    19577599.967                   -25239589.856 9 -25239589.858 9                 -19667212.760 9       903.000        1103.000        1345.000                  
G23  20332775.696    20332775.233    20332776.001                   -22399903.215 9 -22399903.213 8                 -17454451.925 8       511.000         340.000         400.000                  
G24  24436795.284    24436794.335    24436798.378                    -3235683.868 8  -3235683.887 6                  -2521316.857 7       110.000          32.000          97.000                  
G27  23696356.492    23696355.788    23696359.278                    -6596379.973 8  -6596379.990 7                  -5140034.328 8       141.000          63.000         292.000                  
G29  24147400.899    24147400.401    24147401.475                    -3068867.575 7  -3068867.592 6                  -2391326.707 7        90.000          26.000          90.000                  
> 2024 10 31 18 00 40.0000000  0  9
G05  22859459.241    22859458.914    22859459.244                    -9526912.990 8  -9526912.987 8                  -7423565.482 8       253.000         148.000         334.000                  
G10  24160754.608    24160754.554    24160758.560                    -3031319.384 8  -3031319.385 6                  -2362066.161 7       118.000          43.000          62.000                  
G13  21033048.351    21033047.922    21033047.771                   -19775397.180 8 -19775397.181 8                 -15409393.915 8       470.000         132.000         191.000                  
G15  19990456.706    19990456.364    19990456.698                   -26432649.768 9 -26432649.771 9                 -20596847.067 9       711.000        1142.000        1917.000                  
G18  19589284.373    19589284.173    19589284.863                   -25178185.322 9 -25178185.323 9                 -19619365.060 9       871.000        1024.000        1346.000                  
G23  20344016.668    20344016.270    20344017.230                   -22340830.540 9 -22340830.539 8                 -17408421.242 8       522.000         342.000         416.000                  
G24  24471750.566    24471751.102    24471755.086                    -3051984.763 8  -3051984.765 6                  -2378174.667 7       109.000          39.000          95.000                  
G27  23655332.518    23655332.129    23655335.494                    -6811960.895 8  -6811960.900 7                  -5308019.399 8       144.000          63.000         313.000                  
G29  24225966.744    24225968.289    24225969.791                    -2655990.685 7  -2655990.676 6                  -2069604.515 7        85.000          23.000          78.000                  
> 2024 10 31 18 00 50.0000000  0  9
G05  22836192.262    22836192.226    22836192.606                    -9649178.920 8  -9649178.918 8                  -7518837.591 8       257.000         145.000         328.000                  
G10  24184404.429    24184404.019    24184408.218                    -2907040.976 8  -2907040.985 6                  -2265225.787 7       117.000          36.000          64.000                  
G13  20998950.139    20998949.834    20998949.888                   -19954582.821 8 -19954582.823 8                 -15549019.059 8       479.000         145.000         193.000                  
G15  19990325.970    19990325.804    19990326.209                   -26433335.587 9 -26433335.591 9                 -20597381.455 9       712.000        1164.000        1915.000                  
G18  19602093.539    19602093.472    19602094.263                   -25110871.430 9 -25110871.429 9                 -19566912.663 9       847.000         955.000        1318.000                  
G23  20355991.361    20355991.096    20355991.845                   -22277903.091 9 -22277903.091 8                 -17359386.838 8       532.000         365.000         409.000                  
G24  24506843.253    24506841.997    24506845.966                    -2867580.063 8  -2867580.077 6                  -2234482.641 7       106.000          30.000          91.000                  
G27  23614908.965    23614908.601    23614911.649                    -7024388.538 8  -7024388.534 7                  -5473547.369 8       148.000          59.000         322.000                  
G29  24304732.537    24304731.689    24304733.057                    -2242086.482 7  -2242086.491 6                  -1747081.817 7        76.000          24.000          62.000                  
> 2024 10 31 18 01  0.0000000  0  9
G05  22813404.477    22813404.221    22813404.249                    -9768932.606 8  -9768932.607 8                  -7612152.116 8       256.000         173.000         322.000                  
G10  24208331.086    24208330.946    24208335.225                    -2781304.411 8  -2781304.414 6                  -2167249.211 7       118.000          31.000          61.000                  
G13  20965357.209    20965356.695    20965356.509                   -20131116.315 8 -20131116.315 8                 -15686577.599 8       490.000         140.000         194.000                  
G15  19990929.115    19990928.831    19990929.150                   -26430166.876 9 -26430166.878 9                 -20594912.314 9       719.000        1171.000        1915.000                  
G18  19616028.962    19616028.694    19616029.431                   -25037641.562 9 -25037641.561 9                 -19509850.416 9       829.000         922.000        1276.000                  
G23  20368703.302    20368703.171    20368703.782                   -22211101.321 9 -22211101.321 8                 -17307333.488 8       538.000         363.000         393.000                  
G24  24542070.143    24542069.014    24542073.303                    -2682460.716 8  -2682460.734 6                  -2090233.768 7       105.000          28.000          97.000                  
G27  23575099.191    23575098.548    23575101.852                    -7233590.700 8  -7233590.703 7                  -5636561.985 8       144.000          63.000         327.000                  
G29  24383685.101    24383682.235    24383685.055                    -1827192.555 7  -1827192.586 6                  -1423787.918 7        73.000          19.000          58.000                  
> 2024 10 31 18 01 10.0000000  0  9
G05  22791090.197    22791089.360    22791089.598                    -9886196.769 8  -9886196.766 8                  -7703526.750 8       261.000         163.000         316.000                  
G10  24232527.787    24232527.639    24232531.961                    -2654149.523 8  -2654149.507 6                  -2068167.457 7       114.000          33.000          57.000                  
G13  20932267.141    20932266.540    20932266.575                   -20305005.227 9 -20305005.228 8                 -15822075.419 8       502.000         155.000         196.000                  
G15  19992258.845    19992258.694    19992258.912                   -26423178.836 9 -26423178.838 9                 -20589467.073 9       721.000        1190.000        1901.000                  
G18  19631079.590    19631079.363    19631080.166                   -24958549.720 9 -24958549.719 9                 -19448220.396 9       820.000         892.000        1259.000                  
G23  20382145.097    20382144.786    20382145.299                   -22140465.404 9 -22140465.404 8                 -17252292.501 8       544.000         382.000         376.000                  
G24  24577422.087    24577422.389    24577426.909                    -2496676.417 8  -2496676.434 6                  -1945466.752 7       106.000          33.000          83.000                  
G27  23535905.563    23535904.678    23535908.139                    -7439554.583 8  -7439554.583 7                  -5797053.267 8       141.000          56.000         340.000                  
G29  24462802.612    24462804.491    24462806.641                    -1411404.950 7  -1411404.954 6                  -1099797.623 7        64.000          25.000          55.000                  
> 2024 10 31 18 01 20.0000000  0  9
G05  22769256.997    22769256.639    22769256.832                   -10000928.761 8 -10000928.760 8                  -7792928.269 8       264.000         170.000         321.000                  
G10  24256999.084    24256998.858    24257003.022                    -2525550.478 8  -2525550.473 6                  -1967960.386 7       112.000          39.000          57.000                  
G13  20899691.379    20899691.034    20899690.871                   -20476191.498 9 -20476191.498 8                 -15955467.288 8       511.000         154.000         214.000                  
G15  19994321.034    19994320.846    19994321.195                   -26412341.696 9 -26412341.699 9                 -20581022.532 9       726.000        1190.000        1931.000                  
G18  19647247.652    19647247.478    19647248.223                   -24873585.769 9 -24873585.768 9                 -19382014.706 9       810.000         883.000        1227.000                  
G23  20396320.750    20396320.563    20396321.109                   -22065970.502 9 -22065970.501 8                 -17194244.516 8       549.000         370.000         346.000                  
G24  24612906.616    24612905.576    24612909.593                    -2310211.060 8  -2310211.039 6                  -1800169.034 7       104.000          31.000          92.000                  
G27  23497342.591    23497341.797    23497345.549                    -7642202.050 8  -7642202.043 7                  -5954960.327 8       142.000          56.000         349.000                  
G29  24542090.161    24542090.371    24542092.415                     -994753.119 7   -994753.099 6                   -775133.951 6        61.000          23.000          48.000                  
> 2024 10 31 18 01 30.0000000  0  9
G05  22747902.419    22747902.368    22747902.506                   -10113145.975 8 -10113145.975 8                  -7880370.216 8       263.000         165.000         326.000                  
G10  24281740.118    24281738.825    24281742.940                    -2395541.223 8  -2395541.222 6                  -1866654.439 7       112.000          31.000          63.000                  
G13  20867629.872    20867629.143    20867629.243                   -20644676.887 9 -20644676.885 8                 -16086754.572 8       522.000         162.000         222.000                  
G15  19997109.871    19997109.740    19997110.043                   -26397685.813 9 -26397685.815 9                 -20569602.346 9       727.000        1195.000        1943.000                  
G18  19664523.558    19664523.351    19664523.979                   -24782800.825 9 -24782800.823 9                 -19311273.177 9       801.000         870.000        1171.000                  
G23  20411224.258    20411224.091    20411224.448                   -21987652.125 9 -21987652.126 8                 -17133217.195 8       549.000         385.000         326.000                  
G24  24648510.138    24648510.820    24648514.141                    -2123108.114 8  -2123108.101 6                  -1654374.537 7       103.000          33.000          84.000                  
G27  23459414.768    23459413.952    23459417.726                    -7841515.026 8  -7841515.035 7                  -6110269.086 8       145.000          59.000         387.000                  
G29  24621524.068    24621524.756    24621526.666                     -577325.847 7   -577325.839 6                   -449866.021 6        58.000          22.000          44.000                  
> 2024 10 31 18 01 40.0000000  0  9
G05  22727031.635    22727031.320    22727031.448                   -10222823.633 8 -10222823.635 8                  -7965833.288 8       265.000         171.000         327.000                  
G10  24306750.668    24306748.634    24306753.119                    -2264113.682 8  -2264113.674 6                  -1764243.366 7       108.000          33.000          59.000                  
G13  20836089.461    20836089.101    20836089.140                   -20810421.261 9 -20810421.258 8                 -16215905.997 8       533.000         175.000         236.000                  
G15  20000627.730    20000627.411    20000627.756                   -26379200.167 9 -26379200.170 9                 -20555197.931 9       735.000        1219.000        1932.000                  
G18  19682905.006    19682904.727    19682905.403                   -24686205.363 9 -24686205.360 9                 -19236003.971 9       783.000         826.000        1130.000                  
G23  20426856.497    20426856.383    20426856.771                   -21905504.303 9 -21905504.303 8                 -17069205.890 8       558.000         392.000         323.000                  
G24  24684237.118    24684235.800    24684239.975                    -1935368.497 8  -1935368.481 6                  -1508083.906 7       101.000          31.000          84.000                  
G27  23422132.369    23422131.778    23422135.532                    -8037433.700 8  -8037433.708 7                  -6262932.935 8       145.000          66.000         387.000                  
G29  24701100.386    24701097.618    24701099.593                     -159169.068 7   -159169.061 6                   -124029.679 6        53.000          25.000          33.000                  
> 2024 10 31 18 01 50.0000000  0  8
G05  22706646.251    22706645.561    22706645.783                   -10329950.873 8 -10329950.872 8                  -8049309.024 8       268.000         175.000         316.000                  
G10  24332029.421    24332027.537    24332031.787                    -2131272.695 8  -2131272.687 6                  -1660730.898 7       110.000          36.000          57.000                  
G13  20805076.209    20805075.855    20805075.925                   -20973397.609 9 -20973397.608 8                 -16342900.525 8       555.000         176.000         243.000                  
G15  20004873.709    20004873.428    20004873.764                   -26356887.207 9 -26356887.210 9                 -20537811.194 9       737.000        1225.000        1950.000                  
G18  19702387.514    19702387.187    19702387.936                   -24583824.347 9 -24583824.343 9                 -19156226.536 9       764.000         782.000        1092.000                  
G23  20443215.800    20443215.766    20443216.173                   -21819534.689 9 -21819534.689 8                 -17002216.567 8       554.000         387.000         319.000                  
G24  24720081.551    24720080.712    24720083.976                    -1747006.128 8  -1747006.144 6                  -1361308.033 7       102.000          27.000          77.000                  
G27  23385505.925    23385504.627    23385508.021                    -8229911.701 8  -8229911.695 7                  -6412915.747 8       157.000          72.000         405.000                  
> 2024 10 31 18 02  0.0000000  0  8
G05  22686741.924    22686741.839    22686742.008                   -10434545.064 8 -10434545.064 8                  -8130810.950 8       264.000         170.000         316.000                  
G10  24357570.155    24357569.254    24357572.861                    -1997051.547 8  -1997051.546 6                  -1556142.963 7       106.000          29.000          59.000                  
G13  20774589.396    20774588.973    20774588.555                   -21133607.437 9 -21133607.434 8                 -16467739.322 8       584.000         196.000         260.000                  
G15  20009841.893    20009841.783    20009842.133                   -26330778.319 9 -26330778.321 9                 -20517466.589 9       740.000        1245.000        1977.000                  
G18  19722960.523    19722960.198    19722960.764                   -24475712.525 9 -24475712.521 9                 -19071983.542 9       743.000         738.000        1053.000                  
G23  20460295.695    20460295.439    20460295.941                   -21729779.911 9 -21729779.910 8                 -16932277.762 8       551.000         386.000         313.000                  
G24  24756035.243    24756034.917    24756039.212                    -1558062.940 8  -1558062.931 6                  -1214079.548 7       103.000          32.000          82.000                  
G27  23349535.988    23349535.531    23349538.641                    -8418931.366 8  -8418931.368 7                  -6560203.754 8       166.000          79.000         409.000                  
> 2024 10 31 18 02 10.0000000  0  8
G05  22667329.453    22667328.847    22667328.981                   -10536561.750 8 -10536561.753 8                  -8210304.431 8       268.000         177.000         315.000                  
G10  24383378.581    24383378.476    24383382.404                    -1861421.801 8  -1861421.808 6                  -1450457.421 7       106.000          32.000          60.000                  
G13  20744640.359    20744640.001    20744639.909                   -21290990.535 9 -21290990.537 8                 -16590375.476 8       598.000         216.000         265.000                  
G15  20015538.312    20015538.139    20015538.437                   -26300843.682 9 -26300843.684 9                 -20494140.885 9       748.000        1273.000        1988.000                  
G18  19744624.937    19744624.779    19744625.342                   -24361864.290 9 -24361864.284 9                 -18983270.621 9       723.000         687.000        1030.000                  
G23  20478100.532    20478100.221    20478100.705                   -21636215.444 9 -21636215.443 8                 -16859370.368 8       553.000         379.000         315.000                  
G24  24792105.494    24792104.129    24792107.622                    -1368518.968 7  -1368518.956 6                  -1066382.957 7        99.000          32.000          71.000                  
G27  23314239.569    23314239.282    23314242.447                    -8604413.718 8  -8604413.723 7                  -6704735.412 8       176.000          84.000         413.000                  
> 2024 10 31 18 02 20.0000000  0  9
G05  22648401.968    22648401.368    22648401.438                   -10636025.921 8 -10636025.921 8                  -8287808.943 8       271.000         173.000         321.000                  
G10  24409449.330    24409448.080    24409452.176                    -1724423.682 8  -1724423.701 6                  -1343705.618 7       104.000          31.000          52.000                  
G13  20715227.569    20715227.096    20715226.937                   -21445555.652 9 -21445555.651 8                 -16710815.799 8       609.000         220.000         271.000                  
G15  20021955.166    20021955.022    20021955.318                   -26267122.767 9 -26267122.769 9                 -20467864.836 9       752.000        1277.000        1982.000                  
G18  19767368.772    19767368.635    19767369.332                   -24242344.124 9 -24242344.117 9                 -18890138.015 9       709.000         663.000         991.000                  
G23  20496621.668    20496621.417    20496621.819                   -21538886.050 9 -21538886.052 8                 -16783529.269 8       557.000         391.000         315.000                  
G24  24828276.904    24828277.994    24828281.954                    -1178422.573 7  -1178422.589 6                   -918255.869 7        99.000          32.000          71.000                  
G27  23279618.651    23279618.336    23279621.282                    -8786348.932 8  -8786348.932 8                  -6846503.065 8       183.000         105.000         433.000                  
G30  24105090.934    24105087.698    24105098.506                     -304963.847 7   -304963.852 6                   -237636.550 6        98.000          28.000          29.000                  
> 2024 10 31 18 02 30.0000000  0  9
G05  22629966.744    22629966.264    22629966.345                   -10732903.087 8 -10732903.085 8                  -8363297.605 8       273.000         177.000         331.000                  
G10  24435783.692    24435783.336    24435786.700                    -1586037.977 8  -1586037.937 6                  -1235872.579 6       106.000          36.000          50.000                  
G13  20686360.654    20686360.108    20686359.996                   -21597252.086 9 -21597252.087 8                 -16829020.786 8       618.000         227.000         278.000                  
G15  20029096.274    20029096.064    20029096.399                   -26229596.071 9 -26229596.074 9                 -20438623.245 9       751.000        1273.000        2000.000                  
G18  19791190.886    19791190.693    19791191.365                   -24117158.342 9 -24117158.335 9                 -18792590.647 9       700.000         646.000         945.000                  
G23  20515862.058    20515861.714    20515862.014                   -21437777.573 9 -21437777.573 8                 -16704743.431 8       562.000         395.000         317.000                  
G24  24864559.778    24864559.859    24864563.496                     -987762.557 7   -987762.577 6                   -769689.609 7        96.000          29.000          70.000                  
G27  23245686.099    23245685.258    23245688.383                    -8964668.117 8  -8964668.118 7                  -6985453.039 8       194.000          97.000         441.000                  
G30  24038662.486    24038661.329    24038663.902                     -654046.862 8   -654046.841 6                   -509648.483 6       104.000          33.000          20.000                  
> 2024 10 31 18 02 40.0000000  0  9
G05  22612020.094    22612019.908    22612020.101                   -10827210.865 8 -10827210.864 8                  -8436784.146 8       268.000         175.000         340.000                  
G10  24462374.888    24462373.974    24462377.301                    -1446297.493 8  -1446297.491 6                  -1126983.890 7       108.000          37.000          55.000                  
G13  20658039.319    20658039.003    20658038.642                   -21746081.399 9 -21746081.399 8                 -16944991.654 8       629.000         232.000         285.000                  
G15  20036955.398    20036955.111    20036955.379                   -26188296.660 9 -26188296.662 9                 -20406441.874 9       752.000        1282.000        1966.000                  
G18  19816079.782    19816079.515    19816080.249                   -23986366.543 9 -23986366.536 9                 -18690674.955 9       703.000         659.000         901.000                  
G23  20535814.179    20535813.815    20535814.242                   -21332928.390 9 -21332928.391 8                 -16623042.754 8       555.000         388.000         334.000                  
G24  24900941.230    24900940.762    24900944.466                     -796579.326 7   -796579.336 6                   -620715.640 7        96.000          32.000          65.000                  
G27  23212444.906    23212443.342    23212446.447                    -9139354.863 8  -9139354.865 8                  -7121572.543 8       198.000         114.000         463.000                  
G30  23972368.678    23972368.282    23972371.127                    -1002420.929 8  -1002420.913 6                   -781108.628 7       108.000          34.000          65.000                  
> 2024 10 31 18 02 50.0000000  0  9
G05  22594567.148    22594566.807    22594567.124                   -10918927.412 8 -10918927.412 8                  -8508251.547 8       271.000         176.000         358.000                  
G10  24489226.273    24489225.349    24489228.300                    -1305195.178 8  -1305195.169 6                  -1017034.021 6       104.000          30.000          49.000                  
G13  20630271.038    20630270.447    20630270.249                   -21892005.488 9 -21892005.488 8                 -17058698.712 8       630.000         241.000         293.000                  
G15  20045533.490    20045533.246    20045533.513                   -26143218.256 9 -26143218.258 9                 -20371315.834 9       749.000        1271.000        1987.000                  
G18  19842031.394    19842031.241    19842031.812                   -23849989.850 9 -23849989.843 9                 -18584407.398 9       713.000         666.000         860.000                  
G23  20556478.312    20556477.949    20556478.402                   -21224337.676 9 -21224337.676 8                 -16538426.598 8       557.000         393.000         339.000                  
G24  24937422.096    24937421.027    24937424.722                     -604873.356 7   -604873.365 6                   -471334.359 7        90.000          28.000          63.000                  
G27  23179903.736    23179903.626    23179906.584                    -9310353.463 8  -9310353.465 8                  -7254818.172 8       210.000         117.000         485.000                  
G30  23906219.765    23906219.890    23906223.481                    -1350031.914 8  -1350031.914 6                  -1051974.238 7       110.000          32.000          71.000                  
> 2024 10 31 18 03  0.0000000  0  9
G05  22577607.562    22577607.519    22577607.730                   -11008049.083 8 -11008049.085 8                  -8577696.967 8       270.000         182.000         369.000                  
G10  24516333.469    24516332.884    24516336.557                    -1162741.804 8  -1162741.787 6                   -906031.407 6       101.000          32.000          49.000                  
G13  20603058.988    20603058.657    20603058.505                   -22035004.253 9 -22035004.252 8                 -17170126.299 8       631.000         233.000         304.000                  
G15  20054828.295    20054828.144    20054828.517                   -26094373.002 9 -26094373.003 9                 -20333254.589 9       750.000        1271.000        1985.000                  
G18  19869038.142    19869037.986    19869038.599                   -23708068.433 9 -23708068.424 9                 -18473819.280 9       727.000         697.000         809.000                  
G23  20577850.935    20577850.661    20577851.132                   -21112022.980 9 -21112022.980 8                 -16450908.643 8       551.000         382.000         345.000                  
G24  24973998.394    24973997.364    24974001.666                     -412662.649 7   -412662.664 6                   -321559.797 7        89.000          18.000          65.000                  
G27  23148073.347    23148072.658    23148075.478                    -9477626.510 8  -9477626.515 8                  -7385160.770 9       215.000         121.000         506.000                  
G30  23840224.403    23840224.025    23840227.402                    -1696843.059 8  -1696843.072 6                  -1322216.619 7       118.000          43.000          74.000                  
> 2024 10 31 18 03 10.0000000  0  9
G05  22561141.429    22561140.500    22561140.919                   -11094583.361 8 -11094583.360 8                  -8645126.233 8       271.000         179.000         384.000                  
G10  24543693.902    24543693.639    24543697.839                    -1018958.969 8  -1018958.989 6                   -793992.847 6       101.000          26.000          47.000                  
G13  20576405.706    20576405.286    20576405.276                   -22175068.646 9 -22175068.643 8                 -17279267.359 8       632.000         233.000         317.000                  
G15  20064835.643    20064835.473    20064835.802                   -26041784.318 9 -26041784.321 9                 -20292276.390 9       758.000        1283.000        1965.000                  
G18  19897090.258    19897089.968    19897090.453                   -23560654.496 9 -23560654.486 9                 -18358951.281 9       736.000         705.000         762.000                  
G23  20599926.908    20599926.700    20599927.202                   -20996013.197 9 -20996013.198 8                 -16360511.404 8       549.000         391.000         352.000                  
G24  25010665.360    25010664.402    25010668.374                     -219975.772 7   -219975.777 6                   -171414.180 7        87.000          25.000          58.000                  
G27  23116956.043    23116955.509    23116958.466                    -9641147.990 8  -9641147.990 8                  -7512580.078 9       213.000         125.000         527.000                  
G30  23774385.524    23774385.762    23774388.114                    -2042828.024 8  -2042828.015 6                  -1591815.219 7       122.000          45.000          77.000                  
> 2024 10 31 18 03 20.0000000  0  9
G05  22545172.250    22545171.938    22545172.270                   -11178499.031 8 -11178499.028 8                  -8710515.027 8       274.000         184.000         397.000                  
G10  24571312.054    24571310.941    24571315.182                     -873829.498 8   -873829.501 6                   -680904.937 6       103.000          28.000          48.000                  
G13  20550319.818    20550319.195    20550319.156                   -22312150.756 9 -22312150.755 8                 -17386084.564 8       641.000         246.000         324.000                  
G15  20075558.192    20075557.937    20075558.310                   -25985437.457 9 -25985437.460 9                 -20248369.737 9       753.000        1266.000        1954.000                  
G18  19926184.644    19926184.365    19926184.808                   -23407762.605 9 -23407762.596 9                 -18239814.740 9       742.000         720.000         729.000                  
G23  20622707.666    20622707.495    20622708.121                   -20876298.923 9 -20876298.924 8                 -16267227.561 8       553.000         383.000         342.000                  
G24  25047425.051    25047424.508    25047428.047                      -26802.140 7    -26802.160 6                    -20889.296 7        85.000          26.000          55.000                  
G27  23086565.194    23086564.310    23086567.493                    -9800853.565 8  -9800853.559 8                  -7637025.968 9       210.000         118.000         540.000                  
G30  23708717.432    23708716.422    23708718.944                    -2387921.256 8  -2387921.264 6                  -1860718.962 7       133.000          44.000          93.000                  
> 2024 10 31 18 03 30.0000000  0  9
G05  22529696.583    22529696.038    22529696.290                   -11259825.276 8 -11259825.276 8                  -8773886.084 8       276.000         187.000         409.000                  
G10  24599177.118    24599176.093    24599180.519                     -727396.270 8   -727396.285 6                   -566801.141 6       102.000          28.000          49.000                  
G13  20524798.955    20524798.429    20524798.506                   -22446263.275 9 -22446263.274 8                 -17490587.800 8       647.000         251.000         344.000                  
G15  20086986.939    20086986.765    20086987.180                   -25925378.133 9 -25925378.136 9                 -20201570.252 9       749.000        1269.000        1936.000                  
G18  19956306.849    19956306.634    19956307.121                   -23249468.619 9 -23249468.609 9                 -18116468.769 9       742.000         717.000         727.000                  
G23  20646183.669    20646183.675    20646183.877                   -20752931.417 9 -20752931.419 8                 -16171097.039 8       548.000         385.000         329.000                  
G24  25084267.428    25084267.292    25084270.889                      166808.803 7    166808.803 6                    129976.374 6        83.000          26.000          50.000                  
G27  23056900.732    23056900.237    23056903.201                    -9956739.613 8  -9956739.618 8                  -7758495.593 9       207.000         112.000         538.000                  
G30  23643219.118    23643217.835    23643220.706                    -2732116.917 8  -2732116.926 6                  -2128923.307 8       135.000          49.000         106.000                  
> 2024 10 31 18 03 40.0000000  0  9
G05  22514720.189    22514720.040    22514720.415                   -11338524.862 8 -11338524.864 8                  -8835210.404 8       284.000         195.000         416.000                  
G10  24627295.322    24627294.771    24627297.958                     -579635.530 8   -579635.519 6                   -451662.893 7       101.000          33.000          51.000                  
G13  20499853.576    20499853.018    20499852.993                   -22577352.364 9 -22577352.366 8                 -17592735.117 8       649.000         248.000         348.000                  
G15  20099126.282    20099126.058    20099126.355                   -25861585.916 9 -25861585.918 9                 -20151862.024 9       752.000        1282.000        1900.000                  
G18  19987455.270    19987454.993    19987455.504                   -23085782.883 9 -23085782.873 9                 -17988921.432 9       743.000         717.000         707.000                  
G23  20670357.866    20670357.676    20670357.996                   -20625895.846 9 -20625895.846 8                 -16072108.285 8       535.000         370.000         309.000                  
G24  25121196.326    25121197.351    25121200.846                      360874.581 7    360874.571 6                    281196.470 6        82.000          25.000          46.000                  
G27  23027976.879    23027976.111    23027978.928                   -10108736.537 8 -10108736.542 8                  -7876934.740 9       201.000         118.000         523.000                  
G30  23577905.466    23577904.089    23577907.145                    -3075342.179 8  -3075342.186 6                  -2396371.489 8       142.000          50.000         114.000                  
> 2024 10 31 18 03 50.0000000  0 10
G05  22500239.789    22500239.629    22500239.831                   -11414619.986 8 -11414619.985 8                  -8894505.262 8       288.000         204.000         426.000                  
G08  24841625.526    24841622.449    24841638.121                     -464742.266 7   -464742.288 6                   -362141.129 6        92.000          31.000          37.000                  
G10  24655658.589    24655658.102    24655662.110                     -430582.783 8   -430582.780 6                   -335517.901 7       102.000          24.000          54.000                  
G13  20475482.241    20475481.928    20475481.769                   -22705423.504 9 -22705423.503 8                 -17692530.781 8       666.000         253.000         363.000                  
G15  20111968.408    20111968.141    20111968.504                   -25794100.134 9 -25794100.137 9                 -20099275.693 9       758.000        1291.000        1883.000                  
G18  20019616.169    20019615.960    20019616.504                   -22916775.982 9 -22916775.972 9                 -17857227.732 9       739.000         709.000         720.000                  
G23  20695221.549    20695221.150    20695221.487                   -20495237.003 9 -20495237.004 8                 -15970296.199 8       521.000         344.000         294.000                  
G24  25158206.123    25158205.182    25158208.922                      555353.836 7    555353.824 6                    432738.773 7        82.000          25.000          54.000                  
G27  22999794.462    22999793.887    22999796.833                   -10256834.388 8 -10256834.390 8                  -7992335.644 9       203.000         112.000         512.000                  
G30  23512778.067    23512778.318    23512780.865                    -3417582.879 8  -3417582.899 7                  -2663052.489 8       145.000          55.000         129.000                  
> 2024 10 31 18 04  0.0000000  0 10
G05  22486258.398    22486258.264    22486258.411                   -11488092.674 8 -11488092.675 8                  -8951756.669 8       295.000         207.000         424.000                  
G08  24781379.878    24781378.239    24781382.313                     -781331.496 7   -781331.502 6                   -608832.968 7        97.000          33.000          70.000                  
G10  24684269.038    24684269.075    24684272.629                     -280232.791 7   -280232.786 6                   -218362.061 7        99.000          28.000          53.000                  
G13  20451692.130    20451691.688    20451691.627                   -22830441.892 9 -22830441.893 8                 -17789947.682 8       679.000         278.000         365.000                  
G15  20125513.474    20125513.282    20125513.580                   -25722919.997 9 -25722920.000 9                 -20043810.643 9       755.000        1284.000        1879.000                  
G18  20052783.854    20052783.658    20052784.102                   -22742478.948 9 -22742478.937 9                 -17721411.864 9       745.000         720.000         746.000                  
G23  20720773.743    20720773.284    20720773.586                   -20360959.593 9 -20360959.594 8                 -15865664.457 8       513.000         334.000         283.000                  
G24  25195291.553    25195291.511    25195294.981                      750245.910 7    750245.931 6                    584602.751 6        78.000          21.000          46.000                  
G27  22972363.933    22972362.914    22972366.338                   -10400983.351 8 -10400983.349 8                  -8104659.495 9       205.000         112.000         522.000                  
G30  23447850.437    23447848.762    23447852.097                    -3758783.950 8  -3758783.938 7                  -2928923.386 8       146.000          57.000         144.000                  
> 2024 10 31 18 04 10.0000000  0 10
G05  22472776.379    22472776.091    22472776.398                   -11558940.960 8 -11558940.963 8                  -9006963.082 8       299.000         216.000         419.000                  
G08  24721466.067    24721465.267    24721468.732                    -1096177.767 8  -1096177.792 6                   -854167.573 7       102.000          31.000          79.000                  
G10  24713125.440    24713124.031    24713127.582                     -128596.305 8   -128596.310 6                   -100203.776 7       101.000          33.000          59.000                  
G13  20428486.506    20428485.991    20428485.805                   -22952388.805 9 -22952388.805 8                 -17884971.227 8       684.000         277.000         380.000                  
G15  20139758.779    20139758.396    20139758.746                   -25648061.045 9 -25648061.048 9                 -19985478.984 9       750.000        1287.000        1880.000                  
G18  20086948.954    20086948.758    20086949.304                   -22562939.705 9 -22562939.696 9                 -17581511.165 9       738.000         709.000         758.000                  
G23  20747010.178    20747009.882    20747010.239                   -20223084.701 9 -20223084.702 8                 -15758229.478 8       510.000         333.000         262.000                  
G24  25232453.532    25232454.452    25232457.854                      945534.629 7    945534.608 6                    736775.765 6        77.000          22.000          42.000                  
G27  22945690.690    22945690.206    22945693.481                   -10541150.084 8 -10541150.087 8                  -8213880.316 9       211.000         119.000         522.000                  
G30  23383127.154    23383126.950    23383129.209                    -4098905.765 8  -4098905.763 7                  -3193953.309 8       149.000          59.000         148.000                  
> 2024 10 31 18 04 20.0000000  0 10
G05  22459791.618    22459791.149    22459791.443                   -11627176.709 8 -11627176.703 8                  -9060133.749 8       307.000         225.000         413.000                  
G08  24661890.778    24661891.415    24661895.223                    -1409241.351 8  -1409241.363 6                  -1098113.091 7       106.000          33.000          85.000                  
G10  24742220.442    24742219.572    24742224.192                       24302.522 7     24302.527 6                     18938.153 7        98.000          28.000          56.000                  
G13  20405865.983    20405865.747    20405865.372                   -23071259.301 9 -23071259.301 8                 -17977597.564 8       684.000         277.000         390.000                  
G15  20154698.325    20154698.062    20154698.419                   -25569552.712 9 -25569552.714 9                 -19924303.649 9       758.000        1296.000        1882.000                  
G18  20122099.946    20122099.683    20122100.195                   -22378220.644 9 -22378220.634 9                 -17437574.240 9       730.000         687.000         775.000                  
G23  20773924.920    20773924.571    20773925.036                   -20081647.370 9 -20081647.370 8                 -15648018.569 8       509.000         332.000         256.000                  
G24  25269686.987    25269686.052    25269688.886                     1141190.560 7   1141190.545 6                    889234.922 6        79.000          24.000          43.000                  
G27  22919779.532    22919778.928    22919782.021                   -10677315.480 8 -10677315.481 8                  -8319983.216 9       218.000         124.000         515.000                  
G30  23318614.547    23318613.779    23318616.633                    -4437921.850 8  -4437921.859 7                  -3458121.623 8       153.000          51.000         157.000                  
> 2024 10 31 18 04 30.0000000  0 10
G05  22447309.642    22447309.141    22447309.231                   -11692770.610 8 -11692770.611 8                  -9111245.832 8       312.000         231.000         420.000                  
G08  24602671.318    24602671.798    24602674.958                    -1720440.850 8  -1720440.852 6                  -1340606.021 7       112.000          40.000          88.000                  
G10  24771559.834    24771559.210    24771563.280                      178480.785 7    178480.802 6                    139077.043 7        97.000          35.000          55.000                  
G13  20383840.029    20383839.586    20383839.449                   -23187007.367 9 -23187007.367 8                 -18067790.836 8       690.000         289.000         409.000                  
G15  20170334.629    20170334.312    20170334.668                   -25487383.638 9 -25487383.641 9                 -19860275.787 9       764.000        1314.000        1900.000                  
G18  20158232.187    20158231.957    20158232.639                   -22188343.769 9 -22188343.760 9                 -17289618.231 9       723.000         664.000         784.000                  
G23  20801518.352    20801518.207    20801518.506                   -19936641.763 9 -19936641.763 8                 -15535027.187 8       505.000         327.000         240.000                  
G24  25306989.672    25306990.748    25306993.908                     1337225.923 7   1337225.928 6                   1041989.764 6        77.000          24.000          45.000                  
G27  22894640.994    22894640.414    22894643.335                   -10809419.693 8 -10809419.691 8                  -8422921.564 8       223.000         140.000         496.000                  
G30  23254324.582    23254324.701    23254327.375                    -4775763.953 8  -4775763.946 7                  -3721375.145 8       156.000          59.000         162.000                  
