     3.03           OBSERVATION DATA    M (MIXED)           RINEX VERSION / TYPE
BJPP                CNES                20241031 085227 UTC PGM / RUN BY / DATE 
MARKER                                                      MARKER NAME         
SPACECRAFT                                                  MARKER TYPE         
OBSERVER            CNES                                    OBSERVER / AGENCY   
RECNUM              BLACKJACK           RECVERS             REC # / TYPE / VERS 
ANTNUM              BLACKJACK                               ANT # / TYPE        
        0.0000        0.0000        0.0000                  ANTENNA: DELTA H/E/N
G   12 C1C C1W C2W C2X L1C L1W L2X L2W S1C S1W S2W S2X      SYS / # / OBS TYPES 
DBHZ                                                        SIGNAL STRENGTH UNIT
This rinex produced from the following file(s):             COMMENT             
/tmp/mesos_work/slaves/d197f515-9ebc-49f2-8adc-fe7a9d3e6458-COMMENT             
S14/frameworks/8c1b9f46-52ed-4aff-9edf-38d17bf6761e-2876/exeCOMMENT             
cutors/toil-42857/runs/f129d425-401b-43e5-9861-03bfe4ef7214/COMMENT             
b05e97a940c357f3aec4b3b6c613f5f7/9570/d9b8/tmpebn9_3pppzmtnuCOMMENT             
2k/stgcc2155b7-0deb-452a-a8be-bab5395e3235/SWOT_KUX_20241031COMMENT             
T081145_20241031T051329_20241031T071000_O_APID1280.PTM_0    COMMENT             
  2024    10    31     5    13   10.0000000                 TIME OF FIRST OBS   
G L1C                                                       SYS / PHASE SHIFT   
G L1W -0.25000                                              SYS / PHASE SHIFT   
G L2W                                                       SYS / PHASE SHIFT   
G L2X  0.25000                                              SYS / PHASE SHIFT   
                                                            END OF HEADER       
> 2024 10 31 05 13 10.0000000  0 11
G02  21543645.949    21543644.943    21543642.996                   -16181483.666 9 -16181483.668 8                 -12608945.273 8       609.000         293.000         131.000                  
G03  19696463.095    19696463.024    19696465.483                   -24611261.644 9 -24611261.645 9                 -19177603.202 9       758.000        1468.000        1284.000                  
G04  24014670.868    24014668.834    24014669.680                    -1102675.289 7  -1102675.281 6                   -859221.123 6        88.000          21.000          21.000                  
G12  23636897.458    23636896.910    23636897.451                    -5950828.854 8  -5950828.853 7                  -4637009.857 7       153.000          62.000          80.000                  
G17  22009939.899    22009939.401    22009938.886                   -16012998.469 8 -16012998.471 8                 -12477658.596 8       350.000         262.000         305.000                  
G19  22048488.161    22048486.512    22048485.586                   -12731567.410 8 -12731567.406 7                  -9920702.909 7       276.000          74.000          67.000                  
G21  23026413.097    23026411.666    23026412.123                   -12998540.066 8 -12998540.072 6                 -10128729.050 7       230.000          49.000          64.000                  
G25  24095009.822    24094988.884    24095016.887                     -655656.912 7   -655656.915 6                   -510905.598 6        81.000          22.000          30.000                  
G28  21896544.153    21896544.066    21896544.427                   -15953858.235 8 -15953858.232 8                 -12431577.084 8       373.000         173.000         129.000                  
G31  23141913.052    23141912.228    23141912.683                    -7888568.505 8  -7888568.503 7                  -6146934.936 8       205.000          99.000         127.000                  
G32  22742475.484    22742475.286    22742477.665                   -12450444.957 8 -12450444.960 8                  -9701644.748 8       318.000         256.000         255.000                  
> 2024 10 31 05 13 20.0000000  0 12
G02  21596529.679    21596528.442    21596526.614                   -15903578.764 9 -15903578.765 8                 -12392396.035 8       595.000         276.000         104.000                  
G03  19722063.823    19722063.757    19722066.292                   -24476728.703 9 -24476728.703 9                 -19072772.344 9       754.000        1442.000        1195.000                  
G04  24077650.736    24077650.030    24077649.364                     -771708.279 7   -771708.287 6                   -601324.727 6        90.000          24.000          15.000                  
G06  24863982.900    24863974.558    24863991.009                     -164731.926 7   -164731.952 6                   -128367.326 6        61.000          24.000          28.000                  
G12  23569441.878    23569441.696    23569441.595                    -6305310.910 8  -6305310.914 7                  -4913229.646 7       162.000          69.000          80.000                  
G17  22034094.991    22034094.721    22034094.091                   -15886061.304 8 -15886061.307 8                 -12378746.541 8       347.000         262.000         292.000                  
G19  22031474.754    22031473.254    22031472.168                   -12820972.096 8 -12820972.091 7                  -9990368.939 7       276.000          68.000          65.000                  
G21  23082143.281    23082142.085    23082142.477                   -12705675.624 8 -12705675.605 6                  -9900523.024 7       228.000          50.000          61.000                  
G25  24021003.272    24020987.767    24021006.851                    -1044561.378 7  -1044561.404 6                   -813946.434 6        81.000          19.000          37.000                  
G28  21870219.151    21870218.733    21870219.264                   -16092198.835 8 -16092198.831 8                 -12539374.953 8       379.000         187.000         121.000                  
G31  23148385.434    23148385.390    23148385.098                    -7854554.372 8  -7854554.375 7                  -6120430.506 8       203.000          94.000         115.000                  
G32  22693577.883    22693577.876    22693580.463                   -12707401.943 8 -12707401.947 8                  -9901870.982 8       324.000         268.000         241.000                  
> 2024 10 31 05 13 30.0000000  0 12
G02  21650107.312    21650106.292    21650104.255                   -15622025.495 9 -15622025.497 8                 -12173003.911 8       560.000         243.000         104.000                  
G03  19748453.626    19748453.467    19748455.977                   -24338049.898 9 -24338049.899 9                 -18964710.955 9       737.000        1380.000        1142.000                  
G04  24140748.055    24140748.386    24140747.713                     -440128.236 7   -440128.231 6                   -342951.173 6        83.000          24.000          13.000                  
G06  24839798.112    24839793.606    24839801.045                     -291828.403 7   -291828.419 6                   -227400.907 6        64.000          24.000          47.000                  
G12  23502343.449    23502343.040    23502342.857                    -6657916.267 8  -6657916.264 7                  -5187987.084 7       168.000          71.000          91.000                  
G17  22059133.379    22059132.771    22059132.486                   -15754485.089 8 -15754485.092 8                 -12276219.646 8       339.000         250.000         291.000                  
G19  22015310.865    22015309.074    22015308.412                   -12905914.552 8 -12905914.552 7                 -10056557.892 7       269.000          72.000          71.000                  
G21  23138338.153    23138337.066    23138338.148                   -12410366.276 8 -12410366.265 7                  -9670411.909 7       217.000          53.000          60.000                  
G25  23947085.599    23947076.224    23947087.722                    -1433006.327 7  -1433006.368 6                  -1116630.765 6        81.000          23.000          37.000                  
G28  21844334.312    21844333.844    21844334.523                   -16228223.933 8 -16228223.932 8                 -12645368.538 8       373.000         174.000         118.000                  
G31  23155124.112    23155124.283    23155124.084                    -7819141.958 8  -7819141.964 7                  -6092836.487 8       201.000          88.000         117.000                  
G32  22644991.893    22644991.507    22644994.155                   -12962725.858 8 -12962725.854 8                 -10100824.693 8       319.000         253.000         243.000                  
> 2024 10 31 05 13 40.0000000  0 12
G02  21704373.587    21704372.479    21704370.410                   -15336855.015 9 -15336855.017 8                 -11950793.186 8       531.000         224.000         104.000                  
G03  19775633.382    19775633.387    19775635.785                   -24195218.753 9 -24195218.754 9                 -18853413.970 9       718.000        1315.000        1092.000                  
G04  24203961.200    24203961.693    24203962.512                     -107933.154 7   -107933.133 6                    -84099.397 6        84.000          25.000          22.000                  
G06  24815999.832    24815998.816    24816004.129                     -416881.426 7   -416881.432 6                   -324844.869 6        64.000          19.000          48.000                  
G12  23435618.492    23435618.710    23435618.933                    -7008555.480 8  -7008555.479 7                  -5461212.488 7       178.000          75.000          98.000                  
G17  22085054.187    22085054.153    22085053.989                   -15618267.496 8 -15618267.495 8                 -12170076.092 8       325.000         225.000         313.000                  
G19  22000006.706    22000004.518    22000004.432                   -12986338.878 8 -12986338.880 7                 -10119226.251 7       270.000          71.000          77.000                  
G21  23194994.840    23194993.312    23194994.029                   -12112637.275 8 -12112637.284 6                  -9438415.342 7       208.000          37.000          58.000                  
G25  23873269.340    23873266.375    23873272.331                    -1820907.538 7  -1820907.535 6                  -1418891.392 6        81.000          23.000          40.000                  
G28  21818901.072    21818900.796    21818901.463                   -16361875.312 8 -16361875.312 8                 -12749512.467 8       371.000         175.000         118.000                  
G31  23162135.632    23162135.482    23162135.501                    -7782297.175 8  -7782297.176 7                  -6064126.302 8       199.000          89.000         119.000                  
G32  22596727.834    22596727.460    22596730.001                   -13216353.970 8 -13216353.972 8                 -10298457.002 8       314.000         253.000         247.000                  
> 2024 10 31 05 13 50.0000000  0 12
G02  21759309.061    21759308.079    21759306.615                   -15048166.305 9 -15048166.304 8                 -11725840.976 8       521.000         214.000         102.000                  
G03  19803591.691    19803591.648    19803594.042                   -24048297.150 9 -24048297.152 9                 -18738929.609 9       719.000        1301.000        1039.000                  
G04  24267281.220    24267280.230    24267281.382                      224811.564 7    224811.562 6                    175177.131 6        79.000          23.000          17.000                  
G06  24792593.499    24792589.602    24792595.069                     -539895.560 7   -539895.578 6                   -420700.083 6        69.000          25.000          46.000                  
G12  23369273.244    23369272.573    23369272.561                    -7357206.470 8  -7357206.474 7                  -5732888.580 8       182.000          83.000         105.000                  
G17  22111846.669    22111845.927    22111846.166                   -15477474.662 8 -15477474.664 8                 -12060367.404 8       310.000         209.000         322.000                  
G19  21985559.658    21985558.465    21985557.295                   -13062257.768 8 -13062257.773 7                 -10178383.862 7       274.000          78.000          80.000                  
G21  23252093.248    23252092.104    23252092.525                   -11812581.303 8 -11812581.275 6                  -9204605.603 6       200.000          47.000          48.000                  
G25  23799560.959    23799559.232    23799564.541                    -2208247.959 7  -2208247.942 6                  -1720715.070 6        83.000          27.000          41.000                  
G28  21793918.265    21793917.570    21793918.297                   -16493162.535 8 -16493162.533 8                 -12851814.203 8       373.000         187.000         117.000                  
G31  23169413.347    23169412.917    23169413.345                    -7744053.553 8  -7744053.556 7                  -6034326.094 8       202.000          77.000         115.000                  
G32  22548785.838    22548785.492    22548788.137                   -13468291.084 8 -13468291.085 8                 -10494771.653 8       320.000         259.000         253.000                  
> 2024 10 31 05 14  0.0000000  0 12
G02  21814905.976    21814904.811    21814902.794                   -14756003.584 8 -14756003.584 8                 -11498181.732 7       494.000         198.000          97.000                  
G03  19832326.813    19832326.866    19832329.315                   -23897292.781 9 -23897292.783 9                 -18621263.881 9       701.000        1256.000         994.000                  
G04  24330701.902    24330702.327    24330707.656                      558095.666 7    558095.665 6                    434884.191 6        79.000          21.000          16.000                  
G06  24769580.950    24769578.969    24769583.829                     -660820.595 7   -660820.586 6                   -514927.412 6        70.000          25.000          43.000                  
G12  23303320.220    23303319.606    23303319.391                    -7703792.039 8  -7703792.037 7                  -6002955.229 7       188.000          84.000         100.000                  
G17  22139506.823    22139506.492    22139506.269                   -15332119.124 8 -15332119.127 8                 -11947103.394 8       305.000         193.000         330.000                  
G19  21971978.105    21971976.481    21971975.504                   -13133630.281 8 -13133630.283 7                 -10233998.867 7       270.000          69.000          79.000                  
G21  23309627.969    23309626.678    23309627.689                   -11510235.711 8 -11510235.715 6                  -8969011.680 6       195.000          42.000          46.000                  
G25  23725973.963    23725971.744    23725975.888                    -2594955.033 7  -2594955.009 6                  -2022045.217 6        87.000          25.000          46.000                  
G28  21769393.739    21769393.451    21769393.617                   -16622040.397 8 -16622040.394 8                 -12952238.527 8       374.000         176.000         108.000                  
G31  23176960.456    23176960.478    23176960.889                    -7704389.833 8  -7704389.827 7                  -6003419.322 8       194.000          80.000         109.000                  
G32  22501175.222    22501174.868    22501177.378                   -13718487.014 8 -13718487.013 8                 -10689729.540 8       326.000         266.000         260.000                  
> 2024 10 31 05 14 10.0000000  0 12
G02  21871149.943    21871149.048    21871148.064                   -14460437.338 8 -14460437.339 8                 -11267870.419 8       467.000         169.000         106.000                  
G03  19861832.523    19861832.436    19861834.855                   -23742240.171 9 -23742240.173 9                 -18500443.715 9       691.000        1208.000        1007.000                  
G04  24394221.279    24394219.876    24394223.901                      891883.074 7    891883.057 6                    695005.452 6        76.000          23.000          16.000                  
G06  24746972.666    24746970.552    24746975.136                     -779632.837 7   -779632.847 6                   -607508.478 6        73.000          31.000          42.000                  
G12  23237769.822    23237769.064    23237769.377                    -8048261.081 8  -8048261.082 7                  -6271372.677 8       188.000          88.000         111.000                  
G17  22168028.040    22168027.414    22168027.430                   -15182240.268 8 -15182240.270 8                 -11830314.697 8       292.000         186.000         346.000                  
G19  21959264.516    21959262.655    21959261.891                   -13200442.450 8 -13200442.452 7                 -10286060.340 7       275.000          72.000          89.000                  
G21  23367585.461    23367584.635    23367585.176                   -11205664.274 8 -11205664.266 6                  -8731683.376 6       193.000          44.000          44.000                  
G25  23652514.552    23652513.492    23652517.801                    -2980981.889 7  -2980981.909 6                  -2322845.332 6        91.000          29.000          37.000                  
G28  21745330.872    21745330.575    21745331.029                   -16748489.976 8 -16748489.974 8                 -13050770.680 8       379.000         187.000         109.000                  
G31  23184778.170    23184777.637    23184777.773                    -7663310.924 8  -7663310.926 7                  -5971409.805 8       185.000          71.000         116.000                  
G32  22453900.349    22453899.950    22453902.755                   -13966917.586 8 -13966917.589 8                 -10883311.817 8       322.000         262.000         274.000                  
> 2024 10 31 05 14 20.0000000  0 12
G02  21928026.928    21928025.777    21928024.718                   -14161547.602 8 -14161547.604 8                 -11034969.361 7       436.000         160.000          99.000                  
G03  19892099.926    19892099.850    19892102.338                   -23583183.957 9 -23583183.958 9                 -18376503.816 9       674.000        1160.000         955.000                  
G04  24457824.816    24457824.969    24457826.714                     1226128.373 7   1226128.376 6                    955486.910 6        72.000          26.000          19.000                  
G06  24724768.793    24724765.960    24724771.021                     -896318.069 7   -896318.057 6                   -698432.076 6        74.000          30.000          36.000                  
G12  23172630.019    23172629.728    23172629.465                    -8390571.825 8  -8390571.834 7                  -6538108.313 8       185.000          84.000         109.000                  
G17  22197400.399    22197399.632    22197399.660                   -15027888.143 8 -15027888.145 8                 -11710040.350 8       275.000         167.000         338.000                  
G19  21947418.829    21947417.142    21947415.996                   -13262691.197 8 -13262691.192 7                 -10334565.930 7       273.000          73.000          89.000                  
G21  23425953.798    23425951.665    23425953.532                   -10898939.921 8 -10898939.935 6                  -8492677.426 6       188.000          39.000          45.000                  
G25  23579193.054    23579192.213    23579195.830                    -3366290.779 7  -3366290.780 6                  -2623086.013 6        98.000          29.000          43.000                  
G28  21721732.100    21721732.050    21721732.073                   -16872502.157 8 -16872502.155 8                 -13147403.569 8       372.000         175.000         103.000                  
G31  23192861.247    23192861.157    23192861.346                    -7620831.294 8  -7620831.295 7                  -5938308.812 8       176.000          66.000         111.000                  
G32  22406964.267    22406964.002    22406966.692                   -14213568.242 8 -14213568.243 8                 -11075507.146 8       313.000         244.000         272.000                  
> 2024 10 31 05 14 30.0000000  0 12
G02  21985529.701    21985528.274    21985527.505                   -13859370.550 8 -13859370.551 8                 -10799506.758 7       409.000         143.000          96.000                  
G03  19923128.720    19923128.865    19923131.294                   -23420125.634 9 -23420125.635 9                 -18249445.404 9       679.000        1173.000         907.000                  
G04  24521514.938    24521516.889    24521513.798                     1560830.333 7   1560830.332 6                   1216345.555 6        73.000          20.000          16.000                  
G06  24702979.248    24702977.660    24702981.190                    -1010818.812 7  -1010818.814 6                   -787653.523 6        74.000          27.000          37.000                  
G12  23107917.848    23107916.733    23107917.080                    -8730638.306 8  -8730638.308 7                  -6803095.173 8       187.000          87.000         112.000                  
G17  22227622.900    22227621.673    22227621.860                   -14869069.778 8 -14869069.781 8                 -11586285.831 8       269.000         158.000         330.000                  
G19  21936450.449    21936448.857    21936448.073                   -13320330.470 8 -13320330.468 7                 -10379479.693 7       280.000          75.000          81.000                  
G21  23484726.020    23484723.870    23484725.389                   -10590091.744 8 -10590091.760 6                  -8252016.694 6       188.000          36.000          41.000                  
G25  23506023.884    23506023.013    23506026.106                    -3750799.434 8  -3750799.442 6                  -2922703.112 6       104.000          32.000          44.000                  
G28  21698607.372    21698607.100    21698607.334                   -16994023.956 8 -16994023.952 8                 -13242095.898 8       375.000         181.000         107.000                  
G31  23201216.950    23201216.669    23201217.262                    -7576921.549 8  -7576921.547 7                  -5904093.455 7       169.000          63.000          99.000                  
G32  22360378.374    22360377.787    22360380.464                   -14458380.325 8 -14458380.326 8                 -11266269.824 8       311.000         245.000         270.000                  
> 2024 10 31 05 14 40.0000000  0 12
G02  22043640.764    22043639.516    22043638.297                   -13553994.859 8 -13553994.863 8                 -10561551.733 7       369.000         111.000         100.000                  
G03  19954909.122    19954909.071    19954911.458                   -23253119.708 9 -23253119.708 9                 -18119310.933 9       682.000        1187.000         932.000                  
G04  24585287.142    24585284.874    24585280.215                     1895935.568 7   1895935.549 6                   1477521.043 6        64.000          20.000          18.000                  
G06  24681607.857    24681605.798    24681610.301                    -1123129.967 7  -1123129.958 6                   -875168.821 6        76.000          24.000          34.000                  
G12  23043638.402    23043637.832    23043638.190                    -9068426.913 8  -9068426.911 7                  -7066307.092 8       189.000          90.000         121.000                  
G17  22258683.006    22258682.360    22258682.545                   -14705845.614 8 -14705845.615 8                 -11459098.220 8       267.000         150.000         336.000                  
G19  21926357.862    21926356.524    21926355.140                   -13373367.714 8 -13373367.709 7                 -10420807.486 7       281.000          78.000          91.000                  
G21  23543886.280    23543885.037    23543885.914                   -10279200.427 8 -10279200.431 6                  -8009763.783 6       190.000          39.000          44.000                  
G25  23433011.636    23433011.177    23433015.048                    -4134477.598 8  -4134477.603 6                  -3221673.082 7       115.000          31.000          53.000                  
G28  21675956.374    21675956.229    21675956.844                   -17113055.063 8 -17113055.060 8                 -13334847.415 8       384.000         190.000         110.000                  
G31  23209840.642    23209840.499    23209840.642                    -7531604.750 8  -7531604.742 7                  -5868781.696 8       165.000          64.000         105.000                  
G32  22314142.631    22314142.708    22314145.364                   -14701347.593 8 -14701347.595 8                 -11455594.981 8       319.000         256.000         281.000                  
> 2024 10 31 05 14 50.0000000  0 12
G02  22102349.971    22102348.654    22102347.566                   -13245475.953 8 -13245475.952 7                 -10321147.455 7       337.000          99.000          94.000                  
G03  19987436.341    19987436.310    19987438.631                   -23082188.188 9 -23082188.189 9                 -17986117.570 9       676.000        1158.000         954.000                  
G04  24649128.283    24649126.022    24649124.028                     2231424.102 7   2231424.105 6                   1738981.525 6        65.000          20.000          16.000                  
G06  24660656.593    24660656.930    24660661.087                    -1233213.720 7  -1233213.715 6                   -960948.421 6        76.000          26.000          28.000                  
G12  22979805.496    22979804.800    22979805.008                    -9403870.808 8  -9403870.810 7                  -7327691.976 8       192.000          87.000         127.000                  
G17  22290576.590    22290575.880    22290576.058                   -14538243.654 8 -14538243.655 8                 -11328499.390 8       256.000         141.000         335.000                  
G19  21917145.851    21917144.076    21917142.823                   -13421778.305 8 -13421778.301 7                 -10458530.073 7       288.000          79.000          88.000                  
G21  23603426.641    23603425.998    23603426.481                    -9966313.970 8  -9966313.980 6                  -7765956.224 6       187.000          34.000          37.000                  
G25  23360171.470    23360169.765    23360173.856                    -4517261.391 8  -4517261.397 6                  -3519946.144 7       117.000          42.000          70.000                  
G28  21653786.008    21653785.857    21653786.207                   -17229562.252 8 -17229562.250 8                 -13425632.260 8       392.000         192.000         111.000                  
G31  23218734.325    23218733.497    23218734.219                    -7484870.892 8  -7484870.895 7                  -5832365.752 8       162.000          59.000         103.000                  
G32  22268266.511    22268266.100    22268268.805                   -14942430.582 8 -14942430.583 8                 -11643451.861 8       327.000         264.000         284.000                  
> 2024 10 31 05 15  0.0000000  0 12
G02  22161644.917    22161644.003    22161642.856                   -12933877.922 8 -12933877.928 7                 -10078343.857 7       327.000          95.000          94.000                  
G03  20020704.649    20020704.532    20020706.961                   -22907362.225 9 -22907362.226 9                 -17849889.557 9       660.000        1115.000         970.000                  
G04  24713035.914    24713035.805    24713035.614                     2567267.565 7   2567267.559 6                   2000714.850 6        64.000          20.000          14.000                  
G06  24640138.494    24640138.618    24640141.814                    -1341040.901 7  -1341040.907 6                  -1044969.609 6        76.000          25.000          30.000                  
G12  22916429.607    22916429.563    22916429.449                    -9736911.521 8  -9736911.528 7                  -7587204.263 8       196.000          92.000         140.000                  
G17  22323296.518    22323295.379    22323295.550                   -14366301.639 8 -14366301.641 8                 -11194518.697 8       248.000         138.000         341.000                  
G19  21908817.052    21908815.079    21908814.060                   -13465547.558 8 -13465547.559 7                 -10492636.008 7       289.000          87.000          92.000                  
G21  23663336.367    23663334.994    23663336.558                    -9651488.609 8  -9651488.592 6                  -7520637.867 6       189.000          42.000          37.000                  
G25  23287508.939    23287510.019    23287512.962                    -4899095.052 8  -4899095.047 6                  -3817478.845 7       117.000          38.000          76.000                  
G28  21632100.375    21632100.139    21632100.537                   -17343521.080 8 -17343521.080 8                 -13514431.354 8       395.000         202.000         122.000                  
G31  23227896.387    23227896.196    23227897.344                    -7436718.675 8  -7436718.664 7                  -5794844.571 8       159.000          56.000         118.000                  
G32  22222754.217    22222753.830    22222756.509                   -15181598.459 8 -15181598.463 8                 -11829816.444 8       331.000         282.000         303.000                  
> 2024 10 31 05 15 10.0000000  0 12
G02  22221511.733    22221510.441    22221509.193                   -12619277.250 8 -12619277.246 7                  -9833200.532 7       305.000          78.000          97.000                  
G03  20054705.406    20054705.481    20054707.903                   -22728686.173 9 -22728686.175 9                 -17710661.487 9       639.000        1043.000         937.000                  
G04  24777004.772    24777004.420    24777005.234                     2903425.409 7   2903425.420 6                   2262708.730 6        52.000          19.000          17.000                  
G06  24620054.427    24620052.634    24620056.015                    -1446595.809 7  -1446595.808 6                  -1127220.238 6        79.000          31.000          30.000                  
G12  22853519.869    22853519.989    22853520.181                   -10067502.821 8 -10067502.816 8                  -7844807.855 8       202.000         102.000         156.000                  
G17  22356831.797    22356831.309    22356831.545                   -14190070.295 8 -14190070.299 8                 -11057195.675 8       240.000         133.000         319.000                  
G19  21901371.269    21901369.611    21901368.889                   -13504674.461 8 -13504674.462 7                 -10523124.556 7       282.000          79.000          91.000                  
G21  23723601.735    23723599.819    23723601.071                    -9334792.670 8  -9334792.660 6                  -7273861.926 6       188.000          39.000          35.000                  
G25  23215037.765    23215038.019    23215041.828                    -5279934.850 8  -5279934.856 6                  -4114237.107 7       120.000          34.000          85.000                  
G28  21610901.771    21610901.769    21610902.025                   -17454919.816 8 -17454919.815 8                 -13601235.569 8       392.000         199.000         129.000                  
G31  23237327.783    23237327.620    23237328.084                    -7387159.232 8  -7387159.229 7                  -5756226.859 8       154.000          60.000         108.000                  
G32  22177610.096    22177609.574    22177612.361                   -15418832.855 8 -15418832.855 8                 -12014674.428 8       323.000         269.000         306.000                  
> 2024 10 31 05 15 20.0000000  0 11
G02  22281940.950    22281939.667    22281938.708                   -12301718.371 8 -12301718.372 7                  -9585752.123 7       280.000          65.000          96.000                  
G03  20089436.724    20089436.678    20089439.010                   -22546172.696 9 -22546172.697 9                 -17568443.231 9       630.000        1016.000         888.000                  
G06  24600408.993    24600407.336    24600411.272                    -1549830.177 7  -1549830.151 6                  -1207662.621 6        77.000          27.000          29.000                  
G12  22791092.227    22791091.471    22791091.754                   -10395566.578 8 -10395566.587 8                  -8100441.933 8       211.000         108.000         161.000                  
G17  22391180.203    22391179.560    22391179.813                   -14009568.933 8 -14009568.937 8                 -10916545.310 8       239.000         128.000         305.000                  
G19  21894815.688    21894813.487    21894812.524                   -13539126.857 8 -13539126.859 7                 -10549970.626 7       282.000          71.000          89.000                  
G21  23784215.630    23784214.062    23784215.344                    -9016261.946 8  -9016261.956 6                  -7025656.224 6       183.000          39.000          37.000                  
G25  23142772.185    23142770.160    23142773.627                    -5659704.358 8  -5659704.364 6                  -4410161.382 8       121.000          39.000         101.000                  
G28  21590198.942    21590198.688    21590199.075                   -17563714.880 8 -17563714.881 8                 -13686010.972 8       396.000         206.000         128.000                  
G31  23247030.264    23247029.929    23247030.426                    -7336171.798 8  -7336171.804 7                  -5716496.443 7       154.000          55.000         100.000                  
G32  22132843.092    22132842.960    22132845.834                   -15654083.186 8 -15654083.185 8                 -12197986.393 8       324.000         272.000         314.000                  
> 2024 10 31 05 15 30.0000000  0 11
G02  22342916.752    22342915.140    22342914.729                   -11981289.479 8 -11981289.472 7                  -9336067.337 7       276.000          70.000          94.000                  
G03  20124887.462    20124887.193    20124889.612                   -22359879.047 9 -22359879.048 9                 -17423279.406 9       630.000        1008.000         854.000                  
G06  24581205.554    24581205.355    24581207.802                    -1650740.602 7  -1650740.586 6                  -1286294.244 6        81.000          28.000          28.000                  
G12  22729151.173    22729150.706    22729150.469                   -10721068.421 8 -10721068.424 8                  -8354079.731 8       221.000         117.000         166.000                  
G17  22426328.672    22426328.097    22426328.324                   -13824862.053 8 -13824862.055 8                 -10772617.917 8       236.000         128.000         291.000                  
G19  21889146.066    21889144.244    21889143.894                   -13568917.748 8 -13568917.743 7                 -10573184.367 7       285.000          77.000          88.000                  
G21  23845164.147    23845163.126    23845164.081                    -8695976.391 8  -8695976.409 6                  -6776083.178 6       180.000          35.000          38.000                  
G25  23070712.710    23070712.157    23070715.770                    -6038370.722 8  -6038370.729 6                  -4705226.041 8       130.000          42.000         109.000                  
G28  21569991.569    21569991.029    21569991.509                   -17669906.784 8 -17669906.784 8                 -13768757.927 8       408.000         205.000         135.000                  
G31  23256999.598    23256999.866    23257001.009                    -7283779.502 8  -7283779.488 7                  -5675671.335 8       152.000          53.000         108.000                  
G32  22088455.324    22088455.236    22088457.937                   -15887342.902 8 -15887342.905 8                 -12379747.279 8       341.000         297.000         329.000                  
> 2024 10 31 05 15 40.0000000  0 11
G02  22404431.520    22404429.993    22404428.707                   -11658027.893 8 -11658027.896 7                  -9084175.253 7       275.000          65.000          87.000                  
G03  20161055.650    20161055.874    20161058.156                   -22169812.053 9 -22169812.054 9                 -17275175.274 9       614.000         961.000         787.000                  
G06  24562457.159    24562455.108    24562458.236                    -1749272.359 7  -1749272.342 6                  -1363072.141 6        75.000          26.000          30.000                  
G12  22667714.197    22667713.543    22667713.601                   -11043923.024 8 -11043923.029 8                  -8605654.770 8       221.000         117.000         181.000                  
G17  22462275.258    22462274.302    22462274.591                   -13635964.175 8 -13635964.174 8                 -10625424.800 8       225.000         112.000         288.000                  
G19  21884370.933    21884369.273    21884368.826                   -13594010.603 8 -13594010.603 7                 -10592737.341 7       282.000          81.000          85.000                  
G21  23906441.563    23906440.273    23906440.775                    -8373964.731 8  -8373964.734 6                  -6525165.106 6       178.000          34.000          43.000                  
G25  22998881.158    22998880.143    22998883.917                    -6415849.833 8  -6415849.837 6                  -4999365.581 8       141.000          48.000         112.000                  
G28  21550288.550    21550288.248    21550288.563                   -17773445.582 8 -17773445.581 8                 -13849437.537 8       400.000         203.000         143.000                  
G31  23267243.259    23267242.944    23267243.057                    -7229954.695 8  -7229954.690 6                  -5633729.970 8       146.000          50.000         101.000                  
G32  22044457.528    22044457.213    22044459.946                   -16118554.298 8 -16118554.301 8                 -12559911.965 8       349.000         302.000         344.000                  
> 2024 10 31 05 15 50.0000000  0 11
G02  22466467.318    22466466.019    22466465.114                   -11332027.878 8 -11332027.882 7                  -8830149.318 7       270.000          71.000          99.000                  
G03  20197929.991    20197930.114    20197932.423                   -21976036.443 9 -21976036.444 9                 -17124181.327 9       609.000         934.000         790.000                  
G06  24544158.916    24544157.329    24544160.027                    -1845429.437 7  -1845429.446 6                  -1437999.761 6        75.000          26.000          28.000                  
G12  22606785.582    22606785.246    22606785.645                   -11364102.302 8 -11364102.304 8                  -8855145.112 8       225.000         122.000         201.000                  
G17  22499004.809    22499004.027    22499004.417                   -13442947.292 8 -13442947.292 8                 -10475022.085 8       215.000         102.000         297.000                  
G19  21880486.077    21880484.404    21880483.421                   -13614426.882 8 -13614426.879 7                 -10608646.135 7       282.000          74.000          90.000                  
G21  23968030.724    23968028.985    23968029.606                    -8050312.591 8  -8050312.571 6                  -6272968.745 6       176.000          39.000          34.000                  
G25  22927280.817    22927279.698    22927283.184                    -6792114.261 8  -6792114.252 7                  -5292558.614 8       154.000          52.000         116.000                  
G28  21531089.297    21531089.032    21531089.288                   -17874338.658 8 -17874338.655 8                 -13928055.538 8       405.000         211.000         145.000                  
G31  23277752.838    23277751.871    23277752.535                    -7174727.017 8  -7174727.012 6                  -5590695.445 7       143.000          49.000          96.000                  
G32  22000849.039    22000848.918    22000851.479                   -16347717.349 8 -16347717.351 8                 -12738480.571 8       361.000         333.000         386.000                  
> 2024 10 31 05 16  0.0000000  0 11
G02  22529014.787    22529012.935    22529012.287                   -11003339.889 8 -11003339.902 7                  -8574028.870 8       271.000          58.000         110.000                  
G03  20235506.305    20235506.105    20235508.325                   -21778573.611 9 -21778573.611 9                 -16970314.232 9       611.000         951.000         778.000                  
G06  24526318.076    24526318.894    24526322.423                    -1939171.549 7  -1939171.570 6                  -1511045.575 6        71.000          25.000          31.000                  
G12  22546380.443    22546380.061    22546380.126                   -11681534.389 8 -11681534.391 8                  -9102494.758 8       239.000         143.000         219.000                  
G17  22536512.826    22536512.196    22536512.548                   -13245840.705 8 -13245840.706 8                 -10321432.610 8       215.000         105.000         298.000                  
G19  21877495.430    21877493.388    21877492.338                   -13630146.095 8 -13630146.100 7                 -10620894.933 7       290.000          83.000          93.000                  
G21  24029923.772    24029922.619    24029923.624                    -7725061.526 8  -7725061.500 6                  -6019526.478 6       177.000          35.000          34.000                  
G25  22855924.341    22855923.780    22855927.356                    -7167092.444 8  -7167092.451 7                  -5584749.399 8       165.000          73.000         120.000                  
G28  21512400.195    21512400.051    21512400.257                   -17972550.012 8 -17972550.013 8                 -14004583.891 8       415.000         223.000         141.000                  
G31  23288531.658    23288530.667    23288531.429                    -7118082.520 8  -7118082.530 7                  -5546556.922 7       144.000          53.000          93.000                  
G32  21957639.148    21957638.904    21957641.395                   -16574788.077 8 -16574788.079 8                 -12915418.811 8       381.000         367.000         419.000                  
> 2024 10 31 05 16 10.0000000  0 11
G02  22592062.171    22592060.617    22592059.864                   -10672022.736 8 -10672022.727 7                  -8315859.721 8       270.000          66.000         109.000                  
G03  20273777.983    20273777.930    20273780.186                   -21577453.873 9 -21577453.874 9                 -16813597.633 9       609.000         944.000         746.000                  
G06  24508945.229    24508944.545    24508949.444                    -2030467.595 7  -2030467.586 6                  -1582185.341 6        73.000          21.000          29.000                  
G12  22486510.223    22486509.670    22486509.767                   -11996156.004 8 -11996156.005 8                  -9347654.501 8       247.000         146.000         231.000                  
G17  22574792.048    22574791.547    22574791.695                   -13044682.762 8 -13044682.768 8                 -10164686.229 8       216.000         103.000         298.000                  
G19  21875399.579    21875397.977    21875397.218                   -13641156.872 8 -13641156.872 7                 -10629474.789 8       288.000          83.000         105.000                  
G21  24092112.099    24092110.642    24092111.231                    -7398261.015 8  -7398261.039 6                  -5764876.834 6       173.000          31.000          31.000                  
G25  22784825.545    22784824.281    22784827.894                    -7540720.762 8  -7540720.765 7                  -5875888.348 8       170.000          81.000         120.000                  
G28  21494226.649    21494226.385    21494226.918                   -18068052.305 8 -18068052.302 8                 -14079001.276 8       420.000         221.000         138.000                  
G31  23299581.898    23299580.947    23299581.543                    -7060015.652 8  -7060015.637 6                  -5501310.065 7       148.000          49.000          84.000                  
G32  21914833.825    21914833.746    21914836.245                   -16799730.876 8 -16799730.878 8                 -13090698.924 8       398.000         399.000         418.000                  
> 2024 10 31 05 16 20.0000000  0 11
G02  22655594.382    22655592.879    22655592.177                   -10338159.339 8 -10338159.350 7                  -8055706.488 8       271.000          58.000         108.000                  
G03  20312735.154    20312735.295    20312737.562                   -21372732.202 9 -21372732.204 9                 -16654074.310 9       609.000         941.000         787.000                  
G06  24492041.200    24492037.342    24492042.914                    -2119311.026 7  -2119311.013 6                  -1651413.970 6        70.000          20.000          34.000                  
G12  22427181.753    22427181.403    22427181.508                   -12307927.760 8 -12307927.756 8                  -9590593.521 8       249.000         143.000         264.000                  
G17  22613830.017    22613829.437    22613829.812                   -12839536.784 8 -12839536.789 8                 -10004832.300 8       218.000         104.000         325.000                  
G19  21874197.249    21874195.937    21874195.298                   -13647473.637 8 -13647473.631 7                 -10634397.007 8       288.000          79.000         103.000                  
G21  24154580.679    24154579.346    24154579.649                    -7069984.754 8  -7069984.760 6                  -5509077.253 6       172.000          30.000          30.000                  
G25  22713990.286    22713989.545    22713993.378                    -7912959.465 8  -7912959.471 7                  -6165944.479 8       169.000          78.000         145.000                  
G28  21476569.504    21476569.167    21476569.254                   -18160842.794 8 -18160842.791 8                 -14151305.572 8       425.000         229.000         148.000                  
G31  23310897.168    23310897.813    23310897.990                    -7000545.289 8  -7000545.303 7                  -5454969.568 7       145.000          51.000          82.000                  
G32  21872435.707    21872435.501    21872438.164                   -17022534.517 8 -17022534.518 8                 -13264312.164 8       408.000         426.000         463.000                  
> 2024 10 31 05 16 30.0000000  0 11
G02  22719603.532    22719602.462    22719601.747                   -10001786.596 8 -10001786.592 7                  -7793597.922 8       262.000          62.000         108.000                  
G03  20352376.360    20352376.115    20352378.426                   -21164418.456 9 -21164418.457 9                 -16491751.948 9       612.000         956.000         770.000                  
G06  24475608.588    24475608.283    24475613.018                    -2205650.067 7  -2205650.085 6                  -1718691.213 6        66.000          26.000          37.000                  
G12  22368412.222    22368411.682    22368411.899                   -12616764.868 8 -12616764.869 8                  -9831245.848 8       240.000         142.000         277.000                  
G17  22653623.611    22653623.090    22653623.409                   -12630421.001 8 -12630421.007 8                  -9841885.001 8       221.000         113.000         320.000                  
G19  21873894.146    21873892.950    21873892.463                   -13649066.062 8 -13649066.064 7                 -10635637.868 8       294.000          88.000         106.000                  
G21  24217325.020    24217323.645    24217325.158                    -6740260.555 8  -6740260.574 6                  -5252149.376 6       169.000          31.000          29.000                  
G25  22643437.316    22643435.803    22643439.650                    -8283722.723 8  -8283722.719 7                  -6454850.886 8       176.000          71.000         163.000                  
G28  21459437.084    21459436.758    21459437.180                   -18250873.428 8 -18250873.425 8                 -14221459.348 8       434.000         229.000         148.000                  
G31  23322487.322    23322486.683    23322487.318                    -6939644.603 8  -6939644.603 7                  -5407514.523 7       150.000          53.000          82.000                  
G32  21830455.634    21830455.483    21830458.008                   -17243142.182 8 -17243142.183 8                 -13436214.250 9       423.000         457.000         502.000                  
> 2024 10 31 05 16 40.0000000  0 11
G02  22784071.734    22784070.593    22784070.292                    -9663003.781 8  -9663003.776 7                  -7529611.365 8       260.000          56.000         115.000                  
G03  20392686.599    20392686.592    20392688.897                   -20952585.383 9 -20952585.383 9                 -16326687.243 9       603.000         926.000         801.000                  
G06  24459653.822    24459653.377    24459657.620                    -2289495.618 7  -2289495.636 6                  -1784025.376 6        68.000          22.000          39.000                  
G12  22310204.989    22310204.210    22310204.594                   -12922645.193 8 -12922645.193 8                 -10069594.151 8       234.000         134.000         299.000                  
G17  22694157.013    22694156.388    22694156.660                   -12417416.965 8 -12417416.963 8                  -9675907.925 8       223.000         113.000         330.000                  
G19  21874484.398    21874482.306    21874482.270                   -13645967.776 8 -13645967.779 7                 -10633223.641 8       299.000          94.000         108.000                  
G21  24280328.104    24280326.457    24280327.740                    -6409178.344 8  -6409178.365 6                  -4994163.374 6       165.000          29.000          32.000                  
G25  22573168.219    22573167.430    22573170.871                    -8652986.751 8  -8652986.751 7                  -6742589.066 8       180.000          82.000         200.000                  
G28  21442827.399    21442826.982    21442827.332                   -18338158.776 8 -18338158.773 8                 -14289473.922 8       442.000         237.000         163.000                  
G31  23334342.592    23334341.534    23334341.858                    -6877349.443 8  -6877349.446 7                  -5358972.890 7       152.000          51.000          84.000                  
G32  21788892.116    21788891.996    21788894.628                   -17461559.518 8 -17461559.518 8                 -13606409.588 9       443.000         493.000         569.000                  
> 2024 10 31 05 16 50.0000000  0 11
G02  22848993.377    22848991.807    22848991.219                    -9321841.817 8  -9321841.818 7                  -7263770.947 8       277.000          62.000         125.000                  
G03  20433665.651    20433665.892    20433668.218                   -20737238.093 9 -20737238.094 9                 -16158884.219 9       597.000         914.000         790.000                  
G06  24444183.330    24444183.558    24444188.664                    -2370791.063 7  -2370791.067 6                  -1847372.386 6        69.000          24.000          45.000                  
G12  22252577.707    22252577.171    22252577.491                   -13225478.460 8 -13225478.462 8                 -10305568.125 8       235.000         142.000         316.000                  
G17  22735427.695    22735427.204    22735427.524                   -12200538.496 8 -12200538.497 8                  -9506911.795 8       232.000         116.000         318.000                  
G19  21875972.741    21875971.153    21875970.658                   -13638145.321 8 -13638145.319 7                 -10627128.245 8       303.000          88.000         122.000                  
G21  24343585.777    24343583.286    24343584.370                    -6076759.431 8  -6076759.435 6                  -4735135.778 6       162.000          33.000          27.000                  
G25  22503202.180    22503201.571    22503205.175                    -9020659.214 8  -9020659.213 7                  -7029087.050 8       187.000          91.000         233.000                  
G28  21426750.006    21426749.834    21426750.150                   -18422645.720 8 -18422645.719 8                 -14355307.912 8       447.000         254.000         156.000                  
G31  23346466.763    23346467.532    23346467.495                    -6813627.513 8  -6813627.502 7                  -5309319.482 7       155.000          53.000          79.000                  
G32  21747757.508    21747757.340    21747759.895                   -17677724.075 8 -17677724.077 9                 -13774849.503 9       463.000         536.000         596.000                  
> 2024 10 31 05 17  0.0000000  0 11
G02  22914349.418    22914348.531    22914346.882                    -8978393.698 8  -8978393.700 7                  -6996149.110 8       302.000          77.000         120.000                  
G03  20475300.834    20475300.986    20475303.421                   -20518444.320 9 -20518444.321 9                 -15988395.634 9       587.000         869.000         767.000                  
G06  24429198.416    24429197.169    24429201.955                    -2449542.613 7  -2449542.623 6                  -1908737.179 6        79.000          26.000          49.000                  
G12  22195535.435    22195534.878    22195535.602                   -13525236.646 8 -13525236.649 8                 -10539145.842 8       234.000         132.000         319.000                  
G17  22777421.290    22777420.237    22777420.786                   -11979862.518 8 -11979862.519 8                  -9334956.579 8       236.000         117.000         309.000                  
G19  21878354.724    21878352.786    21878352.587                   -13625628.725 8 -13625628.723 7                 -10617375.028 8       307.000          92.000         113.000                  
G21  24407080.420    24407079.856    24407080.782                    -5743087.302 8  -5743087.293 6                  -4475131.654 6       154.000          31.000          29.000                  
G25  22433545.275    22433544.375    22433548.046                    -9386709.762 8  -9386709.763 7                  -7314321.211 8       198.000          99.000         259.000                  
G28  21411203.424    21411203.135    21411203.560                   -18504343.793 8 -18504343.791 8                 -14418968.760 8       451.000         260.000         156.000                  
G31  23358859.006    23358859.122    23358859.586                    -6748509.020 8  -6748509.015 7                  -5258577.845 7       159.000          63.000          74.000                  
G32  21707051.325    21707051.147    21707053.884                   -17891635.864 8 -17891635.866 9                 -13941534.009 9       461.000         535.000         595.000                  
> 2024 10 31 05 17 10.0000000  0 11
G02  22980131.473    22980130.172    22980128.675                    -8632708.425 8  -8632708.428 7                  -6726784.027 8       320.000          83.000         119.000                  
G03  20517587.450    20517587.234    20517589.643                   -20296228.484 9 -20296228.486 9                 -15815240.512 9       578.000         847.000         722.000                  
G06  24414704.430    24414702.941    24414707.068                    -2525713.059 7  -2525713.053 6                  -1968090.669 6        83.000          30.000          49.000                  
G12  22139091.676    22139091.114    22139091.947                   -13821848.747 8 -13821848.746 8                 -10770272.206 8       234.000         133.000         327.000                  
G17  22820130.504    22820129.947    22820130.347                   -11755422.637 8 -11755422.641 8                  -9160068.438 8       240.000         125.000         287.000                  
G19  21881631.903    21881630.675    21881629.542                   -13608405.594 8 -13608405.592 7                 -10603954.354 8       312.000          95.000         112.000                  
G21  24470807.694    24470806.342    24470808.149                    -5408201.295 8  -5408201.282 6                  -4214181.591 6       153.000          25.000          26.000                  
G25  22364210.863    22364209.883    22364213.645                    -9751063.863 8  -9751063.864 8                  -7598233.454 8       212.000         108.000         283.000                  
G28  21396193.816    21396193.521    21396194.032                   -18583219.121 8 -18583219.118 8                 -14480430.052 8       460.000         269.000         153.000                  
G31  23371519.411    23371518.602    23371519.198                    -6681980.454 8  -6681980.451 7                  -5206737.432 7       162.000          64.000          71.000                  
G32  21666782.260    21666781.998    21666784.711                   -18103251.242 8 -18103251.243 9                 -14106429.104 9       453.000         522.000         555.000                  
> 2024 10 31 05 17 20.0000000  0 11
G02  23046329.232    23046328.260    23046327.484                    -8284834.977 8  -8284834.986 7                  -6455713.868 8       322.000          79.000         114.000                  
G03  20560520.046    20560519.996    20560522.447                   -20070615.551 9 -20070615.553 9                 -15639438.294 9       572.000         831.000         706.000                  
G06  24400708.115    24400706.123    24400710.389                    -2599266.067 7  -2599266.047 6                  -2025404.708 6        91.000          31.000          48.000                  
G12  22083261.107    22083260.209    22083260.877                   -14115243.352 8 -14115243.354 8                 -10998891.453 8       241.000         140.000         322.000                  
G17  22863549.574    22863549.271    22863549.708                   -11527253.517 8 -11527253.518 8                  -8982274.459 8       244.000         135.000         263.000                  
G19  21885807.106    21885805.419    21885804.590                   -13586465.171 8 -13586465.168 8                 -10586857.885 8       314.000         104.000         109.000                  
G21  24534757.919    24534756.357    24534758.051                    -5072140.742 8  -5072140.768 6                  -3952316.342 6       152.000          28.000          29.000                  
G25  22295213.461    22295212.736    22295216.481                   -10113646.914 8 -10113646.914 8                  -7880765.669 8       222.000         122.000         294.000                  
G28  21381727.913    21381727.654    21381728.063                   -18659238.410 8 -18659238.408 8                 -14539665.866 8       465.000         278.000         160.000                  
G31  23384450.104    23384449.777    23384450.364                    -6614028.639 8  -6614028.641 7                  -5153788.001 7       170.000          62.000          71.000                  
G32  21626958.396    21626958.052    21626960.943                   -18312526.821 8 -18312526.821 9                 -14269500.976 9       462.000         540.000         552.000                  
> 2024 10 31 05 17 30.0000000  0 11
G02  23112925.757    23112924.982    23112924.181                    -7934867.768 8  -7934867.767 7                  -6183012.211 8       316.000          81.000         103.000                  
G03  20604085.508    20604085.709    20604088.169                   -19841676.463 9 -19841676.463 9                 -15461044.255 9       566.000         816.000         644.000                  
G06  24387208.049    24387206.604    24387209.866                    -2670210.993 7  -2670210.975 6                  -2080686.435 6        98.000          28.000          49.000                  
G12  22028046.887    22028046.149    22028046.826                   -14405395.300 8 -14405395.304 8                 -11224983.941 8       248.000         157.000         306.000                  
G17  22907663.348    22907663.060    22907663.073                   -11295435.446 8 -11295435.447 8                  -8801637.070 8       248.000         137.000         242.000                  
G19  21890873.190    21890871.344    21890870.814                   -13559843.456 8 -13559843.457 8                 -10566113.707 8       319.000         109.000         108.000                  
G21  24598915.871    24598914.257    24598915.949                    -4734990.120 8  -4734990.130 6                  -3689601.684 6       151.000          30.000          26.000                  
G25  22226559.196    22226558.142    22226561.741                   -10474429.476 8 -10474429.477 8                  -8161894.905 8       231.000         132.000         283.000                  
G28  21367802.893    21367802.651    21367803.033                   -18732414.347 8 -18732414.344 8                 -14596686.085 8       467.000         272.000         153.000                  
G31  23397646.053    23397645.255    23397645.899                    -6544686.145 8  -6544686.139 7                  -5099754.915 7       172.000          68.000          65.000                  
G32  21587579.353    21587579.180    21587581.998                   -18519464.937 8 -18519464.938 9                 -14430751.456 9       491.000         596.000         522.000                  
> 2024 10 31 05 17 40.0000000  0 11
G02  23179912.094    23179911.020    23179910.144                    -7582853.135 8  -7582853.140 7                  -5908715.161 7       314.000          83.000          98.000                  
G03  20648280.043    20648279.836    20648282.274                   -19609434.896 9 -19609434.898 9                 -15280076.847 9       568.000         804.000         598.000                  
G06  24374210.011    24374209.254    24374212.523                    -2738510.224 8  -2738510.238 6                  -2133906.562 6       102.000          35.000          50.000                  
G12  21973463.401    21973462.929    21973463.666                   -14692232.048 8 -14692232.050 8                 -11448493.196 8       258.000         164.000         305.000                  
G17  22952464.423    22952464.305    22952464.617                   -11060002.172 8 -11060002.170 8                  -8618182.675 8       246.000         133.000         228.000                  
G19  21896831.837    21896830.085    21896830.100                   -13528529.726 8 -13528529.730 7                 -10541713.385 7       323.000         100.000          97.000                  
G21  24663274.395    24663272.222    24663274.498                    -4396785.971 8  -4396785.971 6                  -3426066.115 6       144.000          27.000          24.000                  
G25  22158261.823    22158260.793    22158264.441                   -10833334.179 8 -10833334.178 8                  -8441560.871 8       245.000         147.000         291.000                  
G28  21354425.800    21354425.271    21354425.852                   -18802712.325 8 -18802712.323 8                 -14651463.732 8       473.000         280.000         146.000                  
G31  23411108.599    23411108.188    23411108.919                    -6473938.080 8  -6473938.078 7                  -5044626.584 7       177.000          71.000          60.000                  
G32  21548653.774    21548653.584    21548656.211                   -18724020.412 9 -18724020.412 9                 -14590145.336 9       514.000         667.000         507.000                  
> 2024 10 31 05 17 50.0000000  0 11
G02  23247278.986    23247277.696    23247276.872                    -7228839.275 8  -7228839.273 7                  -5632860.275 7       312.000          79.000          99.000                  
G03  20693097.414    20693097.437    20693099.828                   -19373916.716 9 -19373916.716 9                 -15096556.161 9       560.000         804.000         585.000                  
G06  24361723.724    24361722.294    24361726.153                    -2804128.707 8  -2804128.723 6                  -2185037.783 7       108.000          40.000          59.000                  
G12  21919524.943    21919524.324    21919524.688                   -14975682.407 8 -14975682.409 8                 -11669363.487 8       271.000         172.000         313.000                  
G17  22997947.892    22997947.330    22997947.456                   -10820989.614 8 -10820989.618 8                  -8431939.330 8       245.000         134.000         230.000                  
G19  21903685.085    21903683.332    21903682.651                   -13492516.642 8 -13492516.648 7                 -10513651.221 7       314.000          97.000          96.000                  
G21  24727825.956    24727824.232    24727826.042                    -4057566.442 8  -4057566.462 6                  -3161739.323 6       144.000          32.000          21.000                  
G25  22090336.146    22090335.147    22090338.978                   -11190285.249 8 -11190285.248 8                  -8719704.535 8       256.000         159.000         319.000                  
G28  21341602.180    21341601.904    21341602.487                   -18870100.114 8 -18870100.111 8                 -14703973.700 8       479.000         292.000         159.000                  
G31  23424841.787    23424840.954    23424841.352                    -6401771.390 8  -6401771.376 7                  -4988392.829 7       179.000          71.000          65.000                  
G32  21510189.964    21510189.497    21510192.236                   -18926150.144 9 -18926150.144 9                 -14747649.011 9       526.000         697.000         527.000                  
> 2024 10 31 05 18  0.0000000  0 11
G02  23315007.817    23315006.600    23315005.400                    -6872921.643 8  -6872921.637 7                  -5355521.924 7       304.000          77.000          98.000                  
G03  20738524.358    20738524.481    20738526.775                   -19135196.150 9 -19135196.151 9                 -14910540.131 9       556.000         789.000         556.000                  
G06  24349744.230    24349743.739    24349747.309                    -2867079.586 8  -2867079.585 6                  -2234090.354 7       113.000          47.000          58.000                  
G12  21866234.455    21866233.967    21866234.286                   -15255724.337 8 -15255724.339 8                 -11887577.835 8       281.000         189.000         296.000                  
G17  23044095.146    23044095.038    23044095.161                   -10578481.746 8 -10578481.747 8                  -8242972.273 8       249.000         132.000         220.000                  
G19  21911424.475    21911422.888    21911421.640                   -13451845.799 8 -13451845.800 7                 -10481959.615 7       309.000          98.000          94.000                  
G21  24792553.182    24792553.088    24792554.412                    -3717417.128 8  -3717417.098 6                  -2896688.025 6       142.000          22.000          20.000                  
G25  22022787.483    22022786.762    22022790.563                   -11545254.407 8 -11545254.407 8                  -8996303.854 8       266.000         173.000         345.000                  
G28  21329329.303    21329329.264    21329329.741                   -18934593.660 8 -18934593.657 8                 -14754228.408 8       492.000         304.000         162.000                  
G31  23438837.406    23438837.290    23438837.597                    -6328221.030 8  -6328221.026 7                  -4931080.886 7       185.000          71.000          64.000                  
G32  21472186.330    21472186.158    21472188.857                   -19125859.016 9 -19125859.019 9                 -14903266.312 9       548.000         760.000         536.000                  
> 2024 10 31 05 18 10.0000000  0 11
G02  23383093.133    23383092.263    23383091.168                    -6515129.731 8  -6515129.737 7                  -5076723.093 7       295.000          71.000          98.000                  
G03  20784559.194    20784559.174    20784561.569                   -18893281.796 9 -18893281.797 9                 -14722035.469 9       548.000         779.000         549.000                  
G06  24338282.189    24338282.369    24338285.484                    -2927310.716 8  -2927310.713 6                  -2281023.664 7       122.000          50.000          58.000                  
G12  21813609.754    21813609.303    21813609.217                   -15532269.814 8 -15532269.815 8                 -12103067.720 8       288.000         202.000         315.000                  
G17  23090904.656    23090904.297    23090904.617                   -10332497.381 8 -10332497.385 8                  -8051296.183 8       256.000         143.000         225.000                  
G19  21920054.080    21920052.501    21920051.578                   -13406494.162 8 -13406494.167 7                 -10446620.637 7       315.000          99.000          98.000                  
G21  24857456.277    24857453.939    24857453.843                    -3376357.594 8  -3376357.614 6                  -2630927.468 6       140.000          26.000          24.000                  
G25  21955633.666    21955633.689    21955637.397                   -11898147.258 8 -11898147.259 8                  -9271285.277 8       274.000         181.000         384.000                  
G28  21317617.065    21317616.826    21317617.163                   -18996143.521 9 -18996143.517 8                 -14802189.346 8       507.000         326.000         180.000                  
G31  23453103.741    23453102.901    23453102.844                    -6253256.212 8  -6253256.213 7                  -4872666.774 7       184.000          79.000          64.000                  
G32  21434655.259    21434655.229    21434657.862                   -19323086.151 9 -19323086.154 9                 -15056949.787 9       581.000         846.000         579.000                  
> 2024 10 31 05 18 20.0000000  0 11
G02  23451517.906    23451516.395    23451516.226                    -6155556.379 8  -6155556.388 7                  -4796536.132 7       284.000          68.000          94.000                  
G03  20831187.922    20831187.903    20831190.368                   -18648246.087 9 -18648246.087 9                 -14531098.592 9       531.000         725.000         568.000                  
G06  24327335.960    24327335.663    24327338.766                    -2984834.175 8  -2984834.172 6                  -2325847.173 7       123.000          42.000          61.000                  
G12  21761654.432    21761654.116    21761654.358                   -15805294.824 8 -15805294.829 8                 -12315814.446 8       292.000         198.000         354.000                  
G17  23138359.874    23138359.055    23138359.682                   -10083119.344 8 -10083119.344 8                  -7856975.603 8       254.000         145.000         248.000                  
G19  21929567.269    21929565.571    21929564.950                   -13356503.773 8 -13356503.774 7                 -10407667.088 8       314.000          94.000         105.000                  
G21  24922515.077    24922513.509    24922514.462                    -3034470.497 8  -3034470.478 6                  -2364521.973 6       136.000          25.000          21.000                  
G25  21888882.211    21888881.250    21888885.144                   -12248932.745 8 -12248932.745 8                  -9544624.600 8       273.000         177.000         435.000                  
G28  21306461.684    21306461.610    21306461.942                   -19054764.266 9 -19054764.265 8                 -14847867.850 8       519.000         343.000         196.000                  
G31  23467631.700    23467630.762    23467631.126                    -6176909.965 8  -6176909.963 7                  -4813176.229 7       182.000          80.000          69.000                  
G32  21397596.010    21397595.856    21397598.396                   -19517834.531 9 -19517834.534 9                 -15208701.763 9       600.000         911.000         627.000                  
> 2024 10 31 05 18 30.0000000  0 11
G02  23520274.627    23520273.163    23520272.813                    -5794237.801 8  -5794237.801 7                  -4514989.254 7       274.000          59.000          94.000                  
G03  20878407.412    20878407.484    20878410.023                   -18400105.579 9 -18400105.581 9                 -14337742.413 9       511.000         670.000         595.000                  
G06  24316914.260    24316913.140    24316916.532                    -3039606.291 8  -3039606.302 7                  -2368526.836 7       129.000          55.000          62.000                  
G12  21710385.111    21710384.271    21710384.485                   -16074719.429 8 -16074719.433 8                 -12525755.641 8       295.000         214.000         381.000                  
G17  23186455.771    23186454.767    23186455.155                    -9830374.785 8  -9830374.789 8                  -7660031.731 8       252.000         139.000         257.000                  
G19  21939965.554    21939963.790    21939962.772                   -13301861.446 8 -13301861.444 7                 -10365088.670 8       317.000          94.000         105.000                  
G21  24987726.451    24987724.621    24987723.679                    -2691782.038 8  -2691782.029 6                  -2097492.146 6       129.000          22.000          17.000                  
G25  21822547.394    21822546.705    21822550.297                   -12597523.292 8 -12597523.291 8                  -9816253.581 8       273.000         174.000         460.000                  
G28  21295871.960    21295871.727    21295872.062                   -19110414.756 9 -19110414.755 8                 -14891231.881 8       531.000         346.000         222.000                  
G31  23482426.486    23482426.713    23482426.661                    -6099159.236 8  -6099159.236 7                  -4752591.282 7       186.000          78.000          70.000                  
G32  21361018.355    21361018.260    21361020.668                   -19710051.086 9 -19710051.088 9                 -15358480.893 9       628.000        1000.000         649.000                  
> 2024 10 31 05 18 40.0000000  0 11
G02  23589351.039    23589349.428    23589348.806                    -5431239.862 8  -5431239.859 7                  -4232133.796 7       264.000          60.000          94.000                  
G03  20926209.092    20926209.010    20926211.679                   -18148907.021 8 -18148907.022 9                 -14142003.382 9       492.000         620.000         640.000                  
G06  24307016.981    24307016.432    24307019.797                    -3091613.661 8  -3091613.676 6                  -2409052.131 7       131.000          50.000          61.000                  
G12  21659809.224    21659808.908    21659809.150                   -16340494.008 8 -16340494.007 8                 -12732852.672 8       301.000         225.000         432.000                  
G17  23235180.530    23235180.258    23235180.640                    -9574321.116 8  -9574321.122 8                  -7460509.296 8       260.000         144.000         285.000                  
G19  21951245.360    21951243.702    21951242.592                   -13242585.173 8 -13242585.177 7                 -10318899.411 8       318.000         100.000         116.000                  
G21  25053079.143    25053077.490    25053077.676                    -2348348.159 8  -2348348.151 6                  -1829881.514 6       122.000          28.000          25.000                  
G25  21756641.896    21756640.859    21756644.569                   -12943860.982 8 -12943860.981 8                 -10086127.080 8       278.000         194.000         480.000                  
G28  21285849.190    21285849.130    21285849.399                   -19163084.157 9 -19163084.155 8                 -14932272.997 8       538.000         372.000         234.000                  
G31  23497488.274    23497487.928    23497488.050                    -6020010.929 8  -6020010.930 7                  -4690917.302 7       183.000          73.000          76.000                  
G32  21324927.125    21324926.931    21324929.238                   -19899712.777 9 -19899712.778 9                 -15506269.221 9       661.000        1100.000         667.000                  
> 2024 10 31 05 18 50.0000000  0 11
G02  23658732.432    23658730.555    23658729.833                    -5066639.789 8  -5066639.784 7                  -3948029.928 7       256.000          55.000          89.000                  
G03  20974581.481    20974581.441    20974584.027                   -17894708.866 8 -17894708.867 9                 -13943926.965 9       467.000         564.000         639.000                  
G06  24297646.429    24297646.395    24297649.193                    -3140855.386 8  -3140855.384 7                  -2447422.407 7       135.000          54.000          66.000                  
G12  21609935.855    21609935.457    21609935.703                   -16602580.945 8 -16602580.947 8                 -12937076.237 8       311.000         232.000         441.000                  
G17  23284522.781    23284522.002    23284522.597                    -9315028.113 8  -9315028.115 8                  -7258462.773 8       263.000         149.000         299.000                  
G19  21963400.876    21963399.452    21963398.626                   -13178705.913 8 -13178705.917 7                 -10269123.453 8       311.000          95.000         120.000                  
G21  25118561.442    25118560.144    25118561.511                    -2004235.850 8  -2004235.844 6                  -1561742.182 6       119.000          27.000          18.000                  
G25  21691173.545    21691172.518    21691176.061                   -13287899.387 8 -13287899.389 8                 -10354208.941 8       283.000         199.000         492.000                  
G28  21276393.573    21276393.411    21276393.979                   -19212773.711 9 -19212773.709 8                 -14970992.130 8       543.000         374.000         230.000                  
G31  23512811.998    23512811.911    23512811.809                    -5939483.748 8  -5939483.755 7                  -4628168.880 7       183.000          79.000          70.000                  
G32  21289324.004    21289323.790    21289326.153                   -20086808.546 9 -20086808.547 9                 -15652058.134 9       690.000        1196.000         694.000                  
> 2024 10 31 05 19  0.0000000  0 11
G02  23728411.970    23728411.357    23728409.369                    -4700469.068 8  -4700469.071 6                  -3662702.183 7       248.000          49.000          80.000                  
G03  21023521.776    21023521.932    21023524.744                   -17637524.721 8 -17637524.721 9                 -13743523.800 9       448.000         510.000         639.000                  
G06  24288811.226    24288810.866    24288813.493                    -3187285.535 8  -3187285.533 7                  -2483601.785 7       133.000          58.000          58.000                  
G12  21560780.220    21560779.411    21560779.525                   -16860897.710 8 -16860897.711 8                 -13138361.971 8       318.000         246.000         460.000                  
G17  23334476.439    23334475.943    23334476.166                    -9052520.100 8  -9052520.097 8                  -7053911.104 8       264.000         162.000         308.000                  
G19  21976435.424    21976433.978    21976433.352                   -13110210.145 8 -13110210.147 8                 -10215750.169 8       307.000         101.000         117.000                  
G21  25184169.033    25184168.906    25184169.425                    -1659466.431 8  -1659466.423 6                  -1293090.827 6       111.000          25.000          18.000                  
G25  21626159.891    21626159.178    21626162.782                   -13629546.478 8 -13629546.476 8                 -10620427.434 9       277.000         186.000         503.000                  
G28  21267513.237    21267513.128    21267513.364                   -19259439.916 9 -19259439.912 8                 -15007355.417 8       549.000         377.000         233.000                  
G31  23528403.830    23528403.384    23528403.485                    -5857551.270 8  -5857551.268 7                  -4564325.424 7       181.000          74.000          64.000                  
G32  21254219.996    21254219.621    21254221.981                   -20271282.138 9 -20271282.139 9                 -15795803.786 9       716.000        1288.000         740.000                  
> 2024 10 31 05 19 10.0000000  0 11
G02  23798373.234    23798371.718    23798370.487                    -4332822.739 8  -4332822.746 7                  -3376224.606 7       237.000          51.000          85.000                  
G03  21073015.791    21073015.882    21073018.677                   -17377432.207 8 -17377432.209 8                 -13540854.357 9       431.000         482.000         666.000                  
G06  24280507.384    24280507.137    24280509.397                    -3230922.595 8  -3230922.594 7                  -2517604.547 7       128.000          51.000          55.000                  
G12  21512344.762    21512344.136    21512344.252                   -17115426.307 8 -17115426.308 8                 -13336695.934 9       335.000         270.000         507.000                  
G17  23385025.095    23385024.425    23385024.712                    -8786885.757 8  -8786885.757 8                  -6846923.329 8       266.000         158.000         328.000                  
G19  21990338.430    21990336.936    21990336.441                   -13037149.830 8 -13037149.832 7                 -10158820.125 8       306.000          93.000         127.000                  
G21  25249886.585    25249884.953    25249886.007                    -1314124.946 8  -1314124.945 6                  -1023993.766 6       108.000          30.000          18.000                  
G25  21561606.609    21561606.160    21561609.882                   -13968773.938 8 -13968773.940 8                 -10884760.492 9       257.000         164.000         540.000                  
G28  21259204.503    21259204.353    21259204.653                   -19303103.542 9 -19303103.537 8                 -15041379.024 8       552.000         389.000         249.000                  
G31  23544255.079    23544254.732    23544254.611                    -5774251.110 8  -5774251.114 7                  -4499416.245 7       181.000          72.000          74.000                  
G32  21219613.382    21219613.069    21219615.339                   -20453141.419 9 -20453141.420 9                 -15937512.311 9       751.000        1410.000         788.000                  
> 2024 10 31 05 19 20.0000000  0 11
G02  23868609.382    23868608.285    23868607.252                    -3963727.819 8  -3963727.804 6                  -3088618.281 7       225.000          42.000          76.000                  
G03  21123061.595    21123061.505    21123064.335                   -17114441.441 8 -17114441.441 8                 -13335926.545 9       422.000         455.000         698.000                  
G06  24272743.816    24272743.493    24272746.573                    -3271718.515 8  -3271718.523 6                  -2549393.487 7       129.000          47.000          56.000                  
G12  21464646.791    21464646.207    21464646.341                   -17366081.118 8 -17366081.119 8                 -13532011.360 9       345.000         294.000         556.000                  
G17  23436164.349    23436163.908    23436164.035                    -8518146.454 8  -8518146.459 8                  -6637516.166 8       263.000         147.000         329.000                  
G19  22005112.816    22005110.985    22005110.379                   -12959509.710 8 -12959509.710 7                 -10098321.236 8       304.000          88.000         141.000                  
G21  25315708.142    25315707.182    25315707.883                     -968228.247 8   -968228.254 6                   -754464.022 6       101.000          23.000          18.000                  
G25  21497532.887    21497532.113    21497535.800                   -14305485.426 8 -14305485.428 8                 -11147133.039 9       246.000         154.000         549.000                  
G28  21251475.711    21251475.486    21251475.842                   -19343718.040 9 -19343718.037 8                 -15073026.674 8       557.000         389.000         266.000                  
G31  23560372.388    23560372.478    23560372.347                    -5689553.038 8  -5689553.039 7                  -4433417.762 7       179.000          73.000          75.000                  
G32  21185515.471    21185515.323    21185517.449                   -20632326.694 9 -20632326.696 9                 -16077137.198 9       760.000        1444.000         831.000                  
> 2024 10 31 05 19 30.0000000  0 11
G02  23939105.024    23939103.533    23939102.366                    -3593272.497 8  -3593272.506 6                  -2799951.884 7       228.000          45.000          72.000                  
G03  21173644.973    21173644.955    21173647.690                   -16848624.306 8 -16848624.306 8                 -13128796.356 9       417.000         446.000         732.000                  
G06  24265518.201    24265518.372    24265521.359                    -3309687.285 8  -3309687.275 6                  -2578979.612 7       121.000          41.000          56.000                  
G12  21417690.069    21417689.556    21417689.843                   -17612838.977 8 -17612838.976 8                 -13724290.197 9       374.000         334.000         611.000                  
G17  23487878.949    23487878.327    23487878.683                    -8246385.231 8  -8246385.234 8                  -6425754.206 8       257.000         142.000         340.000                  
G19  22020749.492    22020747.848    22020747.502                   -12877338.258 8 -12877338.267 7                 -10034291.486 8       301.000          78.000         152.000                  
G21  25381619.407    25381620.225    25381621.449                     -621854.401 7   -621854.381 6                   -484562.436 6        95.000          20.000          22.000                  
G25  21433943.903    21433943.320    21433946.915                   -14639646.243 8 -14639646.246 8                 -11407518.057 9       243.000         145.000         560.000                  
G28  21244324.237    21244324.159    21244324.589                   -19381299.100 9 -19381299.096 8                 -15102310.606 8       563.000         395.000         289.000                  
G31  23576749.518    23576749.595    23576749.640                    -5603488.903 8  -5603488.909 7                  -4366354.826 7       175.000          68.000          76.000                  
G32  21151926.014    21151925.747    21151928.009                   -20808840.248 9 -20808840.250 9                 -16214680.226 9       725.000        1321.000         920.000                  
> 2024 10 31 05 19 40.0000000  0 11
G02  24009850.736    24009849.513    24009848.640                    -3221500.438 8  -3221500.437 6                  -2510259.451 7       225.000          43.000          64.000                  
G03  21224760.640    21224760.811    21224763.609                   -16580008.706 8 -16580008.707 8                 -12919485.568 9       407.000         433.000         745.000                  
G06  24258838.234    24258836.935    24258840.036                    -3344798.951 8  -3344798.940 6                  -2606339.543 7       117.000          46.000          54.000                  
G12  21371488.161    21371487.657    21371487.614                   -17855632.879 8 -17855632.883 8                 -13913480.246 9       411.000         404.000         633.000                  
G17  23540160.970    23540160.434    23540160.600                    -7971641.118 8  -7971641.122 8                  -6211667.834 8       247.000         130.000         342.000                  
G19  22037247.312    22037245.681    22037245.185                   -12790640.270 8 -12790640.264 7                  -9966734.558 8       297.000          85.000         158.000                  
G21  25447617.648    25447617.158    25447617.680                     -275036.890 7   -275036.884 6                   -214315.225 6        97.000          21.000          21.000                  
G25  21370855.909    21370855.096    21370858.522                   -14971177.049 8 -14971177.052 8                 -11665853.713 9       253.000         160.000         566.000                  
G28  21237755.850    21237755.416    21237755.494                   -19415818.610 9 -19415818.607 8                 -15129208.925 8       557.000         396.000         297.000                  
G31  23593389.539    23593389.284    23593389.395                    -5516046.366 8  -5516046.375 7                  -4298217.820 7       167.000          66.000          80.000                  
G32  21118852.724    21118852.494    21118855.036                   -20982640.272 9 -20982640.273 9                 -16350108.807 9       701.000        1236.000        1068.000                  
> 2024 10 31 05 19 50.0000000  0 11
G02  24080839.129    24080837.245    24080836.219                    -2848456.278 8  -2848456.287 6                  -2219575.783 7       222.000          44.000          62.000                  
G03  21276403.863    21276403.630    21276406.333                   -16308623.959 8 -16308623.960 8                 -12708017.008 9       400.000         402.000         732.000                  
G06  24252705.326    24252704.637    24252708.114                    -3377025.292 8  -3377025.292 6                  -2631451.154 7       114.000          45.000          59.000                  
G12  21326052.672    21326052.300    21326052.006                   -18094397.655 8 -18094397.658 8                 -14099530.709 9       434.000         453.000         681.000                  
G17  23593002.517    23593001.864    23593002.566                    -7693955.120 8  -7693955.121 8                  -5995289.080 8       241.000         126.000         350.000                  
G19  22054605.199    22054603.824    22054603.353                   -12699423.150 8 -12699423.151 7                  -9895656.265 8       285.000          79.000         179.000                  
G21  25513693.783    25513691.749    25513694.120                       72189.714 7     72189.714 6                     56250.856 6        85.000          22.000          19.000                  
G25  21308282.603    21308282.172    21308285.649                   -15299999.888 8 -15299999.889 8                 -11922079.274 9       258.000         171.000         599.000                  
G28  21231774.412    21231774.117    21231774.200                   -19447250.286 9 -19447250.282 8                 -15153701.143 8       548.000         376.000         312.000                  
G31  23610294.148    23610293.348    23610293.066                    -5427214.412 8  -5427214.412 7                  -4228998.132 7       162.000          62.000          83.000                  
G32  21086303.843    21086303.526    21086305.976                   -21153686.609 9 -21153686.610 9                 -16483391.659 9       709.000        1256.000        1247.000                  
> 2024 10 31 05 20  0.0000000  0 11
G02  24152051.948    24152050.278    24152049.193                    -2474231.843 8  -2474231.830 6                  -1927972.408 7       220.000          43.000          62.000                  
G03  21328558.823    21328558.828    21328561.506                   -16034547.141 8 -16034547.141 8                 -12494450.718 9       382.000         374.000         686.000                  
G06  24247117.206    24247116.672    24247119.969                    -3406385.813 8  -3406385.808 6                  -2654329.289 7       111.000          42.000          60.000                  
G12  21281387.263    21281386.818    21281386.661                   -18329116.240 8 -18329116.241 8                 -14282428.289 9       455.000         488.000         694.000                  
G17  23646387.352    23646386.991    23646387.151                    -7413415.718 8  -7413415.715 8                  -5776686.833 8       239.000         123.000         324.000                  
G19  22072812.519    22072810.884    22072810.603                   -12603742.998 8 -12603742.993 7                  -9821100.310 8       283.000          77.000         168.000                  
G21  25579829.635    25579829.512    25579830.249                      419743.764 7    419743.755 6                    327071.989 6        80.000          26.000          22.000                  
G25  21246231.028    21246230.112    21246233.907                   -15626084.217 8 -15626084.218 8                 -12176170.925 9       264.000         172.000         628.000                  
G28  21226376.310    21226376.307    21226376.522                   -19475615.940 9 -19475615.937 8                 -15175804.250 8       547.000         381.000         314.000                  
G31  23627455.218    23627454.871    23627455.114                    -5337029.806 8  -5337029.803 7                  -4158724.432 7       160.000          53.000          76.000                  
G32  21054277.212    21054277.019    21054279.466                   -21321986.990 9 -21321986.992 9                 -16614534.810 9       710.000        1264.000        1337.000                  
> 2024 10 31 05 20 10.0000000  0 11
G02  24223482.948    24223483.111    24223481.552                    -2098851.691 8  -2098851.694 6                  -1635468.489 7       211.000          38.000          58.000                  
G03  21381224.160    21381224.361    21381226.951                   -15757788.577 8 -15757788.579 8                 -12278794.731 9       369.000         339.000         631.000                  
G06  24242085.190    24242083.812    24242087.317                    -3432835.672 8  -3432835.668 6                  -2674939.539 7       110.000          41.000          69.000                  
G12  21237507.360    21237507.260    21237506.754                   -18559705.698 8 -18559705.700 9                 -14462108.362 9       474.000         534.000         708.000                  
G17  23700311.223    23700310.416    23700310.683                    -7130045.204 8  -7130045.204 8                  -5555878.598 8       237.000         122.000         296.000                  
G19  22091871.259    22091869.782    22091869.058                   -12503590.130 8 -12503590.123 7                  -9743059.154 8       279.000          80.000         166.000                  
G21  25646027.654    25646026.427    25646027.671                      767610.768 7    767610.758 6                    598136.967 6        79.000          23.000          22.000                  
G25  21184719.098    21184718.071    21184721.752                   -15949332.536 8 -15949332.537 8                 -12428052.710 9       280.000         194.000         668.000                  
G28  21221570.572    21221570.428    21221570.617                   -19500871.069 9 -19500871.067 8                 -15195483.590 8       546.000         370.000         300.000                  
G31  23644879.994    23644879.691    23644879.766                    -5245462.622 8  -5245462.622 7                  -4087373.398 7       157.000          60.000          85.000                  
G32  21022784.573    21022784.231    21022786.747                   -21487482.479 9 -21487482.480 9                 -16743492.326 9       713.000        1279.000        1380.000                  
> 2024 10 31 05 20 20.0000000  0 11
G02  24295120.265    24295118.366    24295117.262                    -1722404.365 8  -1722404.360 6                  -1342132.976 7       194.000          33.000          57.000                  
G03  21434385.923    21434385.673    21434388.456                   -15478423.076 8 -15478423.077 8                 -12061107.367 9       340.000         300.000         619.000                  
G06  24237600.875    24237600.565    24237604.642                    -3456393.699 8  -3456393.699 6                  -2693296.546 7       108.000          43.000          67.000                  
G12  21194417.131    21194416.694    21194416.268                   -18786147.890 8 -18786147.892 9                 -14638556.810 9       490.000         571.000         733.000                  
G17  23754756.978    23754756.294    23754756.769                    -6843930.163 8  -6843930.166 8                  -5332931.843 8       231.000         116.000         287.000                  
G19  22111770.094    22111768.703    22111767.895                   -12399020.322 8 -12399020.326 7                  -9661576.307 8       282.000          85.000         160.000                  
G21  25712269.858    25712267.876    25712268.755                     1115712.245 7   1115712.280 6                    869384.775 6        75.000          21.000          20.000                  
G25  21123753.168    21123751.995    21123755.745                   -16269711.513 8 -16269711.514 8                 -12677698.635 9       301.000         220.000         692.000                  
G28  21217352.663    21217352.572    21217352.781                   -19523035.871 9 -19523035.868 8                 -15212754.867 8       547.000         368.000         303.000                  
G31  23662561.126    23662560.574    23662561.197                    -5152547.353 8  -5152547.350 6                  -4014971.922 7       156.000          49.000          87.000                  
G32  20991824.512    20991824.260    20991826.625                   -21650178.769 9 -21650178.770 9                 -16870268.648 9       721.000        1305.000        1475.000                  
> 2024 10 31 05 20 30.0000000  0 11
G02  24366953.262    24366951.312    24366950.989                    -1344918.265 8  -1344918.277 6                  -1047988.065 6       178.000          35.000          49.000                  
G03  21488040.198    21488040.443    21488043.093                   -15196466.016 8 -15196466.016 8                 -11841400.602 9       312.000         254.000         605.000                  
G06  24233676.516    24233676.019    24233679.277                    -3477019.435 8  -3477019.437 6                  -2709368.530 7       113.000          40.000          73.000                  
G12  21152130.309    21152130.102    21152129.591                   -19008365.650 9 -19008365.651 9                 -14811713.492 9       502.000         602.000         769.000                  
G17  23809719.517    23809719.404    23809719.654                    -6555097.450 8  -6555097.455 8                  -5107867.347 8       227.000         110.000         272.000                  
G19  22132510.541    22132508.793    22132507.914                   -12290030.592 8 -12290030.594 7                  -9576649.265 8       285.000          81.000         161.000                  
G21  25778551.043    25778549.900    25778552.542                     1464029.759 7   1464029.795 6                   1140800.823 6        75.000          20.000          14.000                  
G25  21063350.514    21063349.874    21063353.301                   -16587128.289 8 -16587128.291 8                 -12925036.356 9       316.000         245.000         706.000                  
G28  21213730.569    21213730.092    21213730.115                   -19542071.635 9 -19542071.632 8                 -15227587.920 8       545.000         376.000         302.000                  
G31  23680503.462    23680503.501    23680503.371                    -5058259.098 8  -5058259.096 7                  -3941500.587 7       155.000          57.000          85.000                  
G32  20961407.178    20961406.902    20961409.401                   -21810022.369 9 -21810022.370 9                 -16994822.101 9       722.000        1312.000        1528.000                  
> 2024 10 31 05 20 40.0000000  0 11
G02  24438968.797    24438967.588    24438967.167                     -966470.216 8   -966470.210 6                   -753093.584 6       164.000          31.000          49.000                  
G03  21542175.766    21542175.818    21542178.687                   -14911981.412 8 -14911981.415 8                 -11619724.310 9       287.000         220.000         573.000                  
G06  24230308.483    24230307.567    24230310.853                    -3494722.523 8  -3494722.497 6                  -2723163.176 7       109.000          39.000          62.000                  
G12  21110652.953    21110652.555    21110652.179                   -19226331.148 9 -19226331.150 9                 -14981556.717 9       521.000         652.000         794.000                  
G17  23865185.535    23865185.010    23865185.388                    -6263623.264 8  -6263623.269 8                  -4880744.596 8       219.000         108.000         255.000                  
G19  22154082.353    22154080.869    22154080.366                   -12176667.939 8 -12176667.942 7                  -9488314.716 8       292.000          84.000         143.000                  
G21  25844862.878    25844861.442    25844868.118                     1812496.471 7   1812496.493 6                   1412334.096 6        70.000          22.000          21.000                  
G25  21003520.431    21003519.452    21003523.029                   -16901538.584 8 -16901538.586 8                 -13170031.366 9       336.000         273.000         712.000                  
G28  21210701.596    21210701.247    21210701.275                   -19557988.833 9 -19557988.830 8                 -15239990.941 8       545.000         381.000         292.000                  
G31  23698702.923    23698702.308    23698702.641                    -4962621.752 8  -4962621.774 7                  -3866978.002 7       155.000          52.000          85.000                  
G32  20931533.839    20931533.439    20931535.890                   -21967008.639 9 -21967008.640 9                 -17117149.056 9       730.000        1348.000        1552.000                  
> 2024 10 31 05 20 50.0000000  0 11
G02  24511160.427    24511158.947    24511158.141                     -587104.609 8   -587104.625 6                   -457484.102 6       151.000          27.000          45.000                  
G03  21596786.544    21596786.372    21596789.034                   -14625001.458 8 -14625001.459 8                 -11396103.587 9       269.000         179.000         554.000                  
G06  24227499.382    24227498.390    24227503.077                    -3509480.741 8  -3509480.747 6                  -2734663.130 7       113.000          45.000          74.000                  
G12  21069996.005    21069995.528    21069995.190                   -19439985.489 9 -19439985.491 9                 -15148040.611 9       540.000         696.000         851.000                  
G17  23921145.612    23921145.280    23921145.286                    -5969551.459 8  -5969551.464 7                  -4651597.721 8       214.000          98.000         237.000                  
G19  22176483.847    22176482.397    22176481.443                   -12058948.398 8 -12058948.396 7                  -9396585.203 8       290.000          90.000         145.000                  
G21  25911195.914    25911194.406    25911197.431                     2161077.965 7   2161077.949 6                   1683963.882 6        65.000          20.000          18.000                  
G25  20944276.928    20944275.923    20944279.417                   -17212866.033 8 -17212866.034 8                 -13412624.162 9       360.000         315.000         777.000                  
G28  21208270.010    21208269.671    21208269.709                   -19570766.359 9 -19570766.356 8                 -15249947.453 8       548.000         372.000         297.000                  
G31  23717160.476    23717159.835    23717160.170                    -4865627.323 8  -4865627.329 7                  -3791397.974 7       151.000          61.000          90.000                  
G32  20902210.983    20902210.612    20902213.114                   -22121101.278 9 -22121101.280 9                 -17237221.234 9       742.000        1378.000        1666.000                  
> 2024 10 31 05 21  0.0000000  0 11
G02  24583514.774    24583513.972    24583514.216                     -206877.491 8   -206877.498 6                   -161203.319 6       147.000          27.000          34.000                  
G03  21651863.263    21651863.495    21651866.037                   -14335570.364 8 -14335570.364 8                 -11170572.866 9       254.000         165.000         529.000                  
G06  24225251.666    24225253.032    24225256.194                    -3521285.076 8  -3521285.069 6                  -2743861.562 7       114.000          42.000          74.000                  
G12  21030168.340    21030167.630    21030167.256                   -19649282.322 9 -19649282.323 9                 -15311129.035 9       556.000         739.000         867.000                  
G17  23977589.952    23977588.926    23977588.518                    -5672938.441 8  -5672938.446 7                  -4420470.734 8       211.000          98.000         223.000                  
G19  22199708.701    22199707.028    22199706.492                   -11936901.104 8 -11936901.105 7                  -9301483.422 8       291.000          89.000         145.000                  
G21  25977543.929    25977540.482    25977543.062                     2509728.244 7   2509728.257 6                   1955639.241 6        62.000          23.000          14.000                  
G25  20885632.046    20885631.250    20885634.743                   -17521046.367 8 -17521046.367 8                 -13652764.664 9       377.000         346.000         799.000                  
G28  21206437.549    21206437.306    21206437.497                   -19580395.754 9 -19580395.750 8                 -15257450.884 8       547.000         372.000         310.000                  
G31  23735875.105    23735874.945    23735875.078                    -4767279.903 8  -4767279.902 7                  -3714763.650 7       153.000          60.000          86.000                  
G32  20873443.124    20873442.891    20873445.443                   -22272276.368 9 -22272276.370 9                 -17355019.988 9       742.000        1396.000        1747.000                  
> 2024 10 31 05 21 10.0000000  0 11
G02  24656020.555    24656019.686    24656017.950                      174140.163 8    174140.163 6                    135693.436 6       135.000          28.000          40.000                  
G03  21707395.319    21707395.513    21707398.220                   -14043747.825 8 -14043747.826 8                 -10943178.688 9       239.000         154.000         527.000                  
G06  24223568.511    24223567.875    24223571.037                    -3530141.249 8  -3530141.267 7                  -2750762.438 7       117.000          51.000          73.000                  
G12  20991175.255    20991174.629    20991174.443                   -19854191.524 9 -19854191.526 9                 -15470798.538 9       572.000         778.000         906.000                  
G17  24034503.398    24034502.239    24034501.859                    -5373855.772 8  -5373855.775 7                  -4187419.320 8       206.000          90.000         215.000                  
G19  22223748.608    22223746.924    22223746.348                   -11810571.411 8 -11810571.414 7                  -9203044.721 8       289.000          83.000         140.000                  
G21  26043891.014    26043888.539    26043891.254                     2858386.253 7   2858386.249 6                   2227317.845 6        59.000          23.000          16.000                  
G25  20827595.502    20827594.411    20827598.080                   -17826030.693 8 -17826030.693 8                 -13890414.769 9       378.000         350.000         799.000                  
G28  21205202.863    21205202.473    21205202.668                   -19586884.437 9 -19586884.433 8                 -15262507.009 8       540.000         366.000         314.000                  
G31  23754844.589    23754843.659    23754843.937                    -4667599.204 8  -4667599.204 7                  -3637090.409 7       151.000          56.000          91.000                  
G32  20845232.250    20845232.037    20845234.494                   -22420525.700 9 -22420525.701 9                 -17470538.930 9       776.000        1522.000        1810.000                  
> 2024 10 31 05 21 20.0000000  0 11
G02  24728671.714    24728670.273    24728669.295                      555921.935 8    555921.930 6                    433185.616 6       135.000          25.000          31.000                  
G03  21763379.554    21763379.578    21763382.365                   -13749549.362 8 -13749549.358 8                 -10713933.120 9       229.000         131.000         541.000                  
G06  24222451.220    24222449.965    24222453.909                    -3536013.043 8  -3536013.041 7                  -2755337.906 7       124.000          55.000          69.000                  
G12  20953031.101    20953030.629    20953030.460                   -20054639.795 9 -20054639.797 9                 -15626991.982 9       579.000         794.000         962.000                  
G17  24091880.901    24091880.421    24091880.772                    -5072331.214 8  -5072331.217 7                  -3952465.174 8       198.000          89.000         203.000                  
G19  22248603.065    22248601.242    22248600.608                   -11679961.484 8 -11679961.487 7                  -9101270.782 8       291.000          76.000         143.000                  
G21  26110234.950    26110234.727    26110235.020                     3207035.526 7   3207035.511 6                   2498993.616 6        54.000          21.000          21.000                  
G25  20770184.455    20770183.703    20770187.237                   -18127726.009 8 -18127726.010 8                 -14125502.012 9       395.000         379.000         769.000                  
G28  21204572.702    21204572.311    21204572.498                   -19590196.206 9 -19590196.202 8                 -15265087.609 8       545.000         373.000         310.000                  
G31  23774070.839    23774070.588    23774071.249                    -4566560.888 8  -4566560.881 7                  -3558359.286 7       148.000          56.000          86.000                  
G32  20817588.363    20817587.983    20817590.213                   -22565797.222 9 -22565797.223 9                 -17583737.501 9       839.000        1757.000        1870.000                  
> 2024 10 31 05 21 30.0000000  0 11
G02  24801450.486    24801449.593    24801447.688                      938378.464 8    938378.483 6                    731203.605 6       128.000          26.000          28.000                  
G03  21819800.385    21819800.650    21819803.707                   -13453053.990 8 -13453053.992 8                 -10482897.770 9       224.000         131.000         552.000                  
G06  24221895.678    24221895.825    24221898.891                    -3538927.242 8  -3538927.234 7                  -2757608.656 7       129.000          53.000          72.000                  
G12  20915737.639    20915737.183    20915737.023                   -20250617.928 9 -20250617.930 9                 -15779702.204 9       588.000         828.000         977.000                  
G17  24149706.099    24149705.965    24149706.333                    -4768455.740 8  -4768455.745 7                  -3715679.155 8       187.000          84.000         198.000                  
G19  22274259.008    22274257.211    22274256.502                   -11545138.085 8 -11545138.085 7                  -8996213.640 8       281.000          78.000         148.000                  
G21  26176567.787    26176563.415    26176566.376                     3555596.970 6   3555596.947 6                   2770608.818 6        46.000          22.000          19.000                  
G25  20713405.521    20713404.458    20713407.944                   -18426102.770 8 -18426102.770 8                 -14358003.368 9       426.000         437.000         751.000                  
G28  21204541.739    21204541.466    21204541.426                   -19590358.814 9 -19590358.811 8                 -15265214.330 8       550.000         379.000         298.000                  
G31  23793549.487    23793547.861    23793548.699                    -4464204.161 8  -4464204.158 7                  -3478600.842 7       149.000          54.000          88.000                  
G32  20790508.445    20790508.152    20790510.454                   -22708102.650 9 -22708102.651 9                 -17694624.844 9       846.000        1790.000        1946.000                  
> 2024 10 31 05 21 40.0000000  0 10
G02  24874353.348    24874351.227    24874351.059                     1321484.814 8   1321484.818 6                   1029727.932 6       123.000          26.000          26.000                  
G03  21876656.059    21876655.968    21876659.112                   -13154276.665 8 -13154276.661 8                 -10250084.271 9       215.000         126.000         540.000                  
G06  24221911.785    24221910.852    24221914.205                    -3538847.949 8  -3538847.943 7                  -2757546.899 7       135.000          52.000          75.000                  
G12  20879308.780    20879308.245    20879307.989                   -20442053.473 9 -20442053.475 9                 -15928872.745 9       593.000         838.000         971.000                  
G17  24207974.697    24207973.796    24207974.417                    -4462256.478 8  -4462256.469 7                  -3477082.399 8       181.000          79.000         197.000                  
G19  22300716.411    22300714.280    22300713.791                   -11406104.563 8 -11406104.559 7                  -8887875.843 8       275.000          77.000         150.000                  
G25  20657275.479    20657274.467    20657277.980                   -18721067.499 8 -18721067.502 9                 -14587846.003 9       453.000         508.000         732.000                  
G28  21205116.907    21205116.664    21205116.684                   -19587336.486 9 -19587336.482 8                 -15262859.276 8       550.000         378.000         298.000                  
G31  23813282.076    23813282.072    23813282.156                    -4360504.221 8  -4360504.214 6                  -3397795.729 7       144.000          50.000          86.000                  
G32  20764002.628    20764002.472    20764004.992                   -22847390.011 9 -22847390.012 9                 -17803160.439 9       820.000        1695.000        2061.000                  
> 2024 10 31 05 21 50.0000000  0 10
G02  24947368.599    24947365.669    24947365.878                     1705177.761 8   1705177.765 6                   1328709.348 6       118.000          24.000          27.000                  
G03  21933935.514    21933935.261    21933938.698                   -12853271.081 8 -12853271.084 8                 -10015534.471 9       210.000         117.000         501.000                  
G06  24222495.677    24222495.283    24222498.555                    -3535778.355 8  -3535778.361 7                  -2755155.080 7       133.000          59.000          79.000                  
G12  20843750.117    20843749.893    20843749.625                   -20628913.769 9 -20628913.770 9                 -16074478.161 9       603.000         857.000         976.000                  
G17  24266672.586    24266671.405    24266671.648                    -4153799.391 8  -4153799.386 7                  -3236726.327 8       172.000          70.000         192.000                  
G19  22327966.036    22327964.669    22327963.812                   -11262904.314 8 -11262904.307 7                  -8776291.285 8       278.000          70.000         155.000                  
G25  20601804.780    20601804.339    20601807.633                   -19012565.605 8 -19012565.607 9                 -14814987.364 9       469.000         533.000         729.000                  
G28  21206297.439    21206297.121    21206297.259                   -19581132.806 9 -19581132.803 8                 -15258025.239 8       548.000         373.000         303.000                  
G31  23833268.131    23833268.208    23833268.389                    -4255475.344 8  -4255475.341 6                  -3315955.095 7       143.000          48.000          82.000                  
G32  20738074.087    20738073.693    20738076.265                   -22983646.477 9 -22983646.478 9                 -17909334.296 9       814.000        1658.000        2121.000                  
> 2024 10 31 05 22  0.0000000  0 10
G02  25020481.698    25020479.871    25020478.397                     2089391.180 8   2089391.161 6                   1628096.276 6       110.000          20.000          30.000                  
G03  21991628.873    21991627.857    21991631.106                   -12550094.236 8 -12550094.243 8                  -9779292.788 8       207.000         112.000         475.000                  
G06  24223648.449    24223646.883    24223650.565                    -3529725.327 8  -3529725.330 6                  -2750438.460 7       132.000          45.000          79.000                  
G12  20809068.085    20809067.661    20809067.423                   -20811170.179 9 -20811170.181 9                 -16216496.131 9       614.000         896.000         990.000                  
G17  24325786.413    24325785.522    24325785.821                    -3843153.505 8  -3843153.518 7                  -2994664.641 8       168.000          59.000         192.000                  
G19  22356000.399    22355998.281    22355998.174                   -11115584.517 8 -11115584.514 7                  -8661496.676 8       265.000          72.000         155.000                  
G25  20547004.311    20547003.357    20547006.606                   -19300545.934 8 -19300545.936 9                 -15039387.607 9       490.000         584.000         712.000                  
G28  21208081.857    21208081.724    21208081.920                   -19571755.140 9 -19571755.138 8                 -15250717.965 8       539.000         352.000         309.000                  
G31  23853504.307    23853503.937    23853504.827                    -4149134.937 8  -4149134.937 7                  -3233092.476 7       144.000          51.000          89.000                  
G32  20712723.707    20712723.448    20712725.998                   -23116862.846 9 -23116862.847 9                 -18013139.249 9       810.000        1634.000        2062.000                  
> 2024 10 31 05 22 10.0000000  0 10
G02  25093689.736    25093686.957    25093688.593                     2474100.162 8   2474100.156 6                   1927869.387 6       104.000          24.000          22.000                  
G03  22049730.437    22049731.223    22049733.950                   -12244762.323 8 -12244762.319 8                  -9541371.830 8       205.000         110.000         462.000                  
G06  24225373.958    24225372.909    24225376.064                    -3520655.863 8  -3520655.877 7                  -2743371.307 7       125.000          53.000          73.000                  
G12  20775274.880    20775274.510    20775274.310                   -20988754.366 9 -20988754.368 9                 -16354873.409 9       631.000         935.000        1033.000                  
G17  24385310.043    24385310.661    24385310.884                    -3530347.460 8  -3530347.461 7                  -2750919.729 8       160.000          58.000         183.000                  
G19  22384817.001    22384815.109    22384814.767                   -10964152.789 8 -10964152.788 7                  -8543497.958 8       265.000          68.000         157.000                  
G25  20492890.299    20492889.632    20492892.617                   -19584916.690 9 -19584916.690 9                 -15260975.190 9       515.000         648.000         749.000                  
G28  21210476.740    21210476.409    21210476.661                   -19559170.719 9 -19559170.717 8                 -15240911.937 8       526.000         348.000         297.000                  
G31  23873994.563    23873993.982    23873994.709                    -4041460.029 8  -4041460.036 6                  -3149189.982 7       141.000          46.000          80.000                  
G32  20687961.332    20687961.140    20687963.645                   -23246989.609 9 -23246989.610 9                 -18114536.726 9       811.000        1655.000        2057.000                  
> 2024 10 31 05 22 20.0000000  0 11
G02  25166975.209    25166972.158    25166973.415                     2859217.867 7   2859217.875 6                   2227960.960 6        93.000          19.000          25.000                  
G03  22108229.374    22108228.908    22108231.724                   -11937353.880 8 -11937353.884 8                  -9301832.826 8       206.000         105.000         436.000                  
G06  24227666.732    24227666.779    24227670.510                    -3508599.996 8  -3508600.001 6                  -2733977.036 7       121.000          48.000          78.000                  
G12  20742371.978    20742371.361    20742371.277                   -21161661.249 9 -21161661.251 9                 -16489606.027 9       643.000         986.000        1076.000                  
G17  24445229.856    24445229.298    24445229.517                    -3215472.022 8  -3215472.028 7                  -2505562.305 8       157.000          52.000         173.000                  
G19  22414402.097    22414400.478    22414400.110                   -10808679.794 8 -10808679.806 7                  -8422350.178 8       265.000          69.000         158.000                  
G24  24981369.184    24981369.524    24981381.004                     -197135.175 7   -197135.174 6                   -153613.327 6        86.000          25.000          41.000                  
G25  20439468.696    20439468.042    20439471.139                   -19865648.678 9 -19865648.679 9                 -15479727.364 9       534.000         702.000         839.000                  
G28  21213476.105    21213475.454    21213475.926                   -19543409.582 9 -19543409.580 8                 -15228630.533 8       520.000         328.000         298.000                  
G31  23894730.561    23894730.248    23894730.898                    -3932489.998 8  -3932490.000 6                  -3064278.314 7       142.000          47.000          80.000                  
G32  20663784.446    20663784.264    20663786.791                   -23374039.919 9 -23374039.921 9                 -18213536.965 9       818.000        1692.000        2122.000                  
> 2024 10 31 05 22 30.0000000  0 11
G02  25240332.901    25240330.620    25240332.833                     3244720.815 7   3244720.818 6                   2528352.704 6        90.000          17.000          21.000                  
G03  22167119.443    22167118.932    22167121.923                   -11627884.588 8 -11627884.588 8                  -9060687.980 8       200.000         104.000         413.000                  
G06  24230535.447    24230535.319    24230538.837                    -3493525.795 8  -3493525.792 6                  -2722230.863 7       113.000          44.000          75.000                  
G12  20710371.542    20710371.227    20710371.063                   -21329823.887 9 -21329823.889 9                 -16620641.840 9       666.000        1062.000        1128.000                  
G17  24505537.082    24505536.574    24505537.054                    -2898555.258 8  -2898555.247 6                  -2258614.285 8       149.000          48.000         163.000                  
G19  22444755.881    22444753.701    22444753.192                   -10649174.358 8 -10649174.357 7                  -8298060.232 8       265.000          77.000         157.000                  
G24  24935631.002    24935630.727    24935633.571                     -437494.455 7   -437494.451 6                   -340904.464 7        93.000          27.000          84.000                  
G25  20386757.498    20386756.395    20386759.603                   -20142650.076 9 -20142650.077 9                 -15695572.584 9       562.000         755.000         943.000                  
G28  21217085.748    21217085.498    21217085.732                   -19524439.568 9 -19524439.566 8                 -15213848.708 8       507.000         317.000         292.000                  
G31  23915718.247    23915717.968    23915718.173                    -3822201.475 8  -3822201.483 6                  -2978339.259 7       140.000          49.000          79.000                  
G32  20640202.506    20640202.196    20640204.764                   -23497964.579 9 -23497964.581 9                 -18310101.631 9       823.000        1698.000        2185.000                  
> 2024 10 31 05 22 40.0000000  0 11
G02  25313752.664    25313750.432    25313751.650                     3630541.073 7   3630541.074 6                   2828991.729 6        86.000          19.000          24.000                  
G03  22226390.447    22226389.915    22226392.766                   -11316414.668 8 -11316414.662 7                  -8817984.169 8       194.000          97.000         396.000                  
G06  24233975.953    24233975.965    24233979.394                    -3475446.527 8  -3475446.526 6                  -2708143.098 7       111.000          45.000          74.000                  
G12  20679278.237    20679277.782    20679277.498                   -21493221.122 9 -21493221.123 9                 -16747964.357 9       685.000        1113.000        1125.000                  
G17  24566219.233    24566218.510    24566219.271                    -2579669.392 8  -2579669.415 6                  -2010131.840 8       148.000          40.000         157.000                  
G19  22475865.090    22475863.893    22475862.723                   -10485690.778 8 -10485690.786 7                  -8170670.423 8       263.000          77.000         148.000                  
G24  24890108.187    24890106.358    24890110.635                     -676723.135 7   -676723.139 6                   -527316.379 8        93.000          25.000         109.000                  
G25  20334764.680    20334763.803    20334766.926                   -20415874.074 9 -20415874.075 9                 -15908474.379 9       574.000         806.000        1072.000                  
G28  21221303.830    21221303.437    21221303.611                   -19502273.803 8 -19502273.802 8                 -15196576.678 8       494.000         303.000         280.000                  
G31  23936951.936    23936951.887    23936952.491                    -3710616.138 8  -3710616.135 6                  -2891389.677 7       137.000          45.000          71.000                  
G32  20617216.052    20617215.721    20617218.211                   -23618759.515 9 -23618759.516 9                 -18404227.548 9       847.000        1796.000        2165.000                  
> 2024 10 31 05 22 50.0000000  0 11
G02  25387225.374    25387222.731    25387222.074                     4016637.799 7   4016637.815 6                   3129846.120 6        82.000          25.000          21.000                  
G03  22286035.015    22286034.948    22286037.886                   -11002977.888 8 -11002977.882 7                  -8573747.724 8       181.000          87.000         363.000                  
G06  24237990.448    24237989.442    24237993.357                    -3454349.381 8  -3454349.361 6                  -2691703.696 7       105.000          39.000          68.000                  
G12  20649100.400    20649099.983    20649099.790                   -21651806.375 9 -21651806.376 9                 -16871537.280 9       700.000        1148.000        1151.000                  
G17  24627267.194    24627266.703    24627267.277                    -2258860.613 8  -2258860.618 6                  -1760151.049 8       141.000          47.000         147.000                  
G19  22507726.656    22507725.000    22507724.273                   -10318257.677 8 -10318257.680 7                  -8040203.096 8       258.000          66.000         138.000                  
G24  24844805.392    24844804.086    24844807.905                     -914788.470 7   -914788.450 6                   -712821.802 8        98.000          30.000         114.000                  
G25  20283504.499    20283503.602    20283506.939                   -20685247.593 9 -20685247.593 9                 -16118375.801 9       575.000         799.000        1260.000                  
G28  21226132.317    21226132.073    21226132.188                   -19476899.386 8 -19476899.385 8                 -15176804.402 8       488.000         291.000         273.000                  
G31  23958434.596    23958432.972    23958433.384                    -3597729.134 8  -3597729.151 6                  -2803425.817 7       134.000          44.000          74.000                  
G32  20594830.826    20594830.468    20594833.003                   -23736394.503 9 -23736394.505 9                 -18495891.173 9       845.000        1781.000        2173.000                  
> 2024 10 31 05 23  0.0000000  0 11
G02  25460737.790    25460737.410    25460735.615                     4402954.880 7   4402954.873 6                   3430872.281 6        71.000          22.000          21.000                  
G03  22346044.972    22346044.786    22346047.773                   -10687623.678 8 -10687623.681 7                  -8328017.193 8       171.000          83.000         328.000                  
G06  24242578.489    24242578.523    24242581.577                    -3430238.212 8  -3430238.221 6                  -2672915.688 7       102.000          39.000          67.000                  
G12  20619844.029    20619843.655    20619843.227                   -21805549.906 9 -21805549.908 9                 -16991337.417 9       716.000        1206.000        1148.000                  
G17  24688669.341    24688668.499    24688669.149                    -1936190.533 8  -1936190.549 6                  -1508719.863 8       137.000          44.000         140.000                  
G19  22540331.131    22540329.634    22540328.713                   -10146920.012 8 -10146920.022 7                  -7906693.239 8       252.000          59.000         134.000                  
G24  24799727.740    24799726.634    24799730.334                    -1151673.574 7  -1151673.590 6                   -897407.551 8       100.000          28.000         117.000                  
G25  20232987.566    20232987.001    20232990.401                   -20950713.550 9 -20950713.552 9                 -16325232.373 9       574.000         804.000        1426.000                  
G28  21231570.953    21231570.622    21231570.882                   -19448319.772 8 -19448319.771 8                 -15154534.578 8       479.000         282.000         268.000                  
G31  23980161.283    23980160.561    23980160.882                    -3483551.388 8  -3483551.387 6                  -2714456.176 7       140.000          46.000          70.000                  
G32  20573049.419    20573049.164    20573051.767                   -23850855.519 9 -23850855.520 9                 -18585081.570 9       823.000        1711.000        2169.000                  
> 2024 10 31 05 23 10.0000000  0 11
G02  25534284.256    25534282.963    25534283.034                     4789437.809 7   4789437.830 6                   3732026.394 6        73.000          20.000          16.000                  
G03  22406410.637    22406410.320    22406413.156                   -10370400.066 8 -10370400.068 7                  -8080829.986 8       160.000          65.000         308.000                  
G06  24247740.063    24247738.597    24247742.774                    -3403116.236 7  -3403116.255 6                  -2651781.634 7        96.000          32.000          67.000                  
G12  20591514.691    20591514.252    20591513.790                   -21954421.675 9 -21954421.677 9                 -17107341.388 9       718.000        1228.000        1140.000                  
G17  24750413.769    24750413.233    24750413.867                    -1611719.637 8  -1611719.619 6                  -1255885.466 8       128.000          41.000         124.000                  
G19  22573669.800    22573668.148    22573667.771                    -9971722.423 8  -9971722.424 7                  -7770175.658 8       250.000          52.000         133.000                  
G24  24754876.557    24754877.183    24754880.668                    -1387360.301 8  -1387360.300 6                  -1081059.500 8       108.000          36.000         122.000                  
G25  20183225.739    20183225.046    20183228.571                   -21212214.017 9 -21212214.018 9                 -16528998.956 9       565.000         771.000        1568.000                  
G28  21237618.731    21237618.323    21237618.656                   -19416537.661 8 -19416537.662 8                 -15129769.302 8       470.000         278.000         254.000                  
G31  24002131.953    24002131.962    24002132.278                    -3368092.751 8  -3368092.752 6                  -2624488.456 7       136.000          48.000          63.000                  
G32  20551875.151    20551874.925    20551877.364                   -23962127.704 9 -23962127.706 9                 -18671787.161 9       854.000        1823.000        2130.000                  
> 2024 10 31 05 23 20.0000000  0 11
G02  25607856.167    25607855.641    25607855.460                     5176060.334 7   5176060.356 6                   4033267.048 6        67.000          18.000          17.000                  
G03  22467127.957    22467127.914    22467130.772                   -10051327.319 8 -10051327.312 7                  -7832201.897 8       148.000          59.000         273.000                  
G06  24253478.184    24253477.464    24253481.829                    -3372959.705 7  -3372959.721 6                  -2628283.027 7        88.000          31.000          68.000                  
G12  20564123.050    20564122.619    20564122.267                   -22098365.167 9 -22098365.170 9                 -17219505.145 9       712.000        1203.000        1168.000                  
G17  24812495.164    24812494.924    24812495.200                    -1285480.304 8  -1285480.326 6                  -1001673.083 8       124.000          35.000         118.000                  
G19  22607740.348    22607739.113    22607738.121                    -9792682.478 8  -9792682.476 7                  -7630664.012 8       241.000          59.000         131.000                  
G24  24710264.422    24710263.656    24710267.700                    -1621802.951 8  -1621802.956 6                  -1263742.049 8       108.000          32.000         126.000                  
G25  20134234.843    20134233.991    20134237.467                   -21469663.716 9 -21469663.717 9                 -16729609.099 9       552.000         727.000        1656.000                  
G28  21244280.817    21244280.399    21244280.659                   -19381528.644 8 -19381528.643 8                 -15102489.557 8       466.000         269.000         248.000                  
G31  24024349.943    24024349.950    24024350.605                    -3251335.594 8  -3251335.580 6                  -2533508.886 7       135.000          47.000          70.000                  
G32  20531315.720    20531315.387    20531317.806                   -24070168.945 9 -24070168.947 9                 -18755975.140 9       875.000        1917.000        2137.000                  
> 2024 10 31 05 23 30.0000000  0 11
G02  25681436.889    25681437.613    25681436.938                     5562738.013 7   5562737.989 6                   4334550.276 6        66.000          21.000          23.000                  
G03  22528182.825    22528182.353    22528185.181                    -9730483.971 8  -9730483.974 7                  -7582194.122 8       142.000          55.000         247.000                  
G06  24259786.480    24259786.678    24259790.803                    -3339803.697 7  -3339803.665 6                  -2602447.166 7        83.000          28.000          73.000                  
G12  20537668.812    20537668.370    20537667.892                   -22237383.371 9 -22237383.372 9                 -17327831.011 9       716.000        1210.000        1180.000                  
G17  24874895.732    24874895.663    24874896.377                     -957563.450 8   -957563.447 6                   -746153.545 8       122.000          44.000         110.000                  
G19  22642526.929    22642525.288    22642524.791                    -9609876.903 8  -9609876.910 7                  -7488218.140 8       236.000          54.000         123.000                  
G24  24665885.953    24665885.765    24665888.973                    -1855014.146 8  -1855014.149 6                  -1445465.017 8       112.000          36.000         118.000                  
G25  20086019.504    20086018.717    20086022.276                   -21723036.164 9 -21723036.165 9                 -16927042.160 9       544.000         716.000        1681.000                  
G28  21251550.319    21251549.954    21251550.032                   -19343327.240 8 -19343327.241 8                 -15072722.237 8       466.000         260.000         254.000                  
G31  24046808.185    24046807.651    24046807.559                    -3133320.723 8  -3133320.720 6                  -2441549.294 7       134.000          40.000          59.000                  
G32  20511367.619    20511367.397    20511369.874                   -24174995.965 9 -24174995.967 9                 -18837658.527 9       870.000        1886.000        2138.000                  
> 2024 10 31 05 23 40.0000000  0 11
G02  25755028.606    25755027.711    25755026.381                     5949454.776 7   5949454.770 6                   4635860.914 6        61.000          21.000          19.000                  
G03  22589570.942    22589571.751    22589574.116                    -9407880.841 8  -9407880.842 7                  -7330815.088 8       135.000          54.000         214.000                  
G06  24266674.251    24266672.279    24266676.448                    -3303616.496 7  -3303616.486 6                  -2574249.347 7        82.000          26.000          69.000                  
G12  20512163.715    20512163.369    20512162.989                   -22371412.764 9 -22371412.766 9                 -17432269.497 9       715.000        1207.000        1201.000                  
G17  24937610.680    24937610.900    24937611.124                     -627992.085 8   -627992.095 6                   -489344.768 7       115.000          32.000          97.000                  
G19  22678028.577    22678026.185    22678026.536                    -9423315.506 8  -9423315.519 6                  -7342845.654 8       229.000          49.000         124.000                  
G24  24621750.966    24621751.333    24621755.209                    -2086939.003 8  -2086938.998 6                  -1626185.653 8       117.000          41.000         126.000                  
G25  20038598.058    20038597.204    20038600.778                   -21972237.683 9 -21972237.684 9                 -17121225.147 9       557.000         757.000        1697.000                  
G28  21259433.445    21259433.201    21259433.369                   -19301900.917 8 -19301900.917 8                 -15040441.996 8       468.000         281.000         251.000                  
G31  24069509.898    24069509.017    24069510.010                    -3014021.407 8  -3014021.406 6                  -2348588.819 7       130.000          40.000          55.000                  
G32  20492040.991    20492040.733    20492043.166                   -24276558.321 9 -24276558.323 9                 -18916798.021 9       865.000        1873.000        2149.000                  
> 2024 10 31 05 23 50.0000000  0 11
G02  25828611.396    25828610.406    25828611.995                     6336131.243 7   6336131.241 6                   4937141.355 6        61.000          20.000          17.000                  
G03  22651282.469    22651281.307    22651284.667                    -9083592.227 8  -9083592.225 6                  -7078122.694 8       130.000          46.000         196.000                  
G06  24274131.221    24274129.649    24274133.984                    -3264430.577 7  -3264430.574 6                  -2543714.876 7        79.000          25.000          76.000                  
G12  20487607.954    20487607.532    20487607.122                   -22500454.595 9 -22500454.597 9                 -17532821.568 9       728.000        1253.000        1262.000                  
G17  25000626.076    25000624.963    25000625.023                     -296852.877 8   -296852.890 6                   -231314.325 7       115.000          38.000          89.000                  
G19  22714230.454    22714229.055    22714228.263                    -9233072.336 8  -9233072.345 7                  -7194604.243 8       223.000          51.000         121.000                  
G24  24577861.230    24577860.638    24577864.050                    -2317586.321 8  -2317586.331 6                  -1805910.806 8       119.000          38.000         134.000                  
G25  19991975.878    19991975.176    19991978.612                   -22217238.699 9 -22217238.700 9                 -17312135.014 9       589.000         838.000        1688.000                  
G28  21267924.254    21267923.939    21267924.120                   -19257281.333 8 -19257281.335 8                 -15005673.495 8       468.000         269.000         265.000                  
G31  24092448.986    24092449.293    24092449.448                    -2893474.633 8  -2893474.629 6                  -2254656.300 7       127.000          44.000          57.000                  
G32  20473332.944    20473332.663    20473335.130                   -24374869.679 9 -24374869.681 9                 -18993404.274 9       849.000        1826.000        2202.000                  
> 2024 10 31 05 24  0.0000000  0 11
G02  25902183.144    25902181.261    25902183.224                     6722745.688 7   6722745.693 6                   5238366.276 6        57.000          17.000          13.000                  
G03  22713309.313    22713308.934    22713312.200                    -8757635.130 8  -8757635.117 6                  -6824130.170 8       128.000          40.000         182.000                  
G06  24282163.051    24282161.939    24282166.091                    -3222221.935 7  -3222221.944 6                  -2510825.023 7        83.000          30.000          61.000                  
G12  20464011.831    20464011.294    20464010.895                   -22624454.126 9 -22624454.128 9                 -17629444.576 9       741.000        1288.000        1285.000                  
G17  25063932.129    25063931.534    25063931.656                       35824.941 8     35824.941 6                     27915.018 7       112.000          29.000          82.000                  
G19  22751129.816    22751128.186    22751127.807                    -9039164.846 8  -9039164.851 6                  -7043507.510 8       215.000          45.000         119.000                  
G24  24534222.330    24534222.288    24534225.998                    -2546907.696 8  -2546907.692 6                  -1984602.753 8       121.000          39.000         137.000                  
G25  19946169.504    19946168.818    19946172.180                   -22457952.938 9 -22457952.939 9                 -17499704.537 9       614.000         921.000        1659.000                  
G28  21277027.542    21277027.278    21277027.375                   -19209443.476 8 -19209443.477 8                 -14968397.251 8       463.000         262.000         250.000                  
G31  24115629.122    24115629.092    24115629.258                    -2771660.438 8  -2771660.453 6                  -2159736.198 7       124.000          43.000          64.000                  
G32  20455251.707    20455251.397    20455253.975                   -24469886.985 9 -24469886.986 9                 -19067443.743 9       844.000        1775.000        2318.000                  
> 2024 10 31 05 24 10.0000000  0 11
G02  25975730.250    25975728.973    25975728.546                     7109238.794 7   7109238.761 6                   5539493.236 6        51.000          22.000          18.000                  
G03  22775643.575    22775643.232    22775646.887                    -8430064.442 8  -8430064.426 6                  -6568880.321 8       119.000          36.000         171.000                  
G06  24290767.701    24290766.170    24290770.523                    -3177005.231 7  -3177005.244 6                  -2475591.249 7        89.000          28.000          70.000                  
G12  20441377.679    20441377.372    20441376.991                   -22743395.976 9 -22743395.978 9                 -17722126.538 9       736.000        1277.000        1303.000                  
G17  25127518.313    25127517.992    25127518.260                      369974.150 8    369974.129 6                    288290.919 7       110.000          35.000          83.000                  
G19  22788716.104    22788714.302    22788714.139                    -8841649.233 8  -8841649.236 6                  -6889599.259 8       217.000          46.000         125.000                  
G24  24490838.234    24490838.912    24490841.536                    -2774892.932 8  -2774892.918 6                  -2162253.563 8       125.000          43.000         140.000                  
G25  19901187.945    19901187.206    19901190.530                   -22694332.727 9 -22694332.728 9                 -17683896.565 9       639.000         992.000        1603.000                  
G28  21286740.456    21286740.401    21286740.366                   -19158400.948 8 -19158400.950 8                 -14928623.863 8       459.000         262.000         244.000                  
G31  24139048.140    24139047.098    24139047.965                    -2648596.977 8  -2648596.970 6                  -2063842.645 7       122.000          35.000          60.000                  
G32  20437798.157    20437797.882    20437800.564                   -24561605.698 9 -24561605.699 9                 -19138912.885 9       831.000        1734.000        2406.000                  
> 2024 10 31 05 24 20.0000000  0 10
G03  22838275.955    22838276.065    22838279.148                    -8100928.771 8  -8100928.767 6                  -6312411.018 8       113.000          35.000         158.000                  
G06  24299942.695    24299940.966    24299945.550                    -3128789.701 7  -3128789.680 6                  -2438020.724 7        90.000          31.000          73.000                  
G12  20419710.245    20419709.763    20419709.440                   -22857259.888 9 -22857259.890 9                 -17810851.664 9       733.000        1275.000        1347.000                  
G17  25191373.117    25191372.573    25191373.473                      705534.223 8    705534.232 6                    549766.180 7       104.000          30.000          71.000                  
G19  22826979.176    22826976.957    22826976.753                    -8640576.099 8  -8640576.087 6                  -6732918.905 8       219.000          43.000         112.000                  
G24  24447711.022    24447711.794    24447714.872                    -3001525.644 8  -3001525.647 6                  -2338850.451 8       126.000          44.000         152.000                  
G25  19857041.554    19857040.666    19857043.903                   -22926324.714 9 -22926324.715 9                 -17864669.524 9       659.000        1039.000        1593.000                  
G28  21297061.809    21297061.616    21297061.786                   -19104161.750 8 -19104161.751 8                 -14886359.558 8       458.000         261.000         250.000                  
G31  24162701.169    24162700.815    24162701.884                    -2524296.162 8  -2524296.170 6                  -1966984.900 7       119.000          35.000          55.000                  
G32  20420974.132    20420973.986    20420976.731                   -24650015.582 9 -24650015.584 9                 -19207803.720 9       831.000        1724.000        2389.000                  
> 2024 10 31 05 24 30.0000000  0 10
G03  22901204.076    22901204.223    22901207.289                    -7770240.836 8  -7770240.832 6                  -6054732.147 8       113.000          41.000         150.000                  
G06  24309692.777    24309692.706    24309696.748                    -3077549.445 7  -3077549.457 6                  -2398093.279 7        92.000          36.000          68.000                  
G12  20399019.417    20399018.942    20399018.552                   -22965991.092 9 -22965991.095 9                 -17895577.276 9       729.000        1256.000        1383.000                  
G17  25255492.420    25255491.933    25255492.227                     1042480.229 7   1042480.246 6                    812321.378 7        98.000          28.000          65.000                  
G19  22865916.346    22865914.250    22865913.648                    -8435960.899 8  -8435960.889 6                  -6573478.499 8       215.000          50.000         114.000                  
G24  24404852.688    24404852.557    24404854.973                    -3226753.891 8  -3226753.900 6                  -2514352.952 8       122.000          41.000         157.000                  
G25  19813746.461    19813745.814    19813749.140                   -23153840.572 9 -23153840.573 9                 -18041954.593 9       674.000        1103.000        1634.000                  
G28  21307996.788    21307996.539    21307996.670                   -19046698.747 8 -19046698.747 8                 -14841583.195 8       449.000         252.000         246.000                  
G31  24186594.926    24186594.147    24186595.377                    -2398734.525 8  -2398734.512 6                  -1869144.700 7       118.000          36.000          52.000                  
G32  20404788.919    20404788.600    20404791.133                   -24735071.224 9 -24735071.224 9                 -19274080.857 9       850.000        1802.000        2320.000                  
> 2024 10 31 05 24 40.0000000  0 10
G03  22964413.477    22964412.300    22964414.914                    -7438081.188 8  -7438081.189 6                  -5795906.482 8       118.000          39.000         148.000                  
G06  24320010.878    24320010.755    24320014.473                    -3023327.146 7  -3023327.144 6                  -2355842.174 7        99.000          37.000          74.000                  
G12  20379302.603    20379301.960    20379301.637                   -23069604.039 9 -23069604.040 9                 -17976314.633 9       717.000        1216.000        1402.000                  
G17  25319857.578    25319856.200    25319857.187                     1380719.401 7   1380719.420 6                   1075884.264 7        96.000          24.000          60.000                  
G19  22905511.249    22905509.429    22905508.792                    -8227887.687 8  -8227887.694 6                  -6411343.558 8       214.000          48.000         110.000                  
G24  24362257.371    24362256.664    24362259.989                    -3450593.656 8  -3450593.648 6                  -2688773.515 8       120.000          42.000         178.000                  
G25  19771307.370    19771306.516    19771309.909                   -23376860.453 9 -23376860.454 9                 -18215736.310 9       676.000        1114.000        1708.000                  
G28  21319537.217    21319536.817    21319537.110                   -18986053.278 8 -18986053.278 8                 -14794326.991 8       444.000         246.000         254.000                  
G31  24210720.604    24210719.623    24210720.683                    -2271956.613 8  -2271956.614 6                  -1770356.786 7       114.000          30.000          53.000                  
G32  20389237.158    20389236.853    20389239.508                   -24816795.633 9 -24816795.635 9                 -19337762.226 9       851.000        1818.000        2316.000                  
> 2024 10 31 05 24 50.0000000  0 10
G03  23027895.269    23027895.694    23027898.866                    -7104472.281 8  -7104472.292 6                  -5535951.544 8       120.000          40.000         133.000                  
G06  24330898.762    24330899.034    24330903.382                    -2966108.290 8  -2966108.286 6                  -2311256.087 7       103.000          32.000          69.000                  
G12  20360567.490    20360567.078    20360566.800                   -23168056.577 9 -23168056.578 9                 -18053030.892 9       708.000        1180.000        1435.000                  
G17  25384461.149    25384460.919    25384460.783                     1720217.239 7   1720217.258 6                   1340427.882 7        93.000          23.000          55.000                  
G19  22945759.036    22945757.044    22945757.092                    -8016382.852 8  -8016382.863 6                  -6246534.600 8       209.000          43.000         113.000                  
G24  24319934.326    24319933.298    24319936.788                    -3673003.190 8  -3673003.197 6                  -2862079.623 8       123.000          42.000         198.000                  
G25  19729738.204    19729737.400    19729740.863                   -23595307.325 9 -23595307.326 9                 -18385954.648 9       693.000        1152.000        1754.000                  
G28  21331686.435    21331686.069    21331686.326                   -18922209.302 8 -18922209.305 8                 -14744578.442 8       446.000         242.000         249.000                  
G31  24235079.091    24235078.475    24235079.835                    -2143949.031 8  -2143949.028 6                  -1670610.656 7       114.000          37.000          53.000                  
G32  20374325.833    20374325.705    20374328.315                   -24895154.515 9 -24895154.516 9                 -19398821.130 9       856.000        1837.000        2273.000                  
> 2024 10 31 05 25  0.0000000  0 10
G03  23091647.113    23091647.422    23091649.943                    -6769457.132 8  -6769457.136 6                  -5274900.822 8       118.000          39.000         125.000                  
G06  24342355.703    24342356.291    24342360.066                    -2905899.733 8  -2905899.731 6                  -2264340.372 7       101.000          35.000          75.000                  
G12  20342818.301    20342817.884    20342817.639                   -23261328.650 9 -23261328.652 9                 -18125710.427 9       701.000        1162.000        1445.000                  
G17  25449294.720    25449294.347    25449295.300                     2060918.767 7   2060918.776 6                   1605909.472 7        90.000          29.000          53.000                  
G19  22986650.785    22986648.721    22986648.923                    -7801494.416 8  -7801494.409 6                  -6079089.093 7       205.000          45.000          98.000                  
G24  24277886.648    24277886.381    24277889.894                    -3893961.468 8  -3893961.491 6                  -3034254.874 8       119.000          35.000         210.000                  
G25  19689049.923    19689049.058    19689052.607                   -23809125.605 9 -23809125.607 9                 -18552566.298 9       706.000        1203.000        1789.000                  
G28  21344443.157    21344442.814    21344442.983                   -18855172.112 8 -18855172.112 8                 -14692341.674 8       436.000         242.000         259.000                  
G31  24259670.710    24259670.655    24259671.341                    -2014719.414 8  -2014719.430 6                  -1569912.303 7       113.000          28.000          53.000                  
G32  20360057.873    20360057.521    20360060.006                   -24970134.698 9 -24970134.700 9                 -19457247.262 9       878.000        1937.000        2235.000                  
> 2024 10 31 05 25 10.0000000  0 10
G03  23155655.993    23155655.830    23155658.410                    -6433091.906 8  -6433091.913 6                  -5012798.095 8       117.000          43.000         128.000                  
G06  24354378.902    24354378.770    24354382.500                    -2842722.259 8  -2842722.263 6                  -2215111.214 7       107.000          41.000          87.000                  
G12  20326056.121    20326055.680    20326055.483                   -23349414.827 9 -23349414.828 9                 -18194349.005 9       703.000        1163.000        1441.000                  
G17  25514344.476    25514343.586    25514344.698                     2402755.689 7   2402755.688 6                   1872275.776 6        85.000          25.000          47.000                  
G19  23028174.957    23028173.209    23028172.236                    -7583283.973 8  -7583283.980 6                  -5909055.010 7       204.000          46.000          85.000                  
G24  24236116.868    24236116.615    24236120.643                    -4113460.939 8  -4113460.929 6                  -3205293.418 8       118.000          37.000         228.000                  
G25  19649250.359    19649249.598    19649253.019                   -24018273.818 9 -24018273.818 9                 -18715538.984 9       719.000        1258.000        1790.000                  
G28  21357804.071    21357803.729    21357803.945                   -18784960.848 8 -18784960.851 8                 -14637631.613 8       426.000         224.000         258.000                  
G31  24284489.572    24284490.189    24284491.769                    -1884288.822 8  -1884288.824 6                  -1468278.141 6       113.000          33.000          49.000                  
G32  20346432.362    20346432.043    20346434.569                   -25041736.923 9 -25041736.924 9                 -19513041.218 9       896.000        2030.000        2213.000                  
> 2024 10 31 05 25 20.0000000  0 10
G03  23219918.876    23219918.272    23219920.647                    -6095391.116 8  -6095391.113 6                  -4749654.683 8       119.000          37.000         125.000                  
G06  24366969.798    24366970.283    24366973.823                    -2776555.857 8  -2776555.876 6                  -2163553.019 7       103.000          38.000          87.000                  
G12  20310289.300    20310289.048    20310288.622                   -23432269.559 9 -23432269.561 9                 -18258911.135 9       709.000        1188.000        1452.000                  
G17  25579602.653    25579604.307    25579605.147                     2745701.452 7   2745701.452 6                   2139506.134 6        86.000          23.000          43.000                  
G19  23070327.455    23070325.888    23070325.454                    -7361772.134 8  -7361772.128 6                  -5736448.411 7       202.000          42.000          81.000                  
G24  24194635.050    24194634.669    24194638.240                    -4331452.664 8  -4331452.651 6                  -3375157.103 8       120.000          38.000         248.000                  
G25  19610355.132    19610354.459    19610357.766                   -24222669.600 9 -24222669.600 9                 -18874808.428 9       746.000        1343.000        1831.000                  
G28  21371772.854    21371772.712    21371772.849                   -18711553.715 8 -18711553.717 8                 -14580431.275 8       418.000         215.000         256.000                  
G31  24309543.373    24309543.037    24309543.879                    -1752636.890 8  -1752636.885 6                  -1365692.316 6       108.000          29.000          47.000                  
G32  20333457.459    20333457.152    20333459.651                   -25109921.019 9 -25109921.021 9                 -19566171.724 9       913.000        2093.000        2221.000                  
> 2024 10 31 05 25 30.0000000  0 10
G03  23284420.842    23284420.613    23284422.932                    -5756430.841 8  -5756430.849 6                  -4485529.842 8       116.000          42.000         112.000                  
G06  24380123.368    24380121.985    24380125.490                    -2707442.864 8  -2707442.882 6                  -2109698.780 7       103.000          43.000          91.000                  
G12  20295514.879    20295514.446    20295514.060                   -23509910.435 9 -23509910.436 9                 -18319410.519 9       713.000        1202.000        1487.000                  
G17  25645059.446    25645058.450    25645059.343                     3089668.084 7   3089668.089 6                   2407531.962 6        74.000          25.000          42.000                  
G19  23113092.430    23113090.208    23113090.159                    -7137041.659 8  -7137041.661 6                  -5561333.779 7       197.000          41.000          76.000                  
G24  24153436.761    24153436.540    24153439.901                    -4547949.433 8  -4547949.431 6                  -3543855.895 8       119.000          35.000         257.000                  
G25  19572368.182    19572367.408    19572370.627                   -24422293.375 9 -24422293.375 9                 -19030359.449 9       759.000        1393.000        1827.000                  
G28  21386342.205    21386341.943    21386342.311                   -18634991.169 8 -18634991.171 8                 -14520772.178 8       407.000         212.000         255.000                  
G31  24334820.827    24334819.940    24334820.713                    -1619805.106 8  -1619805.103 6                  -1262187.104 6       106.000          29.000          40.000                  
G32  20321128.752    20321128.495    20321130.965                   -25174709.019 9 -25174709.020 9                 -19616655.925 9       926.000        2151.000        2168.000                  
> 2024 10 31 05 25 40.0000000  0 10
G03  23349161.842    23349160.706    23349162.936                    -5416219.307 8  -5416219.303 6                  -4220430.013 8       115.000          33.000         114.000                  
G06  24393839.160    24393838.996    24393842.811                    -2635358.613 7  -2635358.621 6                  -2053529.285 7       100.000          37.000          90.000                  
G12  20281741.837    20281741.360    20281740.955                   -23582288.644 9 -23582288.646 9                 -18375809.125 9       720.000        1236.000        1524.000                  
G17  25710704.625    25710703.809    25710704.916                     3434635.579 7   3434635.583 6                   2676337.674 6        73.000          21.000          33.000                  
G19  23156466.749    23156464.349    23156464.067                    -6909108.183 8  -6909108.197 6                  -5383723.323 7       189.000          38.000          62.000                  
G24  24112534.119    24112533.211    24112536.896                    -4762896.557 8  -4762896.552 6                  -3711347.162 8       123.000          40.000         291.000                  
G25  19535305.426    19535304.763    19535308.040                   -24617058.734 9 -24617058.735 9                 -19182124.725 9       757.000        1394.000        1817.000                  
G28  21401517.328    21401516.958    21401517.299                   -18555246.583 8 -18555246.582 8                 -14458633.570 8       399.000         202.000         250.000                  
G31  24360327.514    24360326.867    24360327.409                    -1485767.380 8  -1485767.378 6                  -1157742.217 6       105.000          30.000          36.000                  
G32  20309454.885    20309454.601    20309457.094                   -25236055.795 9 -25236055.796 9                 -19664458.609 9       934.000        2205.000        2157.000                  
> 2024 10 31 05 25 50.0000000  0 10
G03  23414125.350    23414126.702    23414128.369                    -5074823.914 8  -5074823.912 6                  -3954407.688 8       107.000          34.000         103.000                  
G06  24408114.630    24408115.236    24408118.504                    -2560338.420 7  -2560338.403 6                  -1995072.044 7        93.000          32.000          99.000                  
G12  20268967.723    20268967.396    20268967.037                   -23649416.273 9 -23649416.274 9                 -18428116.373 9       725.000        1239.000        1548.000                  
G17  25776524.984    25776524.883    25776524.904                     3780524.677 7   3780524.679 6                   2945861.558 6        68.000          24.000          30.000                  
G19  23200436.153    23200434.343    23200433.242                    -6678047.004 8  -6678047.009 6                  -5203675.681 7       177.000          35.000          63.000                  
G24  24071924.297    24071923.981    24071928.188                    -4976298.831 8  -4976298.841 6                  -3877634.676 8       126.000          41.000         316.000                  
G25  19499172.522    19499171.672    19499175.039                   -24806939.492 9 -24806939.493 9                 -19330083.881 9       752.000        1372.000        1811.000                  
G28  21417291.014    21417290.827    21417291.386                   -18472353.241 8 -18472353.242 8                 -14394041.402 8       397.000         200.000         244.000                  
G31  24386057.970    24386056.455    24386057.328                    -1350557.020 8  -1350557.035 6                  -1052383.587 6       101.000          30.000          43.000                  
G32  20298432.926    20298432.720    20298435.222                   -25293976.278 9 -25293976.279 9                 -19709591.452 9       941.000        2222.000        2140.000                  
> 2024 10 31 05 26  0.0000000  0  9
G03  23479312.594    23479311.948    23479314.410                    -4732270.714 7  -4732270.712 6                  -3687483.189 8       100.000          32.000         104.000                  
G06  24422950.656    24422950.440    24422954.486                    -2482377.105 7  -2482377.101 6                  -1934323.011 8        88.000          31.000         104.000                  
G12  20257198.191    20257197.852    20257197.520                   -23711265.685 9 -23711265.686 9                 -18476310.728 9       723.000        1235.000        1572.000                  
G19  23244993.496    23244992.540    23244991.584                    -6443892.918 8  -6443892.907 6                  -5021218.000 7       171.000          38.000          56.000                  
G24  24031616.056    24031616.090    24031619.942                    -5188119.980 8  -5188120.000 6                  -4042690.140 8       133.000          46.000         334.000                  
G25  19463981.452    19463980.813    19463984.178                   -24991869.039 9 -24991869.040 9                 -19474184.910 9       757.000        1384.000        1802.000                  
G28  21433665.983    21433665.721    21433665.963                   -18386303.810 8 -18386303.814 8                 -14326989.946 8       395.000         188.000         242.000                  
G31  24412010.474    24412010.930    24412010.720                    -1214166.526 8  -1214166.532 6                   -946105.356 6       102.000          33.000          42.000                  
G32  20288067.951    20288067.619    20288070.135                   -25348444.796 9 -25348444.798 9                 -19752034.453 9       929.000        2158.000        2035.000                  
> 2024 10 31 05 26 10.0000000  0  9
G03  23544709.506    23544708.885    23544711.432                    -4388606.529 7  -4388606.510 6                  -3419692.991 7        93.000          30.000          92.000                  
G06  24438342.827    24438342.068    24438346.378                    -2401491.024 7  -2401491.027 6                  -1871294.932 7        78.000          25.000          99.000                  
G12  20246434.371    20246433.737    20246433.464                   -23767831.575 9 -23767831.577 9                 -18520388.082 9       719.000        1227.000        1582.000                  
G19  23290130.132    23290128.006    23290126.962                    -6206701.826 8  -6206701.831 6                  -4836393.827 7       164.000          32.000          52.000                  
G24  23991611.967    23991611.956    23991615.511                    -5398344.743 8  -5398344.738 7                  -4206501.667 8       135.000          51.000         351.000                  
G25  19429741.483    19429740.529    19429743.931                   -25171802.842 9 -25171802.843 9                 -19614393.120 9       747.000        1339.000        1836.000                  
G28  21450638.713    21450638.334    21450638.655                   -18297112.384 8 -18297112.384 8                 -14257490.183 8       387.000         187.000         241.000                  
G31  24438187.342    24438187.345    24438187.447                    -1076609.212 8  -1076609.211 6                   -838917.921 6       103.000          29.000          37.000                  
G32  20278360.530    20278360.349    20278362.841                   -25399457.309 9 -25399457.310 9                 -19791784.554 9       932.000        2189.000        2030.000                  
> 2024 10 31 05 26 20.0000000  0  9
G03  23610307.742    23610308.313    23610311.183                    -4043878.391 7  -4043878.402 6                  -3151073.747 7        87.000          28.000          89.000                  
G06  24454288.525    24454287.195    24454291.743                    -2317697.667 7  -2317697.663 6                  -1806001.461 8        75.000          26.000         110.000                  
G12  20236676.097    20236675.735    20236675.512                   -23819110.225 9 -23819110.227 9                 -18560345.518 9       715.000        1207.000        1570.000                  
G19  23335833.590    23335831.050    23335830.860                    -5966530.346 8  -5966530.350 6                  -4649247.270 6       162.000          36.000          49.000                  
G24  23951914.786    23951914.108    23951917.500                    -5606958.398 8  -5606958.399 6                  -4369057.752 8       144.000          49.000         361.000                  
G25  19396459.837    19396459.204    19396462.596                   -25346697.836 9 -25346697.837 9                 -19750674.947 9       749.000        1349.000        1902.000                  
G28  21468206.072    21468205.860    21468206.408                   -18204794.090 8 -18204794.093 8                 -14185553.902 8       382.000         182.000         248.000                  
G31  24464584.053    24464583.414    24464583.136                     -937899.076 8   -937899.097 6                   -730832.199 6       104.000          30.000          32.000                  
G32  20269311.562    20269311.305    20269313.885                   -25447010.360 9 -25447010.361 9                 -19828838.930 9       936.000        2194.000        2110.000                  
> 2024 10 31 05 26 30.0000000  0  9
G03  23676107.145    23676105.636    23676109.744                    -3698108.162 7  -3698108.140 6                  -2881642.496 7        85.000          22.000          81.000                  
G06  24470786.923    24470787.241    24470791.548                    -2230990.064 7  -2230990.066 6                  -1738437.147 8        73.000          24.000         108.000                  
G12  20227929.388    20227928.959    20227928.778                   -23865075.016 9 -23865075.019 9                 -18596162.244 9       714.000        1208.000        1538.000                  
G19  23382097.376    23382095.648    23382094.998                    -5723410.408 8  -5723410.417 6                  -4459803.190 6       163.000          33.000          45.000                  
G24  23912531.152    23912530.056    23912533.908                    -5813921.479 8  -5813921.484 7                  -4530327.670 8       147.000          57.000         356.000                  
G25  19364150.147    19364149.375    19364152.808                   -25516487.018 9 -25516487.019 9                 -19882978.188 9       776.000        1450.000        1962.000                  
G28  21486370.684    21486370.392    21486370.854                   -18109339.617 8 -18109339.620 8                 -14111173.853 8       376.000         167.000         239.000                  
G31  24491200.364    24491199.769    24491200.720                     -798025.197 8   -798025.187 6                   -621839.612 6       101.000          32.000          35.000                  
G32  20260926.042    20260925.786    20260928.431                   -25491076.490 9 -25491076.492 9                 -19863176.237 9       928.000        2155.000        2107.000                  
> 2024 10 31 05 26 40.0000000  0  9
G03  23742091.257    23742091.106    23742095.082                    -3351353.475 7  -3351353.470 6                  -2611444.102 7        82.000          26.000          79.000                  
G06  24487838.022    24487836.013    24487840.511                    -2141398.343 7  -2141398.325 6                  -1668625.567 8        66.000          25.000         118.000                  
G12  20220191.699    20220191.367    20220191.147                   -23905736.342 9 -23905736.343 9                 -18627846.402 9       710.000        1181.000        1535.000                  
G19  23428909.268    23428907.221    23428907.541                    -5477410.582 8  -5477410.579 6                  -4268115.097 6       157.000          28.000          42.000                  
G24  23873461.954    23873461.601    23873464.677                    -6019230.617 8  -6019230.622 7                  -4690308.792 8       152.000          63.000         371.000                  
G25  19332817.610    19332816.897    19332820.326                   -25681140.568 9 -25681140.569 9                 -20011279.659 9       806.000        1577.000        2066.000                  
G28  21505126.309    21505126.370    21505126.734                   -18010776.083 8 -18010776.088 8                 -14034371.150 8       368.000         170.000         239.000                  
G31  24518034.708    24518034.401    24518034.118                     -657012.754 7   -657012.740 6                   -511959.822 6        99.000          29.000          36.000                  
G32  20253202.541    20253202.230    20253204.795                   -25531664.595 9 -25531664.596 9                 -19894803.365 9       937.000        2203.000        2129.000                  
> 2024 10 31 05 26 50.0000000  0  9
G03  23808258.725    23808257.944    23808262.101                    -3003643.111 7  -3003643.110 6                  -2340501.051 7        79.000          27.000          71.000                  
G06  24505433.334    24505433.319    24505438.334                    -2048923.289 7  -2048923.287 6                  -1596567.093 8        70.000          29.000         117.000                  
G12  20213466.520    20213466.187    20213465.932                   -23941077.470 9 -23941077.471 9                 -18655384.949 9       706.000        1183.000        1506.000                  
G19  23476262.593    23476260.364    23476259.598                    -5228570.683 8  -5228570.671 6                  -4074213.964 6       156.000          30.000          46.000                  
G24  23834713.325    23834712.738    23834716.502                    -6222853.824 8  -6222853.830 7                  -4848976.193 8       153.000          60.000         374.000                  
G25  19302473.245    19302472.683    19302476.019                   -25840600.933 9 -25840600.934 9                 -20135534.475 9       842.000        1710.000        2097.000                  
G28  21524474.601    21524474.027    21524474.665                   -17909102.577 8 -17909102.575 8                 -13955145.094 8       355.000         163.000         237.000                  
G31  24545086.204    24545085.038    24545085.019                     -514858.494 7   -514858.496 6                   -401190.334 6        96.000          27.000          35.000                  
G32  20246144.277    20246144.059    20246146.651                   -25568755.640 9 -25568755.641 9                 -19923705.492 9       944.000        2222.000        2142.000                  
> 2024 10 31 05 27  0.0000000  0  9
G03  23874601.687    23874599.288    23874602.397                    -2655018.894 7  -2655018.894 6                  -2068845.917 7        76.000          23.000          64.000                  
G06  24523579.020    24523576.208    24523581.454                    -1953580.767 7  -1953580.732 6                  -1522274.242 8        69.000          26.000         109.000                  
G12  20207754.243    20207753.801    20207753.531                   -23971096.361 9 -23971096.363 9                 -18678776.292 9       717.000        1209.000        1467.000                  
G19  23524145.382    23524143.570    23524142.287                    -4976944.213 8  -4976944.214 6                  -3878141.424 6       152.000          32.000          47.000                  
G24  23796290.157    23796289.217    23796292.543                    -6424772.640 8  -6424772.626 7                  -5006315.499 8       158.000          59.000         380.000                  
G25  19273125.433    19273124.748    19273128.097                   -25994825.117 9 -25994825.118 9                 -20255709.162 9       862.000        1798.000        2038.000                  
G28  21544411.652    21544411.587    21544411.986                   -17804331.869 8 -17804331.872 8                 -13873505.621 8       355.000         161.000         242.000                  
G31  24572353.335    24572351.933    24572352.147                     -371572.399 7   -371572.393 6                   -289538.881 6        93.000          27.000          30.000                  
G32  20239752.567    20239752.354    20239754.918                   -25602344.443 9 -25602344.445 9                 -19949878.606 9       953.000        2268.000        2148.000                  
> 2024 10 31 05 27 10.0000000  0  9
G03  23941104.407    23941104.421    23941107.947                    -2305533.707 7  -2305533.712 6                  -1796519.867 7        73.000          24.000          54.000                  
G06  24542261.381    24542259.384    24542264.908                    -1855398.231 7  -1855398.227 6                  -1445768.385 7        67.000          23.000          98.000                  
G12  20203052.769    20203052.144    20203051.762                   -23995803.836 9 -23995803.837 9                 -18698028.883 9       718.000        1233.000        1449.000                  
G19  23572546.428    23572544.223    23572544.655                    -4722596.194 8  -4722596.202 6                  -3679948.162 6       156.000          26.000          49.000                  
G24  23758191.901    23758191.006    23758194.376                    -6624979.903 8  -6624979.895 7                  -5162321.099 8       159.000          64.000         399.000                  
G25  19244779.986    19244779.157    19244782.505                   -26143782.449 9 -26143782.450 9                 -20371779.809 9       874.000        1848.000        2076.000                  
G28  21564933.491    21564933.276    21564933.683                   -17696488.608 8 -17696488.608 8                 -13789471.948 8       347.000         149.000         240.000                  
G31  24599829.557    24599829.446    24599828.955                     -227176.015 7   -227176.012 6                   -177022.237 6        91.000          26.000          33.000                  
G32  20234026.086    20234025.835    20234028.407                   -25632437.653 9 -25632437.654 9                 -19973327.884 9       954.000        2307.000        2171.000                  
> 2024 10 31 05 27 20.0000000  0  9
G03  24007771.748    24007769.835    24007773.226                    -1955203.916 7  -1955203.938 6                  -1523535.728 7        76.000          27.000          52.000                  
G06  24561486.428    24561485.639    24561490.124                    -1754367.381 7  -1754367.401 6                  -1367043.084 8        70.000          27.000         101.000                  
G12  20199366.337    20199365.839    20199365.372                   -24015175.780 9 -24015175.781 9                 -18713123.896 9       725.000        1241.000        1439.000                  
G19  23621459.977    23621457.771    23621458.200                    -4465555.818 8  -4465555.809 6                  -3479657.018 6       152.000          28.000          42.000                  
G24  23720427.196    23720426.522    23720430.122                    -6823432.349 8  -6823432.346 7                  -5316959.303 8       159.000          64.000         414.000                  
G25  19217449.013    19217448.256    19217451.586                   -26287407.309 9 -26287407.309 9                 -20483695.285 9       875.000        1864.000        2051.000                  
G28  21586042.480    21586041.985    21586042.390                   -17585561.591 8 -17585561.588 8                 -13703035.335 8       342.000         151.000         243.000                  
G31  24627522.510    24627521.083    24627522.140                      -81654.471 7    -81654.454 6                    -63628.894 6        88.000          28.000          33.000                  
G32  20228970.343    20228970.042    20228972.622                   -25659006.215 9 -25659006.216 9                 -19994030.667 9       969.000        2344.000        2207.000                  
> 2024 10 31 05 27 30.0000000  0 10
G03  24074585.851    24074583.352    24074586.984                    -1604096.778 7  -1604096.780 6                  -1249945.839 6        75.000          26.000          42.000                  
G06  24581245.578    24581245.069    24581249.605                    -1650531.523 7  -1650531.486 6                  -1286132.066 7        73.000          24.000          89.000                  
G12  20196689.832    20196689.337    20196688.923                   -24029240.728 9 -24029240.729 9                 -18724083.622 9       728.000        1254.000        1416.000                  
G19  23670870.080    23670867.320    23670867.760                    -4205903.114 8  -4205903.133 6                  -3277330.282 6       150.000          25.000          36.000                  
G24  23682994.821    23682994.815    23682998.077                    -7020138.002 8  -7020138.004 7                  -5470236.377 8       163.000          65.000         400.000                  
G25  19191135.335    19191134.581    19191137.958                   -26425686.332 9 -26425686.332 9                 -20591445.179 9       859.000        1771.000        1928.000                  
G28  21607730.261    21607729.931    21607730.465                   -17471591.220 8 -17471591.219 8                 -13614227.275 8       338.000         145.000         236.000                  
G29  24726191.680    24726191.553    24726210.783                     -714999.714 7   -714999.718 6                   -557146.282 6        88.000          33.000          21.000                  
G31  24655420.697    24655420.018    24655421.138                       64955.720 7     64955.701 6                     50612.770 6        90.000          29.000          32.000                  
G32  20224580.926    20224580.673    20224583.271                   -25682072.774 9 -25682072.776 9                 -20012004.617 9       982.000        2412.000        2179.000                  
> 2024 10 31 05 27 40.0000000  0 11
G03  24141539.708    24141541.745    24141544.599                    -1252233.853 7  -1252233.852 6                   -975767.052 6        73.000          24.000          37.000                  
G06  24601539.633    24601538.092    24601542.971                    -1543889.266 7  -1543889.274 6                  -1203034.257 7        70.000          24.000          91.000                  
G10  24599488.581    24599480.328    24599496.760                     -119733.629 7   -119733.633 6                    -93303.033 6        84.000          28.000          47.000                  
G12  20195026.176    20195025.763    20195025.428                   -24037983.125 9 -24037983.126 9                 -18730895.907 9       729.000        1258.000        1463.000                  
G19  23720770.910    23720768.648    23720768.982                    -3943673.195 8  -3943673.214 6                  -3072995.313 6       147.000          29.000          44.000                  
G24  23645902.390    23645902.458    23645905.664                    -7215059.536 8  -7215059.534 7                  -5622123.226 8       163.000          67.000         419.000                  
G25  19165849.792    19165849.147    19165852.456                   -26558562.060 9 -26558562.061 9                 -20694984.724 9       824.000        1642.000        1822.000                  
G28  21629998.117    21629997.736    21629998.220                   -17354573.006 8 -17354573.004 8                 -13523044.264 8       336.000         143.000         249.000                  
G29  24645859.561    24645858.309    24645859.717                    -1137153.780 7  -1137153.786 6                   -886094.753 7        92.000          28.000          97.000                  
G31  24683527.854    24683527.612    24683528.988                      212663.484 7    212663.474 6                    165709.669 6        87.000          28.000          30.000                  
G32  20220862.095    20220861.823    20220864.384                   -25701615.202 9 -25701615.204 9                 -20027232.489 9       974.000        2387.000        2247.000                  
> 2024 10 31 05 27 50.0000000  0 11
G03  24208636.660    24208636.889    24208639.778                     -899646.534 7   -899646.528 6                   -701023.783 6        66.000          23.000          39.000                  
G06  24622365.681    24622364.152    24622368.910                    -1434449.562 7  -1434449.556 6                  -1117756.614 7        74.000          24.000          83.000                  
G10  24580375.539    24580373.756    24580380.199                     -220166.724 7   -220166.728 6                   -171561.789 7        85.000          25.000          98.000                  
G12  20194376.153    20194375.721    20194375.462                   -24041398.929 9 -24041398.931 9                 -18733557.590 9       729.000        1256.000        1486.000                  
G19  23771152.868    23771150.694    23771151.630                    -3678911.413 8  -3678911.391 6                  -2866687.493 6       140.000          27.000          40.000                  
G24  23609155.370    23609154.677    23609157.823                    -7408169.813 8  -7408169.824 7                  -5772598.712 8       161.000          61.000         420.000                  
G25  19141601.365    19141600.643    19141604.009                   -26685988.336 9 -26685988.337 9                 -20794277.946 9       796.000        1545.000        1735.000                  
G28  21652844.791    21652844.636    21652844.959                   -17234512.901 8 -17234512.900 8                 -13429490.957 8       332.000         141.000         253.000                  
G29  24565673.888    24565671.525    24565672.556                    -1558538.568 7  -1558538.533 6                  -1214446.403 7        91.000          28.000          96.000                  
G31  24711844.170    24711844.750    24711845.313                      361467.577 7    361467.566 6                    281660.857 6        86.000          26.000          31.000                  
G32  20217816.066    20217815.870    20217818.478                   -25717621.915 9 -25717621.917 9                 -20039705.251 9       971.000        2366.000        2290.000                  
> 2024 10 31 05 28  0.0000000  0 11
G03  24275856.460    24275857.808    24275860.577                     -546397.380 7   -546397.372 6                   -425764.826 6        63.000          26.000          28.000                  
G06  24643716.282    24643714.467    24643719.283                    -1322253.604 7  -1322253.604 6                  -1030331.238 7        73.000          26.000          78.000                  
G10  24561359.405    24561359.756    24561365.057                     -320091.226 7   -320091.223 6                   -249425.134 7        87.000          28.000          91.000                  
G12  20194734.282    20194733.806    20194733.642                   -24039517.150 9 -24039517.152 9                 -18732091.288 9       721.000        1234.000        1497.000                  
G19  23822003.226    23822000.687    23822001.216                    -3411694.641 8  -3411694.634 6                  -2658466.683 6       132.000          27.000          43.000                  
G24  23572751.392    23572750.971    23572753.974                    -7599473.373 8  -7599473.370 7                  -5921666.375 8       162.000          66.000         434.000                  
G25  19118392.494    19118391.738    19118395.134                   -26807951.802 9 -26807951.804 9                 -20889314.422 9       785.000        1500.000        1705.000                  
G28  21676263.027    21676262.867    21676263.557                   -17111448.878 8 -17111448.879 8                 -13333596.930 8       330.000         140.000         255.000                  
G29  24485639.518    24485638.318    24485639.535                    -1979116.079 7  -1979116.056 6                  -1542169.010 8        90.000          24.000         103.000                  
G31  24740363.186    24740363.570    24740363.776                      511335.183 7    511335.172 6                    398440.743 6        86.000          24.000          35.000                  
G32  20215439.054    20215438.779    20215441.459                   -25730113.492 9 -25730113.493 9                 -20049438.953 9       965.000        2321.000        2247.000                  
> 2024 10 31 05 28 10.0000000  0 11
G03  24343201.680    24343203.008    24343205.762                     -192494.932 7   -192494.916 6                   -149996.844 6        57.000          19.000          24.000                  
G06  24665593.986    24665591.641    24665595.635                    -1207289.174 7  -1207289.156 6                   -940748.615 7        85.000          25.000          63.000                  
G10  24542452.450    24542448.903    24542453.868                     -419471.258 7   -419471.253 6                   -326864.130 7        87.000          26.000          97.000                  
G12  20196104.905    20196104.516    20196104.252                   -24032314.251 9 -24032314.253 9                 -18726478.661 9       711.000        1210.000        1464.000                  
G19  23873316.234    23873313.549    23873313.255                    -3142045.989 8  -3142045.993 6                  -2448350.920 6       123.000          30.000          34.000                  
G24  23536701.114    23536699.814    23536703.228                    -7788920.993 8  -7788920.988 7                  -6069287.860 8       164.000          67.000         441.000                  
G25  19096235.661    19096235.000    19096238.282                   -26924386.705 9 -26924386.705 9                 -20980042.936 9       787.000        1507.000        1708.000                  
G28  21700255.940    21700255.590    21700256.341                   -16985365.406 8 -16985365.402 8                 -13235350.062 8       326.000         139.000         254.000                  
G29  24405777.117    24405776.076    24405777.530                    -2398793.912 7  -2398793.907 6                  -1869190.583 7        89.000          34.000          93.000                  
G31  24769089.945    24769089.630    24769089.416                      662287.271 7    662287.255 6                    516065.666 6        85.000          27.000          38.000                  
G32  20213737.004    20213736.853    20213739.438                   -25739057.173 9 -25739057.175 9                 -20056408.073 9       951.000        2270.000        2132.000                  
> 2024 10 31 05 28 20.0000000  0 11
G03  24410658.750    24410660.247    24410662.973                      161996.042 7    161996.032 6                    126229.798 6        54.000          23.000          23.000                  
G06  24687987.940    24687986.788    24687990.935                    -1089601.154 7  -1089601.167 6                   -849043.695 7        81.000          25.000          60.000                  
G10  24523637.169    24523637.171    24523641.863                     -518327.904 7   -518327.893 6                   -403895.375 7        86.000          30.000          93.000                  
G12  20198481.574    20198481.237    20198481.007                   -24019824.654 9 -24019824.655 9                 -18716746.516 9       713.000        1201.000        1441.000                  
G19  23925075.662    23925073.571    23925073.849                    -2870045.219 8  -2870045.196 6                  -2236402.347 6       116.000          21.000          32.000                  
G24  23501001.162    23501001.118    23501004.400                    -7976520.130 8  -7976520.131 7                  -6215468.972 8       163.000          66.000         464.000                  
G25  19075132.520    19075131.749    19075135.164                   -27035285.070 9 -27035285.071 9                 -21066457.257 9       796.000        1536.000        1844.000                  
G28  21724815.530    21724815.380    21724815.943                   -16856304.004 8 -16856304.005 8                 -13134782.697 8       321.000         127.000         248.000                  
G29  24326091.536    24326092.271    24326093.568                    -2817535.650 7  -2817535.631 6                  -2195482.724 8        89.000          26.000         103.000                  
G31  24798014.533    24798014.519    24798014.500                      814288.243 7    814288.241 6                    634507.925 6        84.000          24.000          33.000                  
G32  20212705.773    20212705.462    20212708.003                   -25744477.359 9 -25744477.361 9                 -20060631.604 9       948.000        2251.000        2087.000                  
> 2024 10 31 05 28 30.0000000  0 11
G03  24478224.206    24478223.045    24478226.569                      517044.891 6    517044.898 6                    402891.125 6        50.000          20.000          27.000                  
G06  24710898.042    24710898.287    24710902.559                     -969201.057 7   -969201.066 6                   -755225.473 6        81.000          28.000          50.000                  
G10  24504929.028    24504927.414    24504932.352                     -616647.927 7   -616647.931 6                   -480508.475 7        87.000          36.000          92.000                  
G12  20201864.121    20201863.533    20201863.307                   -24002050.503 9 -24002050.505 9                 -18702896.531 9       715.000        1212.000        1404.000                  
G19  23977273.523    23977272.235    23977272.348                    -2595738.276 8  -2595738.273 6                  -2022656.736 6       108.000          19.000          33.000                  
G24  23465659.573    23465658.833    23465662.137                    -8162244.517 8  -8162244.516 7                  -6360189.245 8       168.000          64.000         474.000                  
G25  19055090.547    19055089.810    19055093.211                   -27140606.579 9 -27140606.580 9                 -21148525.966 9       812.000        1594.000        1980.000                  
G28  21749939.948    21749939.589    21749940.381                   -16724272.842 8 -16724272.845 8                 -13031901.244 8       316.000         121.000         243.000                  
G29  24246599.808    24246599.341    24246601.112                    -3235270.648 7  -3235270.640 6                  -2520990.396 8        89.000          28.000         105.000                  
G31  24827138.364    24827138.745    24827137.896                      967336.245 7    967336.234 6                    753766.068 6        81.000          24.000          30.000                  
G32  20212346.397    20212346.173    20212348.796                   -25746365.177 9 -25746365.178 9                 -20062102.638 9       936.000        2201.000        2082.000                  
> 2024 10 31 05 28 40.0000000  0 10
G06  24734325.898    24734324.612    24734328.751                     -846095.198 7   -846095.201 6                   -659298.895 7        77.000          30.000          51.000                  
G10  24486323.687    24486324.848    24486328.721                     -714412.129 7   -714412.123 6                   -556688.379 7        88.000          32.000          97.000                  
G12  20206252.376    20206251.996    20206251.660                   -23978989.485 9 -23978989.486 9                 -18684926.911 9       716.000        1211.000        1372.000                  
G19  24029903.445    24029902.368    24029902.388                    -2319165.517 8  -2319165.510 6                  -1807145.553 6       106.000          23.000          29.000                  
G24  23430680.551    23430679.515    23430682.755                    -8346062.301 8  -8346062.305 7                  -6503423.855 8       165.000          73.000         486.000                  
G25  19036118.216    19036117.467    19036121.018                   -27240306.532 9 -27240306.533 9                 -21226214.233 9       818.000        1616.000        2126.000                  
G28  21775629.311    21775629.086    21775629.790                   -16589274.683 8 -16589274.680 8                 -12926707.861 8       309.000         114.000         246.000                  
G29  24167313.095    24167312.640    24167314.814                    -3651921.804 7  -3651921.815 6                  -2845653.528 7        87.000          27.000          99.000                  
G31  24856462.731    24856462.824    24856461.959                     1121435.053 7   1121435.038 6                    873842.971 6        75.000          25.000          27.000                  
G32  20212662.115    20212661.817    20212664.417                   -25744706.566 9 -25744706.567 9                 -20060810.224 9       932.000        2179.000        2064.000                  
> 2024 10 31 05 28 50.0000000  0 10
G06  24758260.168    24758259.316    24758263.405                     -720318.922 7   -720318.929 6                   -561291.412 6        79.000          27.000          46.000                  
G10  24467824.378    24467824.603    24467828.860                     -811630.355 7   -811630.361 6                   -632442.879 7        89.000          26.000          93.000                  
G12  20211641.551    20211641.105    20211640.788                   -23950669.337 9 -23950669.339 9                 -18662859.279 9       711.000        1195.000        1337.000                  
G19  24082952.545    24082950.158    24082950.591                    -2040395.961 8  -2040395.995 6                  -1589922.564 6       108.000          20.000          27.000                  
G24  23396063.211    23396063.646    23396066.840                    -8527970.415 8  -8527970.415 7                  -6645170.408 8       170.000          75.000         498.000                  
G25  19018218.495    19018217.668    19018221.233                   -27334370.430 9 -27334370.431 9                 -21299510.795 9       821.000        1628.000        2278.000                  
G28  21801877.198    21801876.898    21801877.548                   -16451341.385 8 -16451341.382 8                 -12819227.370 8       305.000         125.000         239.000                  
G29  24088243.455    24088242.673    24088244.459                    -4067440.161 7  -4067440.167 6                  -3169433.965 8        93.000          29.000         107.000                  
G31  24885980.142    24885981.258    24885981.581                     1276559.800 7   1276559.786 6                    994719.289 6        75.000          26.000          24.000                  
G32  20213649.717    20213649.393    20213652.014                   -25739516.723 9 -25739516.725 9                 -20056766.199 9       930.000        2159.000        2125.000                  
> 2024 10 31 05 29  0.0000000  0 10
G06  24782703.058    24782702.577    24782706.328                     -591870.896 7   -591870.893 6                   -461202.104 6        77.000          28.000          47.000                  
G10  24449433.227    24449433.603    24449437.737                     -908274.679 7   -908274.673 6                   -707750.097 7        90.000          27.000          94.000                  
G12  20218032.917    20218032.498    20218032.314                   -23917082.049 9 -23917082.050 9                 -18636687.386 9       707.000        1178.000        1296.000                  
G19  24136412.527    24136409.648    24136411.560                    -1759461.377 8  -1759461.371 6                  -1371012.591 6       106.000          22.000          24.000                  
G24  23361818.864    23361818.506    23361821.850                    -8707928.698 8  -8707928.691 7                  -6785397.616 9       176.000          88.000         506.000                  
G25  19001400.783    19001399.991    19001403.552                   -27422747.885 9 -27422747.886 9                 -21368376.366 9       819.000        1640.000        2381.000                  
G28  21828684.754    21828684.340    21828685.134                   -16310467.901 8 -16310467.901 8                 -12709455.840 8       302.000         121.000         236.000                  
G29  24009403.572    24009403.869    24009405.576                    -4481738.883 7  -4481738.885 6                  -3492264.050 8       100.000          31.000         109.000                  
G31  24915699.734    24915698.312    24915698.305                     1432722.903 7   1432722.907 6                   1116404.725 6        75.000          24.000          26.000                  
G32  20215313.375    20215313.089    20215315.752                   -25730774.165 9 -25730774.166 9                 -20049953.834 9       934.000        2196.000        2180.000                  
> 2024 10 31 05 29 10.0000000  0 10
G06  24807645.103    24807644.657    24807648.150                     -460801.348 7   -460801.349 6                   -359070.004 6        76.000          31.000          40.000                  
G10  24431148.063    24431147.176    24431150.912                    -1004368.467 7  -1004368.442 6                   -782628.279 7        92.000          24.000          93.000                  
G12  20225418.315    20225417.812    20225417.498                   -23878272.007 9 -23878272.009 9                 -18606445.791 9       701.000        1168.000        1232.000                  
G19  24190268.676    24190266.098    24190265.772                    -1476444.717 8  -1476444.726 6                  -1150480.211 6       101.000          24.000          27.000                  
G24  23327942.982    23327942.451    23327945.670                    -8885948.243 8  -8885948.234 7                  -6924114.126 9       180.000          75.000         527.000                  
G25  18985664.697    18985663.970    18985667.585                   -27505441.222 9 -27505441.223 9                 -21432812.754 9       822.000        1643.000        2460.000                  
G28  21856042.938    21856042.138    21856043.083                   -16166700.709 8 -16166700.708 8                 -12597429.462 8       301.000         114.000         243.000                  
G29  23930805.876    23930804.679    23930806.462                    -4894781.871 8  -4894781.868 6                  -3814115.645 8       107.000          34.000         116.000                  
G31  24945604.843    24945605.673    24945606.576                     1589885.370 7   1589885.369 6                   1238868.885 6        70.000          21.000          24.000                  
G32  20217647.317    20217647.103    20217649.688                   -25718509.057 9 -25718509.059 9                 -20040396.622 9       951.000        2257.000        2202.000                  
> 2024 10 31 05 29 20.0000000  0 10
G06  24833086.517    24833084.985    24833089.649                     -327104.469 7   -327104.490 6                   -254890.641 6        75.000          24.000          45.000                  
G10  24412973.056    24412972.109    24412976.902                    -1099878.391 7  -1099878.378 6                   -857051.511 7        90.000          30.000          96.000                  
G12  20233799.533    20233799.079    20233798.621                   -23834228.280 9 -23834228.283 9                 -18572125.998 9       693.000        1143.000        1212.000                  
G19  24244515.591    24244513.862    24244513.520                    -1191372.196 8  -1191372.213 6                   -928345.867 6       104.000          18.000          26.000                  
G24  23294445.212    23294444.077    23294447.408                    -9061983.838 8  -9061983.846 7                  -7061284.705 9       181.000          84.000         539.000                  
G25  18971020.544    18971019.687    18971023.233                   -27582397.704 9 -27582397.704 9                 -21492778.860 9       834.000        1684.000        2422.000                  
G28  21883952.939    21883952.672    21883953.386                   -16020030.196 8 -16020030.190 8                 -12483140.753 8       296.000         114.000         241.000                  
G29  23852463.165    23852461.769    23852463.461                    -5306475.876 8  -5306475.882 6                  -4134916.088 8       116.000          35.000         128.000                  
G31  24975704.833    24975706.116    24975706.643                     1748064.879 7   1748064.871 6                   1362125.541 6        67.000          20.000          28.000                  
G32  20220656.532    20220656.301    20220658.870                   -25702695.670 9 -25702695.671 9                 -20028074.510 9       960.000        2308.000        2185.000                  
> 2024 10 31 05 29 30.0000000  0 10
G06  24859020.986    24859019.603    24859022.746                     -190822.920 7   -190822.927 6                   -148697.283 6        74.000          27.000          39.000                  
G10  24394904.497    24394905.432    24394909.997                    -1194819.338 7  -1194819.310 6                   -931031.405 7        89.000          23.000          96.000                  
G12  20243169.269    20243168.864    20243168.455                   -23784989.810 9 -23784989.812 9                 -18533758.348 9       690.000        1127.000        1238.000                  
G19  24299140.990    24299138.040    24299139.520                     -904318.159 7   -904318.161 6                   -704667.402 6        94.000          25.000          28.000                  
G24  23261322.829    23261322.031    23261325.928                    -9236038.405 8  -9236038.406 7                  -7196911.626 9       185.000          90.000         552.000                  
G25  18957468.325    18957467.655    18957471.211                   -27653614.268 9 -27653614.269 9                 -21548272.295 9       838.000        1697.000        2426.000                  
G28  21912408.504    21912408.184    21912409.074                   -15870495.220 8 -15870495.223 8                 -12366620.007 8       297.000         109.000         234.000                  
G29  23774384.967    23774384.432    23774386.030                    -5716775.312 8  -5716775.304 6                  -4454629.854 8       125.000          42.000         150.000                  
G31  25005994.842    25005994.117    25005995.703                     1907231.035 7   1907231.020 6                   1486151.089 6        65.000          22.000          25.000                  
G32  20224336.590    20224336.404    20224338.912                   -25683356.922 9 -25683356.923 9                 -20013005.355 9       976.000        2385.000        2240.000                  
> 2024 10 31 05 29 40.0000000  0 10
G06  24885442.600    24885442.726    24885446.966                      -51968.543 7    -51968.531 6                    -40499.109 7        71.000          27.000          51.000                  
G10  24376950.781    24376950.306    24376954.777                    -1289174.431 7  -1289174.402 6                  -1004554.814 8        90.000          24.000         106.000                  
G12  20253525.848    20253525.506    20253525.125                   -23730565.213 9 -23730565.215 9                 -18491349.576 9       683.000        1090.000        1251.000                  
G19  24354133.392    24354130.979    24354132.606                     -615325.902 7   -615325.901 6                   -479478.639 6        88.000          23.000          22.000                  
G24  23228583.874    23228583.727    23228586.699                    -9408083.765 8  -9408083.762 7                  -7330972.935 9       188.000          89.000         557.000                  
G25  18945014.881    18945014.150    18945017.658                   -27719058.059 9 -27719058.061 9                 -21599267.459 9       853.000        1749.000        2370.000                  
G28  21941407.610    21941407.359    21941408.296                   -15718103.634 8 -15718103.628 8                 -12247873.330 8       293.000         108.000         237.000                  
G29  23696587.433    23696587.063    23696588.485                    -6125602.469 8  -6125602.467 6                  -4773196.391 8       130.000          50.000         151.000                  
G31  25036472.102    25036470.198    25036471.220                     2067384.491 7   2067384.524 6                   1610945.902 6        63.000          25.000          32.000                  
G32  20228688.927    20228688.787    20228691.313                   -25660484.962 9 -25660484.963 9                 -19995183.063 9       978.000        2394.000        2226.000                  
> 2024 10 31 05 29 50.0000000  0 10
G06  24912351.503    24912351.974    24912354.912                       89441.223 7     89441.239 6                     69690.259 6        67.000          23.000          47.000                  
G10  24359107.185    24359108.719    24359113.347                    -1382932.068 7  -1382932.060 6                  -1077612.695 8        92.000          25.000         107.000                  
G12  20264866.811    20264866.166    20264865.771                   -23670969.672 9 -23670969.674 9                 -18444911.494 9       669.000        1059.000        1284.000                  
G19  24409487.512    24409484.087    24409485.243                     -324443.447 7   -324443.483 6                   -252817.096 6        92.000          23.000          22.000                  
G24  23196231.074    23196230.770    23196234.258                    -9578097.044 8  -9578097.044 7                  -7463450.811 9       195.000          89.000         557.000                  
G25  18933664.764    18933664.059    18933667.619                   -27778703.094 9 -27778703.095 9                 -21645744.116 9       857.000        1780.000        2285.000                  
G28  21970948.176    21970947.591    21970948.575                   -15562868.869 8 -15562868.859 7                 -12126911.193 8       290.000          99.000         246.000                  
G29  23619084.614    23619084.104    23619085.321                    -6532884.565 8  -6532884.562 7                  -5090558.989 8       135.000          51.000         162.000                  
G31  25067135.986    25067133.986    25067134.016                     2228520.698 7   2228520.708 6                   1736506.468 6        60.000          20.000          34.000                  
G32  20233714.215    20233713.938    20233716.417                   -25634077.696 9 -25634077.697 9                 -19974605.980 9       982.000        2426.000        2254.000                  
> 2024 10 31 05 30  0.0000000  0 10
G06  24939741.975    24939739.266    24939743.840                      233367.531 7    233367.537 6                    181840.582 6        67.000          26.000          43.000                  
G10  24341378.661    24341378.940    24341383.854                    -1476101.495 7  -1476101.498 6                  -1150212.235 8        87.000          29.000         106.000                  
G12  20277183.991    20277183.732    20277183.318                   -23606240.689 9 -23606240.690 9                 -18394473.336 9       658.000        1030.000        1285.000                  
G19  24465187.020    24465184.508    24465184.648                      -31739.888 7    -31739.884 6                    -24736.503 6        89.000          25.000          24.000                  
G24  23164265.835    23164265.511    23164268.786                    -9746076.603 8  -9746076.600 7                  -7594343.965 9       203.000          97.000         554.000                  
G25  18923418.887    18923418.092    18923421.664                   -27832545.896 9 -27832545.897 9                 -21687699.550 9       860.000        1793.000        2234.000                  
G28  22001022.630    22001022.252    22001022.835                   -15404825.728 8 -15404825.721 8                 -12003760.717 8       291.000         111.000         250.000                  
G29  23541885.303    23541884.319    23541885.971                    -6938569.275 8  -6938569.275 6                  -5406676.875 8       138.000          47.000         158.000                  
G31  25097978.088    25097979.653    25097980.247                     2390614.146 7   2390614.189 6                   1862812.956 6        56.000          21.000          29.000                  
G32  20239408.489    20239408.152    20239410.714                   -25604154.593 9 -25604154.594 9                 -19951289.289 9       985.000        2422.000        2297.000                  
> 2024 10 31 05 30 10.0000000  0 10
G06  24967605.384    24967604.361    24967609.118                      379797.194 7    379797.178 6                    295941.570 6        70.000          25.000          50.000                  
G10  24323764.884    24323764.194    24323769.048                    -1568665.810 7  -1568665.817 6                  -1222340.259 8        89.000          34.000         105.000                  
G12  20290475.948    20290475.616    20290475.290                   -23536391.007 9 -23536391.009 9                 -18340045.023 9       647.000         995.000        1310.000                  
G19  24521225.629    24521222.927    24521223.912                      262741.756 7    262741.741 6                    204729.624 6        92.000          22.000          24.000                  
G24  23132692.578    23132692.473    23132695.622                    -9911994.880 8  -9911994.884 8                  -7723630.932 9       198.000         102.000         559.000                  
G25  18914282.355    18914281.630    18914285.167                   -27880558.567 9 -27880558.568 9                 -21725112.017 9       862.000        1798.000        2228.000                  
G28  22031630.410    22031629.466    22031630.406                   -15243983.303 8 -15243983.296 8                 -11878428.987 8       293.000         116.000         245.000                  
G29  23465005.050    23465004.358    23465005.887                    -7342577.494 8  -7342577.490 6                  -5721488.412 8       146.000          50.000         167.000                  
G31  25129008.216    25129007.239    25129008.035                     2553664.744 7   2553664.743 6                   1989865.146 6        55.000          24.000          28.000                  
G32  20245772.767    20245772.480    20245775.057                   -25570709.641 9 -25570709.642 9                 -19925228.297 9       979.000        2398.000        2276.000                  
> 2024 10 31 05 30 20.0000000  0 10
G06  24995941.635    24995941.796    24995946.369                      528710.767 7    528710.783 6                    411977.972 7        69.000          21.000          57.000                  
G10  24306268.056    24306267.441    24306272.095                    -1660613.311 7  -1660613.300 6                  -1293987.647 8        92.000          28.000         103.000                  
G12  20304738.664    20304738.266    20304738.084                   -23461439.860 9 -23461439.861 9                 -18281641.549 9       644.000         982.000        1321.000                  
G19  24577591.240    24577590.209    24577590.118                      558953.297 7    558953.290 6                    435543.718 6        87.000          21.000          21.000                  
G24  23101516.212    23101515.906    23101518.747                   -10075829.758 8 -10075829.761 8                  -7851294.469 9       204.000         107.000         553.000                  
G25  18906259.301    18906258.558    18906262.082                   -27922720.169 9 -27922720.170 9                 -21757965.210 9       860.000        1803.000        2273.000                  
G28  22062767.514    22062766.916    22062767.690                   -15080356.281 8 -15080356.279 8                 -11750927.440 8       291.000         111.000         258.000                  
G29  23388458.982    23388457.213    23388458.602                    -7744835.081 8  -7744835.074 7                  -6034935.812 8       162.000          61.000         168.000                  
G31  25160217.353    25160215.249    25160217.036                     2717668.755 6   2717668.760 6                   2117660.379 6        50.000          21.000          29.000                  
G32  20252807.304    20252807.142    20252809.637                   -25533742.648 9 -25533742.651 9                 -19896422.860 9       972.000        2373.000        2173.000                  
> 2024 10 31 05 30 30.0000000  0 10
G06  25024747.081    25024744.316    25024749.029                      680069.047 7    680069.053 6                    529919.434 7        72.000          27.000          54.000                  
G10  24288885.698    24288886.223    24288890.733                    -1751953.141 7  -1751953.147 6                  -1365161.530 8        92.000          31.000         105.000                  
G12  20319964.568    20319964.031    20319963.804                   -23381428.511 9 -23381428.512 9                 -18219295.060 9       644.000         989.000        1315.000                  
G19  24634276.257    24634274.646    24634273.938                      856825.688 7    856825.703 6                    667652.029 6        85.000          23.000          21.000                  
G24  23070735.941    23070735.361    23070738.717                   -10237580.267 8 -10237580.272 8                  -7977333.827 9       207.000         105.000         540.000                  
G25  18899349.473    18899348.630    18899352.112                   -27959032.315 9 -27959032.315 9                 -21786260.394 9       866.000        1825.000        2305.000                  
G28  22094427.338    22094427.203    22094427.866                   -14913980.640 8 -14913980.632 8                 -11621284.116 8       287.000         105.000         255.000                  
G29  23312254.101    23312253.588    23312254.821                    -8145288.337 8  -8145288.343 7                  -6346977.252 8       172.000          76.000         181.000                  
G31  25191601.062    25191601.117    25191603.647                     2882599.921 7   2882599.892 6                   2246178.068 6        53.000          19.000          27.000                  
G32  20260508.062    20260507.791    20260510.391                   -25493274.929 9 -25493274.930 9                 -19864889.584 9       953.000        2267.000        2111.000                  
> 2024 10 31 05 30 40.0000000  0  9
G06  25054011.140    25054009.486    25054014.047                      833857.000 7    833856.967 6                    649754.153 7        72.000          29.000          54.000                  
G10  24271623.081    24271623.771    24271628.297                    -1842668.257 7  -1842668.248 6                  -1435848.622 8        96.000          30.000         109.000                  
G12  20336149.921    20336149.460    20336149.147                   -23296373.887 9 -23296373.888 9                 -18153018.743 9       647.000         984.000        1326.000                  
G19  24691267.391    24691265.738    24691264.132                     1156316.273 7   1156316.281 6                    901021.209 6        83.000          17.000          24.000                  
G24  23040357.529    23040357.381    23040360.475                   -10397219.481 8 -10397219.486 8                  -8101728.026 9       206.000         110.000         532.000                  
G25  18893556.877    18893556.104    18893559.634                   -27989472.229 9 -27989472.229 9                 -21809979.816 9       867.000        1805.000        2392.000                  
G28  22126609.083    22126608.738    22126609.133                   -14744866.568 8 -14744866.564 8                 -11489506.953 8       287.000         105.000         267.000                  
G29  23236409.594    23236408.496    23236409.650                    -8543857.017 8  -8543857.015 7                  -6657550.197 8       189.000          87.000         195.000                  
G32  20268875.953    20268875.618    20268878.091                   -25449302.238 9 -25449302.240 9                 -19830625.148 9       944.000        2225.000        2061.000                  
> 2024 10 31 05 30 50.0000000  0  9
G06  25083734.523    25083732.368    25083737.263                      990052.377 7    990052.371 6                    771464.769 7        75.000          28.000          59.000                  
G10  24254483.349    24254481.202    24254486.661                    -1932748.913 7  -1932748.908 6                  -1506041.334 8       100.000          27.000         112.000                  
G12  20353290.166    20353289.677    20353289.474                   -23206301.175 9 -23206301.177 9                 -18082832.240 9       647.000         990.000        1296.000                  
G19  24748558.964    24748554.141    24748552.852                     1457375.111 7   1457375.128 6                   1135612.434 6        78.000          20.000          21.000                  
G24  23010384.840    23010384.196    23010387.496                   -10554728.059 8 -10554728.056 8                  -8224461.990 9       202.000         105.000         513.000                  
G25  18888884.414    18888883.702    18888887.132                   -28014026.128 9 -28014026.129 9                 -21829112.737 9       880.000        1859.000        2428.000                  
G28  22159308.473    22159307.684    22159308.282                   -14573031.971 8 -14573031.970 8                 -11355609.903 8       285.000         103.000         269.000                  
G29  23160936.484    23160936.117    23160937.179                    -8940467.659 8  -8940467.670 7                  -6966597.400 8       202.000          91.000         227.000                  
G32  20277909.815    20277909.553    20277912.089                   -25401828.277 9 -25401828.278 9                 -19793632.454 9       929.000        2163.000        1998.000                  
> 2024 10 31 05 31  0.0000000  0  9
G06  25113907.375    25113906.716    25113911.271                     1148616.421 7   1148616.406 6                    895021.113 7        73.000          23.000          56.000                  
G10  24237459.534    24237459.373    24237464.445                    -2022201.353 7  -2022201.340 6                  -1575744.520 8        98.000          34.000         104.000                  
G12  20371377.171    20371376.787    20371376.545                   -23111252.756 9 -23111252.758 9                 -18008768.555 9       650.000         979.000        1254.000                  
G19  24806133.524    24806130.108    24806129.932                     1759936.154 7   1759936.190 6                   1371374.142 6        71.000          19.000          24.000                  
G24  22980817.709    22980817.352    22980820.589                   -10710102.953 8 -10710102.958 7                  -8345533.346 9       200.000          97.000         501.000                  
G25  18885331.228    18885330.517    18885333.945                   -28032698.050 9 -28032698.050 9                 -21843662.293 9       882.000        1886.000        2432.000                  
G28  22192518.245    22192518.071    22192518.610                   -14398511.138 8 -14398511.140 8                 -11219619.681 8       282.000         103.000         274.000                  
G29  23085847.228    23085846.947    23085848.177                    -9335062.461 8  -9335062.464 7                  -7274073.814 8       210.000          94.000         254.000                  
G32  20287606.295    20287605.918    20287608.490                   -25350873.410 9 -25350873.411 9                 -19753927.373 9       912.000        2088.000        2004.000                  
> 2024 10 31 05 31 10.0000000  0  9
G06  25144532.338    25144529.424    25144533.683                     1309539.615 7   1309539.603 6                   1020415.751 7        74.000          25.000          56.000                  
G10  24220561.422    24220561.036    24220566.028                    -2111002.142 7  -2111002.152 6                  -1644939.941 8       100.000          29.000         111.000                  
G12  20390408.562    20390408.123    20390407.886                   -23011242.656 9 -23011242.657 9                 -17930838.630 9       649.000         997.000        1229.000                  
G19  24863989.464    24863984.340    24863984.871                     2063963.140 7   2063963.152 6                   1608278.218 6        72.000          19.000          23.000                  
G24  22951663.028    22951662.753    22951665.974                   -10863311.743 8 -10863311.749 8                  -8464916.830 9       199.000         105.000         502.000                  
G25  18882902.061    18882901.192    18882904.671                   -28045464.154 9 -28045464.155 9                 -21853609.913 9       884.000        1881.000        2429.000                  
G28  22226238.772    22226238.486    22226238.925                   -14221309.079 8 -14221309.082 7                 -11081540.191 8       273.000          93.000         272.000                  
G29  23011159.050    23011158.564    23011159.449                    -9727553.596 8  -9727553.599 8                  -7579911.009 8       220.000         114.000         277.000                  
G32  20297966.633    20297966.430    20297968.951                   -25296428.941 9 -25296428.942 9                 -19711503.127 9       916.000        2104.000        2027.000                  
> 2024 10 31 05 31 20.0000000  0  9
G06  25175592.660    25175593.878    25175598.342                     1472784.745 7   1472784.741 6                   1147619.682 7        67.000          28.000          55.000                  
G10  24203787.761    24203786.397    24203791.449                    -2199155.111 8  -2199155.123 6                  -1713630.568 8       104.000          34.000         105.000                  
G12  20410376.123    20410375.569    20410375.264                   -22906313.342 9 -22906313.344 9                 -17849075.550 9       652.000        1008.000        1203.000                  
G19  24922110.676    24922104.844    24922105.660                     2369392.742 7   2369392.739 6                   1846275.212 6        66.000          18.000          21.000                  
G24  22922922.043    22922920.997    22922924.344                   -11014349.520 8 -11014349.520 8                  -8582608.615 8       200.000         102.000         500.000                  
G25  18881595.526    18881594.823    18881598.213                   -28052329.641 9 -28052329.641 9                 -21858959.650 9       884.000        1892.000        2370.000                  
G28  22260463.111    22260462.744    22260463.448                   -14041458.489 8 -14041458.484 7                 -10941396.912 8       263.000          84.000         276.000                  
G29  22936882.210    22936881.967    22936882.724                   -10117880.156 8 -10117880.158 8                  -7884061.520 8       236.000         121.000         301.000                  
G32  20308987.461    20308987.200    20308989.834                   -25238514.077 9 -25238514.079 9                 -19666374.681 9       911.000        2069.000        2023.000                  
> 2024 10 31 05 31 30.0000000  0  9
G06  25207094.570    25207094.220    25207098.616                     1638319.663 7   1638319.684 6                   1276607.859 7        68.000          23.000          55.000                  
G10  24187135.044    24187135.213    24187139.300                    -2286658.593 8  -2286658.565 6                  -1781815.101 8       110.000          38.000         106.000                  
G12  20431272.244    20431271.775    20431271.527                   -22796503.265 9 -22796503.267 9                 -17763509.276 9       651.000        1017.000        1194.000                  
G19  24980483.765    24980482.124    24980484.349                     2676167.161 7   2676167.137 6                   2085320.059 6        64.000          25.000          25.000                  
G24  22894595.319    22894594.924    22894597.945                   -11163206.206 8 -11163206.215 7                  -8698600.847 8       199.000          95.000         498.000                  
G25  18881411.464    18881410.896    18881414.314                   -28053295.977 9 -28053295.977 9                 -21859712.644 9       875.000        1843.000        2258.000                  
G28  22295186.191    22295185.780    22295186.665                   -13858986.882 8 -13858986.881 7                 -10799211.297 8       254.000          86.000         270.000                  
G29  22863030.335    22863029.761    22863030.717                   -10505975.361 8 -10505975.364 8                  -8186473.317 8       250.000         139.000         323.000                  
G32  20320665.922    20320665.715    20320668.378                   -25177143.098 9 -25177143.099 9                 -19618553.159 9       911.000        2086.000        2043.000                  
> 2024 10 31 05 31 40.0000000  0  9
G06  25239028.562    25239028.137    25239032.769                     1806132.669 7   1806132.662 6                   1407371.185 7        65.000          24.000          54.000                  
G10  24170611.379    24170611.680    24170616.267                    -2373490.063 8  -2373490.053 6                  -1849475.996 8       106.000          32.000         105.000                  
G12  20453093.607    20453093.201    20453092.918                   -22681831.015 9 -22681831.017 9                 -17674154.299 9       639.000         965.000        1207.000                  
G19  25039112.186    25039108.750    25039109.573                     2984249.558 7   2984249.572 6                   2325384.110 6        62.000          20.000          19.000                  
G24  22866689.376    22866689.099    22866692.417                   -11309851.137 8 -11309851.139 7                  -8812869.633 9       198.000          95.000         502.000                  
G25  18882353.702    18882352.958    18882356.396                   -28048345.625 9 -28048345.626 9                 -21855855.241 9       869.000        1826.000        2180.000                  
G28  22330407.182    22330406.516    22330407.418                   -13673901.303 8 -13673901.298 7                 -10654988.822 8       246.000          77.000         287.000                  
G29  22789619.603    22789619.081    22789620.082                   -10891751.316 8 -10891751.318 8                  -8487077.911 8       270.000         167.000         344.000                  
G32  20333003.403    20333003.088    20333005.718                   -25112310.097 9 -25112310.099 9                 -19568033.961 9       917.000        2096.000        2053.000                  
> 2024 10 31 05 31 50.0000000  0  9
G06  25271389.978    25271388.139    25271392.505                     1976185.640 7   1976185.648 6                   1539879.909 7        65.000          28.000          53.000                  
G10  24154215.863    24154215.023    24154219.720                    -2459652.988 8  -2459652.998 6                  -1916615.939 8       107.000          35.000         113.000                  
G12  20475831.639    20475831.208    20475830.984                   -22562342.167 9 -22562342.169 9                 -17581046.133 9       632.000         937.000        1207.000                  
G19  25097975.373    25097972.773    25097974.809                     3293577.115 7   3293577.110 6                   2566418.523 6        66.000          19.000          20.000                  
G24  22839205.529    22839205.249    22839208.456                   -11454279.996 8 -11454279.994 8                  -8925411.612 9       199.000         103.000         514.000                  
G25  18884419.722    18884418.881    18884422.367                   -28037488.788 9 -28037488.789 9                 -21847395.378 9       856.000        1777.000        2101.000                  
G28  22366118.298    22366118.174    22366119.168                   -13486235.169 8 -13486235.170 7                 -10508755.513 8       241.000          83.000         283.000                  
G29  22716661.817    22716661.328    22716662.583                   -11275145.836 8 -11275145.836 8                  -8785826.846 8       283.000         178.000         370.000                  
G32  20345995.557    20345995.289    20345997.955                   -25044035.772 9 -25044035.774 9                 -19514833.214 9       914.000        2100.000        2058.000                  
> 2024 10 31 05 32  0.0000000  0  9
G06  25304167.365    25304167.503    25304172.066                     2148445.043 7   2148445.050 6                   1674107.959 6        63.000          21.000          44.000                  
G10  24137948.280    24137946.345    24137951.328                    -2545145.853 8  -2545145.857 6                  -1983233.774 8       113.000          39.000         107.000                  
G12  20499478.129    20499477.645    20499477.563                   -22438078.810 9 -22438078.811 9                 -17484217.571 9       623.000         927.000        1206.000                  
G19  25157064.296    25157062.104    25157062.087                     3604092.147 7   3604092.140 6                   2808378.113 6        63.000          22.000          18.000                  
G24  22812144.907    22812144.746    22812147.988                   -11596483.763 8 -11596483.766 7                  -9036219.755 9       203.000          99.000         514.000                  
G25  18887608.241    18887607.508    18887610.964                   -28020732.518 9 -28020732.519 9                 -21834338.552 9       850.000        1753.000        2050.000                  
G28  22402316.273    22402315.478    22402316.630                   -13296017.266 8 -13296017.275 7                 -10360533.822 8       243.000          72.000         284.000                  
G29  22644170.112    22644169.578    22644170.833                   -11656091.520 8 -11656091.522 8                  -9082667.599 8       289.000         193.000         387.000                  
G32  20359639.450    20359639.228    20359641.885                   -24972336.422 9 -24972336.423 9                 -19458963.619 9       911.000        2075.000        2091.000                  
> 2024 10 31 05 32 10.0000000  0  9
G06  25337368.504    25337365.046    25337369.960                     2322897.913 7   2322897.927 6                   1810045.163 6        58.000          20.000          37.000                  
G10  24121810.139    24121809.923    24121814.088                    -2629945.910 8  -2629945.934 6                  -2049311.752 8       113.000          33.000         110.000                  
G12  20524029.021    20524028.628    20524028.482                   -22309062.710 9 -22309062.711 9                 -17383685.573 9       614.000         886.000        1181.000                  
G19  25216373.250    25216369.295    25216367.431                     3915758.395 7   3915758.368 6                   3051234.726 6        59.000          20.000          23.000                  
G24  22785513.530    22785513.191    22785516.710                   -11736432.467 8 -11736432.471 8                  -9145270.705 9       203.000         108.000         516.000                  
G25  18891921.731    18891921.135    18891924.578                   -27998064.431 9 -27998064.432 9                 -21816675.119 9       845.000        1738.000        2074.000                  
G28  22438997.581    22438996.677    22438997.794                   -13103255.456 8 -13103255.462 7                 -10210329.856 8       242.000          74.000         280.000                  
G29  22572161.371    22572160.795    22572161.940                   -12034499.374 8 -12034499.376 8                  -9377530.823 8       296.000         202.000         420.000                  
G32  20373935.875    20373935.617    20373938.518                   -24897207.758 9 -24897207.760 9                 -19400421.827 9       898.000        2030.000        2147.000                  
> 2024 10 31 05 32 20.0000000  0  9
G06  25370974.432    25370971.878    25370976.493                     2499505.467 7   2499505.449 6                   1947661.340 6        55.000          25.000          46.000                  
G10  24105804.720    24105804.529    24105808.519                    -2714056.484 8  -2714056.480 6                  -2114852.454 8       115.000          35.000         104.000                  
G12  20549475.035    20549474.687    20549474.545                   -22175342.823 9 -22175342.826 9                 -17279488.288 9       612.000         884.000        1151.000                  
G19  25275887.635    25275884.825    25275885.757                     4228513.570 7   4228513.582 6                   3294940.891 6        63.000          21.000          19.000                  
G24  22759311.832    22759311.858    22759315.015                   -11874122.584 8 -11874122.582 8                  -9252561.715 9       209.000         111.000         515.000                  
G25  18897357.592    18897356.710    18897360.245                   -27969500.017 9 -27969500.018 9                 -21794417.157 9       848.000        1744.000        2094.000                  
G28  22476156.045    22476156.180    22476157.046                   -12907984.047 8 -12907984.050 7                 -10058170.363 8       240.000          74.000         275.000                  
G29  22500647.409    22500647.027    22500648.345                   -12410306.180 8 -12410306.178 8                  -9670367.251 8       306.000         202.000         459.000                  
G32  20388880.876    20388880.555    20388883.377                   -24818672.150 9 -24818672.152 9                 -19339225.276 9       903.000        2052.000        2130.000                  
> 2024 10 31 05 32 30.0000000  0  9
G06  25404988.686    25404983.649    25404987.909                     2678233.052 7   2678233.066 6                   2086929.503 6        51.000          23.000          40.000                  
G10  24089929.824    24089929.719    24089934.456                    -2797476.124 8  -2797476.115 6                  -2179854.777 8       117.000          42.000         104.000                  
G12  20575807.858    20575807.346    20575807.106                   -22036964.355 9 -22036964.357 9                 -17171660.938 9       611.000         884.000        1140.000                  
G19  25335598.940    25335597.485    25335596.713                     4542300.343 7   4542300.370 6                   3539449.876 6        64.000          24.000          18.000                  
G24  22733542.244    22733541.665    22733544.882                   -12009546.047 8 -12009546.047 8                  -9358086.502 9       215.000         118.000         504.000                  
G25  18903912.744    18903912.076    18903915.515                   -27935051.782 9 -27935051.783 9                 -21767574.403 9       852.000        1775.000        2156.000                  
G28  22513787.083    22513786.819    22513787.981                   -12710232.851 8 -12710232.855 7                  -9904078.572 8       238.000          75.000         286.000                  
G29  22429641.835    22429641.470    22429642.543                   -12783443.702 8 -12783443.706 8                  -9961123.719 8       311.000         217.000         498.000                  
G32  20404470.686    20404470.386    20404473.065                   -24736747.738 9 -24736747.740 9                 -19275388.101 9       891.000        1987.000        2100.000                  
> 2024 10 31 05 32 40.0000000  0  8
G10  24074191.556    24074191.204    24074195.937                    -2880181.505 8  -2880181.517 6                  -2244300.522 8       116.000          39.000         107.000                  
G12  20603022.245    20603021.700    20603021.518                   -21893951.712 9 -21893951.713 9                 -17060222.539 9       606.000         879.000        1108.000                  
G19  25395501.219    25395499.282    25395501.789                     4857083.447 7   4857083.432 6                   3784730.520 6        61.000          17.000          19.000                  
G24  22708208.561    22708208.374    22708211.643                   -12142673.341 8 -12142673.339 8                  -9461822.067 9       218.000         121.000         503.000                  
G25  18911589.135    18911588.431    18911591.998                   -27894712.053 9 -27894712.054 9                 -21736140.864 9       851.000        1755.000        2294.000                  
G28  22551888.803    22551887.961    22551889.179                   -12510010.165 8 -12510010.156 7                  -9748060.946 8       238.000          69.000         278.000                  
G29  22359161.499    22359160.941    22359161.887                   -13153821.634 8 -13153821.635 8                 -10249729.859 9       320.000         234.000         528.000                  
G32  20420705.749    20420705.467    20420708.236                   -24651431.394 9 -24651431.396 9                 -19208907.866 9       855.000        1850.000        2064.000                  
> 2024 10 31 05 32 50.0000000  0  8
G10  24058587.207    24058587.715    24058591.342                    -2962182.036 8  -2962182.023 6                  -2308197.052 8       116.000          38.000         105.000                  
G12  20631107.468    20631106.990    20631106.602                   -21746362.963 9 -21746362.964 9                 -16945218.352 9       610.000         875.000        1047.000                  
G19  25455579.515    25455576.918    25455577.249                     5172794.662 7   5172794.680 6                   4030737.635 6        58.000          18.000          19.000                  
G24  22683311.726    22683311.510    22683314.604                   -12273507.910 8 -12273507.910 8                  -9563771.097 8       221.000         126.000         494.000                  
G25  18920381.664    18920380.860    18920384.427                   -27848507.764 9 -27848507.765 9                 -21700137.531 9       848.000        1736.000        2411.000                  
G28  22590451.794    22590451.490    22590452.483                   -12307357.311 8 -12307357.311 7                  -9590149.692 8       238.000          77.000         260.000                  
G29  22289216.948    22289216.159    22289217.448                   -13521382.276 8 -13521382.277 8                 -10536140.714 9       329.000         248.000         557.000                  
G32  20437580.528    20437580.400    20437583.179                   -24562753.312 9 -24562753.314 9                 -19139808.099 9       850.000        1791.000        1979.000                  
> 2024 10 31 05 33  0.0000000  0  8
G10  24043120.144    24043120.340    24043124.960                    -3043461.929 8  -3043461.924 6                  -2371532.032 8       123.000          35.000         112.000                  
G12  20660057.086    20660056.557    20660056.204                   -21594232.000 9 -21594232.002 9                 -16826674.775 9       604.000         867.000        1025.000                  
G19  25515825.397    25515823.441    25515824.215                     5489392.432 7   5489392.457 6                   4277437.117 6        55.000          22.000          20.000                  
G24  22658854.953    22658854.824    22658857.911                   -12402028.385 8 -12402028.388 8                  -9663916.939 8       228.000         125.000         490.000                  
G25  18930289.331    18930288.507    18930292.156                   -27796442.363 9 -27796442.364 9                 -21659567.098 9       833.000        1679.000        2467.000                  
G28  22629475.317    22629474.555    22629475.482                   -12102290.694 8 -12102290.697 7                  -9430357.576 8       234.000          71.000         247.000                  
G29  22219824.349    22219823.770    22219824.922                   -13886042.436 8 -13886042.434 8                 -10820291.452 9       346.000         275.000         610.000                  
G32  20455094.274    20455093.938    20455096.708                   -24470719.042 9 -24470719.043 9                 -19068093.118 9       829.000        1741.000        1861.000                  
> 2024 10 31 05 33 10.0000000  0  8
G10  24027793.271    24027792.962    24027797.398                    -3124007.853 8  -3124007.854 6                  -2434295.097 8       124.000          38.000         114.000                  
G12  20689863.569    20689863.201    20689862.969                   -21437596.212 9 -21437596.214 9                 -16704620.946 9       596.000         841.000         982.000                  
G19  25576230.757    25576229.320    25576229.522                     5806831.524 7   5806831.529 6                   4524790.402 6        52.000          20.000          21.000                  
G24  22634842.630    22634842.251    22634845.304                   -12528216.184 8 -12528216.185 8                  -9762245.108 9       228.000         120.000         502.000                  
G25  18941310.940    18941310.102    18941313.747                   -27738523.571 9 -27738523.572 9                 -21614435.587 9       818.000        1626.000        2503.000                  
G28  22668953.748    22668952.819    22668954.124                   -11894829.519 8 -11894829.520 7                  -9268699.578 8       228.000          69.000         238.000                  
G29  22150999.195    22150998.526    22150999.669                   -14247721.244 8 -14247721.246 8                 -11102119.060 9       364.000         299.000         661.000                  
G32  20473244.853    20473244.495    20473247.316                   -24375337.199 9 -24375337.201 9                 -18993769.632 9       818.000        1676.000        1777.000                  
> 2024 10 31 05 33 20.0000000  0  8
G10  24012603.937    24012604.021    24012607.790                    -3203828.568 8  -3203828.553 6                  -2496493.054 8       128.000          40.000         115.000                  
G12  20720516.399    20720515.965    20720515.586                   -21276515.790 9 -21276515.792 9                 -16579103.766 9       590.000         828.000         945.000                  
G19  25636788.777    25636783.095    25636784.996                     6125044.622 7   6125044.614 6                   4772744.023 6        52.000          20.000          17.000                  
G24  22611273.782    22611272.733    22611275.642                   -12652075.150 8 -12652075.151 8                  -9858758.598 8       227.000         119.000         491.000                  
G25  18953440.194    18953439.557    18953443.176                   -27674782.896 9 -27674782.898 9                 -21564767.547 9       804.000        1563.000        2433.000                  
G28  22708879.794    22708879.279    22708880.472                   -11685015.356 8 -11685015.358 7                  -9105208.086 8       226.000          67.000         225.000                  
G29  22082752.602    22082751.950    22082752.928                   -14606359.887 8 -14606359.889 8                 -11381577.707 9       382.000         335.000         708.000                  
G32  20492026.465    20492026.195    20492029.014                   -24276639.007 9 -24276639.009 9                 -18916861.978 9       815.000        1679.000        1704.000                  
> 2024 10 31 05 33 30.0000000  0  7
G10  23997555.788    23997556.121    23997560.553                    -3282904.003 8  -3282903.992 6                  -2558110.276 8       128.000          47.000         117.000                  
G12  20752008.660    20752008.122    20752007.936                   -21111023.057 9 -21111023.059 9                 -16450148.425 9       586.000         810.000         958.000                  
G24  22588150.840    22588151.041    22588153.876                   -12773580.621 8 -12773580.623 8                  -9953438.205 8       225.000         126.000         478.000                  
G25  18966676.823    18966676.037    18966679.682                   -27605224.696 9 -27605224.697 9                 -21510566.372 9       780.000        1469.000        2346.000                  
G28  22749251.492    22749250.822    22749252.283                   -11472861.139 8 -11472861.145 7                  -8939893.168 8       221.000          66.000         215.000                  
G29  22015101.152    22015100.433    22015101.570                   -14961870.504 8 -14961870.507 8                 -11658598.933 9       396.000         347.000         781.000                  
G32  20511438.681    20511438.396    20511441.126                   -24174627.402 9 -24174627.402 9                 -18837372.451 9       821.000        1681.000        1680.000                  
> 2024 10 31 05 33 40.0000000  0  7
G10  23982652.478    23982652.009    23982656.058                    -3361226.493 8  -3361226.489 6                  -2619140.792 8       132.000          42.000         117.000                  
G12  20784331.866    20784331.283    20784331.087                   -20941163.844 9 -20941163.845 9                 -16317790.633 9       574.000         776.000         931.000                  
G24  22565479.541    22565478.972    22565482.239                   -12892720.659 8 -12892720.658 8                 -10046274.613 8       228.000         122.000         470.000                  
G25  18981016.923    18981016.000    18981019.665                   -27529867.465 9 -27529867.466 9                 -21451846.473 9       770.000        1446.000        2248.000                  
G28  22790063.554    22790063.056    22790063.964                   -11258392.550 8 -11258392.538 7                  -8772774.844 8       219.000          57.000         209.000                  
G29  21948059.203    21948058.686    21948059.816                   -15314177.369 8 -15314177.370 8                 -11933123.730 9       403.000         354.000         855.000                  
G32  20531478.405    20531478.159    20531480.806                   -24069318.260 9 -24069318.262 9                 -18755313.419 9       822.000        1704.000        1635.000                  
> 2024 10 31 05 33 50.0000000  0  7
G10  23967890.864    23967890.188    23967894.337                    -3438800.292 8  -3438800.280 6                  -2679587.913 8       134.000          44.000         119.000                  
G12  20817474.601    20817474.254    20817474.054                   -20766996.634 9 -20766996.635 9                 -16182075.952 9       574.000         775.000         906.000                  
G24  22543257.202    22543257.819    22543260.829                   -13009495.634 8 -13009495.639 8                 -10137268.118 8       228.000         126.000         467.000                  
G25  18996454.302    18996453.460    18996457.086                   -27448743.329 9 -27448743.330 9                 -21388632.878 9       767.000        1426.000        2153.000                  
G28  22831308.542    22831308.307    22831309.375                   -11041647.453 8 -11041647.443 7                  -8603882.617 8       215.000          60.000         201.000                  
G29  21881639.212    21881638.590    21881639.840                   -15663216.992 8 -15663216.994 8                 -12205102.628 9       413.000         380.000         923.000                  
G32  20552140.028    20552139.794    20552142.606                   -23960739.899 9 -23960739.900 9                 -18670706.937 9       810.000        1651.000        1638.000                  
> 2024 10 31 05 34  0.0000000  0  7
G10  23953275.389    23953274.748    23953279.405                    -3515603.952 8  -3515603.938 6                  -2739434.928 8       138.000          47.000         125.000                  
G12  20851431.132    20851430.724    20851430.442                   -20588554.894 9 -20588554.896 9                 -16043030.477 9       571.000         778.000         905.000                  
G24  22521491.448    22521491.046    22521494.098                   -13123880.510 8 -13123880.509 8                 -10226399.206 8       229.000         129.000         461.000                  
G25  19012987.539    19012986.773    19012990.418                   -27361860.342 9 -27361860.343 9                 -21320931.873 9       770.000        1441.000        2053.000                  
G28  22872984.852    22872984.752    22872985.443                   -10822638.235 8 -10822638.236 7                  -8433226.157 8       209.000          61.000         197.000                  
G29  21815857.987    21815857.334    21815858.557                   -16008899.924 8 -16008899.924 8                 -12474465.926 9       419.000         394.000         964.000                  
G32  20573423.304    20573423.077    20573425.841                   -23848895.494 9 -23848895.495 9                 -18583555.490 9       821.000        1698.000        1582.000                  
> 2024 10 31 05 34 10.0000000  0  7
G10  23938804.632    23938804.589    23938808.878                    -3591645.678 8  -3591645.693 7                  -2798688.226 8       140.000          56.000         125.000                  
G12  20886188.640    20886188.354    20886188.110                   -20405902.450 9 -20405902.451 9                 -15900703.933 9       559.000         742.000         886.000                  
G24  22500178.591    22500178.242    22500181.281                   -13235880.338 8 -13235880.343 8                 -10313671.816 8       227.000         129.000         449.000                  
G25  19030609.241    19030608.451    19030612.104                   -27269257.941 9 -27269257.942 9                 -21248774.179 9       777.000        1464.000        2015.000                  
G28  22915084.161    22915083.471    22915084.428                   -10601407.184 8 -10601407.189 7                  -8260838.383 8       208.000          57.000         183.000                  
G29  21750726.731    21750726.116    21750727.282                   -16351166.276 8 -16351166.278 8                 -12741166.960 9       417.000         384.000        1004.000                  
G32  20595322.122    20595321.800    20595324.347                   -23733818.384 9 -23733818.385 9                 -18493885.048 9       868.000        1882.000        1580.000                  
> 2024 10 31 05 34 20.0000000  0  7
G10  23924483.266    23924482.482    23924486.744                    -3666908.586 8  -3666908.585 7                  -2857334.656 8       143.000          54.000         123.000                  
G12  20921739.941    20921739.660    20921739.544                   -20219078.703 9 -20219078.705 9                 -15755127.026 9       544.000         714.000         844.000                  
G24  22479322.891    22479322.884    22479325.980                   -13345475.273 8 -13345475.273 8                 -10399070.481 8       225.000         127.000         440.000                  
G25  19049316.376    19049315.503    19049319.069                   -27170951.956 9 -27170951.957 9                 -21172172.132 9       782.000        1488.000        1995.000                  
G28  22957601.946    22957601.573    22957602.959                   -10377971.665 8 -10377971.663 7                  -8086732.839 8       200.000          56.000         179.000                  
G29  21686261.840    21686261.141    21686262.498                   -16689931.111 8 -16689931.113 8                 -13005139.540 9       407.000         370.000        1031.000                  
G32  20617834.038    20617833.760    20617836.428                   -23615517.234 9 -23615517.235 9                 -18401702.368 9       871.000        1910.000        1636.000                  
> 2024 10 31 05 34 30.0000000  0  7
G10  23910312.010    23910311.228    23910316.132                    -3741378.497 8  -3741378.501 7                  -2915363.165 8       146.000          56.000         126.000                  
G12  20958077.104    20958076.642    20958076.584                   -20028126.736 9 -20028126.738 9                 -15606333.324 9       536.000         691.000         787.000                  
G24  22458928.314    22458928.486    22458931.597                   -13452648.690 8 -13452648.697 8                 -10482582.253 8       228.000         129.000         439.000                  
G25  19069104.952    19069104.113    19069107.546                   -27066962.641 9 -27066962.642 9                 -21091141.519 9       794.000        1541.000        1995.000                  
G28  23000536.722    23000535.542    23000536.891                   -10152352.052 8 -10152352.057 7                  -7910925.408 8       196.000          51.000         166.000                  
G29  21622478.788    21622478.216    21622479.643                   -17025112.216 8 -17025112.216 8                 -13266319.602 9       399.000         360.000        1021.000                  
G32  20640957.243    20640956.960    20640959.755                   -23494003.990 9 -23494003.992 9                 -18307016.765 9       867.000        1891.000        1695.000                  
> 2024 10 31 05 34 40.0000000  0  7
G10  23896290.071    23896289.303    23896293.807                    -3815064.030 8  -3815064.027 7                  -2972780.469 8       146.000          61.000         123.000                  
G12  20995186.936    20995186.472    20995186.298                   -19833113.189 9 -19833113.190 9                 -15454374.756 9       519.000         648.000         739.000                  
G24  22438994.309    22438993.681    22438996.741                   -13557407.051 8 -13557407.049 8                 -10564212.161 8       232.000         132.000         455.000                  
G25  19089966.316    19089965.661    19089969.177                   -26957334.592 9 -26957334.593 9                 -21005717.090 9       804.000        1573.000        2024.000                  
G28  23043877.947    23043876.871    23043878.224                    -9924591.753 8  -9924591.763 7                  -7733449.912 8       189.000          54.000         161.000                  
G29  21559388.998    21559388.548    21559389.917                   -17356650.382 8 -17356650.385 8                 -13524661.015 9       404.000         366.000         997.000                  
G32  20664684.937    20664684.828    20664687.490                   -23369313.888 9 -23369313.888 9                 -18209855.687 9       862.000        1855.000        1684.000                  
> 2024 10 31 05 34 50.0000000  0  7
G10  23882420.400    23882420.244    23882424.757                    -3887948.330 8  -3887948.315 7                  -3029573.434 8       149.000          60.000         128.000                  
G12  21033061.892    21033061.369    21033061.119                   -19634079.630 9 -19634079.632 9                 -15299283.712 9       511.000         623.000         681.000                  
G24  22419521.821    22419522.034    22419525.157                   -13659731.651 8 -13659731.653 8                 -10643945.635 8       228.000         127.000         468.000                  
G25  19111896.941    19111896.240    19111899.853                   -26842088.392 9 -26842088.393 9                 -20915914.882 9       808.000        1575.000        2071.000                  
G28  23087622.259    23087622.401    23087623.491                    -9694708.803 8  -9694708.805 7                  -7554320.409 8       189.000          52.000         153.000                  
G29  21497008.950    21497008.409    21497009.576                   -17684460.934 8 -17684460.936 8                 -13780097.789 9       424.000         396.000         969.000                  
G32  20689015.503    20689015.106    20689017.831                   -23241457.075 9 -23241457.076 9                 -18110227.041 9       838.000        1779.000        1696.000                  
> 2024 10 31 05 35  0.0000000  0  7
G10  23868706.369    23868705.962    23868710.233                    -3960017.084 8  -3960017.077 7                  -3085730.919 8       153.000          62.000         126.000                  
G12  21071693.101    21071692.729    21071692.436                   -19431070.850 8 -19431070.852 9                 -15141095.100 9       500.000         599.000         656.000                  
G24  22400516.624    22400516.114    22400519.496                   -13759606.784 8 -13759606.787 8                 -10721770.435 8       229.000         126.000         487.000                  
G25  19134891.992    19134891.381    19134894.822                   -26721248.853 9 -26721248.854 9                 -20821754.231 9       821.000        1626.000        2069.000                  
G28  23131768.636    23131767.480    23131768.718                    -9462724.088 8  -9462724.082 6                  -7373553.174 8       189.000          46.000         144.000                  
G29  21435353.689    21435353.043    21435354.093                   -18008461.926 8 -18008461.927 8                 -14032566.069 9       453.000         452.000         974.000                  
G32  20713945.761    20713945.530    20713948.338                   -23110446.816 9 -23110446.817 9                 -18008141.163 9       822.000        1696.000        1700.000                  
> 2024 10 31 05 35 10.0000000  0  7
G10  23855145.702    23855145.328    23855149.441                    -4031279.009 8  -4031279.012 7                  -3141259.709 8       156.000          60.000         123.000                  
G12  21111068.108    21111067.416    21111067.241                   -19224155.225 8 -19224155.227 9                 -14979862.190 9       484.000         555.000         634.000                  
G24  22381975.357    22381975.408    22381978.672                   -13857040.057 8 -13857040.061 8                 -10797692.484 9       230.000         137.000         501.000                  
G25  19158942.270    19158941.419    19158944.866                   -26594865.183 9 -26594865.183 9                 -20723273.482 9       820.000        1639.000        2030.000                  
G28  23176304.660    23176304.580    23176305.480                    -9228681.626 8  -9228681.630 6                  -7191182.500 8       185.000          50.000         148.000                  
G29  21374434.573    21374434.124    21374434.929                   -18328594.464 8 -18328594.464 9                 -14282019.969 9       485.000         517.000         975.000                  
G32  20739469.397    20739469.129    20739471.899                   -22976319.777 9 -22976319.778 9                 -17903626.632 9       807.000        1634.000        1683.000                  
> 2024 10 31 05 35 20.0000000  0  7
G10  23841742.011    23841741.165    23841745.671                    -4101716.950 8  -4101716.951 7                  -3196146.444 8       150.000          60.000         128.000                  
G12  21151177.663    21151177.379    21151177.195                   -19013375.956 8 -19013375.958 9                 -14815618.650 9       462.000         508.000         624.000                  
G24  22363902.394    22363902.555    22363905.802                   -13952013.594 8 -13952013.596 8                 -10871697.858 9       231.000         129.000         521.000                  
G25  19184042.533    19184041.782    19184045.159                   -26462962.227 9 -26462962.229 9                 -20620491.997 9       824.000        1633.000        1993.000                  
G28  23221230.196    23221229.687    23221230.685                    -8992599.763 8  -8992599.758 6                  -7007222.679 8       181.000          44.000         138.000                  
G29  21314267.595    21314267.086    21314267.903                   -18644773.958 9 -18644773.958 9                 -14528393.575 9       505.000         563.000         985.000                  
G32  20765583.912    20765583.652    20765586.409                   -22839087.234 9 -22839087.235 9                 -17796692.228 9       803.000        1626.000        1619.000                  
> 2024 10 31 05 35 30.0000000  0  7
G10  23828497.912    23828496.743    23828501.421                    -4171316.665 8  -4171316.654 7                  -3250380.014 8       148.000          58.000         114.000                  
G12  21192013.996    21192013.652    21192013.570                   -18798779.626 8 -18798779.627 8                 -14648400.775 9       457.000         494.000         613.000                  
G24  22346301.155    22346300.584    22346303.946                   -14044512.817 8 -14044512.819 8                 -10943775.194 9       234.000         134.000         546.000                  
G25  19210187.529    19210186.822    19210190.189                   -26325569.199 9 -26325569.199 9                 -20513432.537 9       807.000        1587.000        1932.000                  
G28  23266538.951    23266538.318    23266540.046                    -8754500.021 8  -8754500.021 6                  -6821690.506 8       186.000          49.000         135.000                  
G29  21254868.264    21254867.815    21254868.708                   -18956919.095 9 -18956919.095 9                 -14771623.531 9       527.000         611.000        1019.000                  
G32  20792286.815    20792286.413    20792289.093                   -22698763.822 9 -22698763.823 9                 -17687349.353 9       798.000        1599.000        1521.000                  
> 2024 10 31 05 35 40.0000000  0  7
G10  23815411.402    23815409.864    23815414.827                    -4240086.525 8  -4240086.533 7                  -3303966.945 8       150.000          60.000         127.000                  
G12  21233563.865    21233563.298    21233563.061                   -18580435.917 8 -18580435.917 8                 -14478262.864 9       455.000         489.000         639.000                  
G24  22329167.738    22329167.815    22329171.173                   -14134546.108 8 -14134546.114 8                 -11013931.026 9       237.000         135.000         561.000                  
G25  19237366.996    19237366.435    19237369.866                   -26182739.311 9 -26182739.311 9                 -20402136.564 9       807.000        1576.000        1909.000                  
G28  23312224.060    23312223.061    23312224.335                    -8514426.571 8  -8514426.550 6                  -6634620.379 8       186.000          46.000         131.000                  
G29  21196248.177    21196247.431    21196248.313                   -19264971.350 9 -19264971.351 9                 -15011664.229 9       546.000         660.000        1050.000                  
G32  20819570.304    20819569.950    20819572.731                   -22555387.172 9 -22555387.174 9                 -17575627.331 9       758.000        1446.000        1439.000                  
> 2024 10 31 05 35 50.0000000  0  7
G10  23802486.213    23802485.156    23802489.684                    -4308009.473 8  -4308009.482 7                  -3356893.941 8       149.000          57.000         125.000                  
G12  21275817.701    21275817.227    21275817.161                   -18358389.560 8 -18358389.561 8                 -14305239.777 9       446.000         473.000         652.000                  
G24  22312508.032    22312507.381    22312510.849                   -14222096.789 8 -14222096.789 8                 -11082152.353 9       243.000         146.000         574.000                  
G25  19265576.076    19265575.170    19265578.622                   -26034501.684 9 -26034501.686 9                 -20286626.767 9       810.000        1590.000        1837.000                  
G28  23358280.292    23358279.599    23358280.553                    -8272398.396 8  -8272398.390 6                  -6446027.091 8       189.000          38.000         124.000                  
G29  21138422.103    21138421.741    21138422.706                   -19568847.110 9 -19568847.110 9                 -15248450.515 9       549.000         670.000        1091.000                  
G32  20847432.410    20847432.167    20847434.975                   -22408969.946 9 -22408969.948 9                 -17461536.038 9       730.000        1335.000        1350.000                  
> 2024 10 31 05 36  0.0000000  0  7
G10  23789724.416    23789723.909    23789727.938                    -4375071.161 8  -4375071.159 7                  -3409149.837 8       147.000          61.000         122.000                  
G12  21318767.107    21318766.869    21318766.903                   -18132688.461 8 -18132688.461 8                 -14129368.838 9       426.000         443.000         665.000                  
G24  22296322.255    22296322.331    22296325.619                   -14307151.232 8 -14307151.234 8                 -11148428.567 9       245.000         147.000         582.000                  
G25  19294807.418    19294806.643    19294810.049                   -25880889.552 9 -25880889.552 9                 -20166929.040 9       807.000        1584.000        1780.000                  
G28  23404704.051    23404703.967    23404704.706                    -8028437.296 8  -8028437.283 6                  -6255927.626 8       186.000          49.000         124.000                  
G29  21081406.846    21081406.246    21081407.185                   -19868465.727 9 -19868465.729 9                 -15481919.550 9       551.000         674.000        1132.000                  
G32  20875870.484    20875870.280    20875872.969                   -22259527.881 9 -22259527.882 9                 -17345087.729 9       739.000        1372.000        1251.000                  
> 2024 10 31 05 36 10.0000000  0  7
G10  23777125.359    23777124.567    23777129.156                    -4441280.002 8  -4441279.998 7                  -3460741.184 8       148.000          57.000         120.000                  
G12  21362398.559    21362398.235    21362398.416                   -17903403.721 8 -17903403.722 8                 -13950705.456 9       408.000         401.000         695.000                  
G24  22280610.574    22280610.090    22280613.501                   -14389718.951 8 -14389718.955 8                 -11212767.071 9       249.000         154.000         584.000                  
G25  19325050.558    19325049.944    19325053.303                   -25721960.143 9 -25721960.144 9                 -20043087.981 9       805.000        1574.000        1733.000                  
G28  23451487.978    23451487.437    23451489.018                    -7782587.980 8  -7782587.988 6                  -6064356.840 8       186.000          49.000         125.000                  
G29  21025212.134    21025211.680    21025212.714                   -20163769.749 9 -20163769.751 9                 -15712026.565 9       560.000         696.000        1171.000                  
G32  20904876.800    20904876.411    20904879.033                   -22107099.858 9 -22107099.860 9                 -17226312.697 9       746.000        1400.000        1158.000                  
> 2024 10 31 05 36 20.0000000  0  7
G10  23764691.219    23764691.158    23764695.614                    -4506618.829 8  -4506618.822 7                  -3511654.601 8       147.000          57.000         116.000                  
G12  21406703.389    21406702.899    21406703.269                   -17670581.128 8 -17670581.130 8                 -13769285.306 9       393.000         372.000         729.000                  
G24  22265374.812    22265373.994    22265377.564                   -14469784.306 8 -14469784.307 8                 -11275155.688 9       253.000         158.000         564.000                  
G25  19356299.557    19356298.767    19356302.213                   -25557746.450 9 -25557746.451 9                 -19915129.300 9       806.000        1580.000        1725.000                  
G28  23498627.221    23498626.772    23498628.058                    -7534869.701 8  -7534869.714 6                  -5871329.713 8       184.000          40.000         125.000                  
G29  20969854.366    20969853.855    20969855.029                   -20454676.443 9 -20454676.445 9                 -15938707.098 9       575.000         731.000        1201.000                  
G32  20934448.252    20934448.095    20934450.672                   -21951699.624 9 -21951699.626 9                 -17105221.662 9       738.000        1355.000        1066.000                  
> 2024 10 31 05 36 30.0000000  0  7
G10  23752426.232    23752425.758    23752430.069                    -4571073.246 8  -4571073.243 7                  -3561878.877 8       148.000          60.000         120.000                  
G12  21451672.188    21451671.406    21451671.905                   -17434269.680 8 -17434269.680 8                 -13585146.563 9       382.000         343.000         762.000                  
G24  22250617.556    22250616.743    22250620.249                   -14547334.733 8 -14547334.730 8                 -11335584.619 9       257.000         164.000         550.000                  
G25  19388546.918    19388546.145    19388549.653                   -25388285.431 9 -25388285.432 9                 -19783081.792 9       800.000        1549.000        1775.000                  
G28  23546118.126    23546117.767    23546118.997                    -7285304.653 8  -7285304.650 6                  -5676863.549 8       185.000          46.000         122.000                  
G29  20915348.688    20915348.099    20915349.162                   -20741106.336 9 -20741106.337 9                 -16161899.214 9       603.000         803.000        1200.000                  
G32  20964582.578    20964582.222    20964584.764                   -21793344.007 9 -21793344.009 9                 -16981827.739 9       736.000        1353.000        1030.000                  
> 2024 10 31 05 36 40.0000000  0  7
G10  23740328.092    23740327.342    23740331.410                    -4634651.630 8  -4634651.621 6                  -3611420.512 8       147.000          48.000         113.000                  
G12  21497290.296    21497290.166    21497290.576                   -17194541.841 8 -17194541.842 8                 -13398345.706 9       364.000         318.000         768.000                  
G24  22236336.142    22236335.972    22236339.397                   -14622380.815 8 -14622380.815 8                 -11394062.117 9       258.000         170.000         546.000                  
G25  19421781.258    19421780.483    19421784.075                   -25213638.021 9 -25213638.023 9                 -19646992.943 9       787.000        1495.000        1856.000                  
G28  23593951.825    23593951.061    23593952.388                    -7033937.909 8  -7033937.915 6                  -5480993.480 8       180.000          44.000         111.000                  
G29  20861705.479    20861704.982    20861705.931                   -21023003.248 9 -21023003.250 9                 -16381559.139 9       644.000         919.000        1165.000                  
G32  20995271.164    20995271.107    20995273.856                   -21632073.001 9 -21632073.002 9                 -16856162.082 9       721.000        1305.000        1011.000                  
> 2024 10 31 05 36 50.0000000  0  7
G10  23728399.213    23728399.032    23728403.158                    -4697336.726 8  -4697336.725 7                  -3660266.105 8       143.000          53.000         112.000                  
G12  21543550.473    21543550.125    21543550.540                   -16951444.352 8 -16951444.354 8                 -13208919.152 9       349.000         290.000         738.000                  
G24  22222535.031    22222534.593    22222537.957                   -14694907.967 8 -14694907.970 8                 -11450576.816 9       266.000         168.000         530.000                  
G25  19455995.615    19455994.746    19455998.409                   -25033840.702 9 -25033840.702 9                 -19506891.179 9       760.000        1407.000        1939.000                  
G28  23642124.169    23642123.922    23642125.461                    -6780788.984 8  -6780788.989 6                  -5283734.691 8       178.000          43.000         106.000                  
G29  20808940.441    20808939.943    20808940.758                   -21300285.824 9 -21300285.825 9                 -16597623.473 9       677.000        1018.000        1149.000                  
G32  21026512.174    21026511.916    21026514.753                   -21467901.315 9 -21467901.316 9                 -16728236.152 9       709.000        1267.000        1010.000                  
> 2024 10 31 05 37  0.0000000  0  7
G10  23716643.660    23716642.691    23716647.898                    -4759114.104 8  -4759114.091 7                  -3708404.371 8       143.000          60.000         114.000                  
G12  21590441.914    21590441.719    21590442.245                   -16705027.152 8 -16705027.154 8                 -13016905.811 9       340.000         275.000         716.000                  
G24  22209214.962    22209214.812    22209218.012                   -14764904.645 8 -14764904.644 8                 -11505119.717 9       266.000         176.000         520.000                  
G25  19491182.140    19491181.442    19491185.083                   -24848933.880 9 -24848933.880 9                 -19362807.981 9       738.000        1322.000        2002.000                  
G28  23690631.882    23690631.313    23690633.177                    -6525880.319 8  -6525880.322 6                  -5085104.686 8       178.000          37.000         102.000                  
G29  20757068.079    20757067.699    20757068.560                   -21572876.085 9 -21572876.086 9                 -16810031.464 9       703.000        1092.000        1178.000                  
G32  21058301.581    21058301.433    21058304.263                   -21300846.795 9 -21300846.796 9                 -16598063.859 9       703.000        1224.000        1006.000                  
> 2024 10 31 05 37 10.0000000  0  8
G10  23705058.981    23705058.386    23705062.958                    -4819992.401 8  -4819992.392 7                  -3755842.071 8       145.000          59.000         122.000                  
G12  21637951.796    21637951.078    21637951.743                   -16455363.487 8 -16455363.488 8                 -12822362.764 9       334.000         264.000         706.000                  
G23  24459127.557    24459129.934    24459149.032                     -468531.814 8   -468531.808 6                   -365092.046 6       110.000          21.000          24.000                  
G24  22196374.542    22196374.171    22196377.392                   -14832382.877 8 -14832382.878 8                 -11557700.198 9       272.000         186.000         520.000                  
G25  19527328.958    19527327.987    19527331.636                   -24658982.178 9 -24658982.178 9                 -19214793.715 9       713.000        1235.000        1992.000                  
G28  23739465.912    23739465.328    23739466.455                    -6269257.541 8  -6269257.528 6                  -4885139.022 7       172.000          43.000          99.000                  
G29  20706099.332    20706098.758    20706099.670                   -21840719.807 9 -21840719.809 9                 -17018740.857 9       719.000        1149.000        1226.000                  
G32  21090631.664    21090631.633    21090634.505                   -21130950.703 9 -21130950.704 9                 -16465677.358 9       687.000        1191.000         987.000                  
> 2024 10 31 05 37 20.0000000  0  8
G10  23693647.395    23693647.754    23693652.530                    -4879953.632 8  -4879953.627 7                  -3802565.172 8       142.000          55.000         119.000                  
G12  21686070.491    21686069.530    21686070.033                   -16202500.287 8 -16202500.289 8                 -12625326.578 9       336.000         270.000         713.000                  
G23  24407834.436    24407834.825    24407836.678                     -738078.390 8   -738078.378 6                   -575126.431 6       114.000          30.000          41.000                  
G24  22184015.649    22184015.487    22184018.734                   -14897328.372 8 -14897328.373 8                 -11608307.122 9       275.000         192.000         524.000                  
G25  19564428.014    19564427.231    19564430.890                   -24464024.597 9 -24464024.598 9                 -19062878.768 9       686.000        1133.000        2071.000                  
G28  23788621.973    23788621.105    23788623.453                    -6010939.737 8  -6010939.750 6                  -4683852.549 7       170.000          44.000          94.000                  
G29  20656048.824    20656048.291    20656049.243                   -22103736.689 9 -22103736.691 9                 -17223689.080 9       729.000        1179.000        1313.000                  
G32  21123500.095    21123499.781    21123502.548                   -20958228.022 9 -20958228.023 9                 -16331088.319 9       693.000        1215.000         944.000                  
> 2024 10 31 05 37 30.0000000  0  8
G10  23682415.067    23682415.084    23682419.497                    -4938983.954 8  -4938983.961 7                  -3848562.902 8       151.000          57.000         117.000                  
G12  21734787.669    21734787.066    21734787.530                   -15946488.675 8 -15946488.676 8                 -12425837.091 9       338.000         277.000         701.000                  
G23  24356591.209    24356590.999    24356594.289                    -1007364.699 8  -1007364.712 6                   -784959.920 6       116.000          32.000          30.000                  
G24  22172140.758    22172140.472    22172143.937                   -14959731.359 8 -14959731.360 8                 -11656932.877 9       273.000         182.000         534.000                  
G25  19602471.526    19602470.586    19602474.410                   -24264105.301 9 -24264105.303 9                 -18907097.556 9       654.000        1040.000        2184.000                  
G28  23838096.091    23838095.945    23838097.715                    -5750950.213 8  -5750950.217 6                  -4481263.459 7       164.000          49.000          84.000                  
G29  20606931.269    20606930.666    20606931.658                   -22361851.318 9 -22361851.320 9                 -17424817.369 9       719.000        1140.000        1389.000                  
G32  21156902.463    21156902.147    21156904.851                   -20782698.100 9 -20782698.102 9                 -16194311.823 9       698.000        1231.000         939.000                  
> 2024 10 31 05 37 40.0000000  0  8
G10  23671357.504    23671357.641    23671362.271                    -4997091.533 8  -4997091.537 7                  -3893841.625 8       150.000          60.000         115.000                  
G12  21784090.032    21784089.610    21784090.060                   -15687402.102 8 -15687402.102 8                 -12223951.527 9       341.000         272.000         676.000                  
G23  24305398.981    24305398.528    24305401.469                    -1276378.488 8  -1276378.504 6                   -994581.098 6       124.000          28.000          34.000                  
G24  22160747.467    22160747.110    22160750.480                   -15019604.465 8 -15019604.467 8                 -11703587.303 9       276.000         191.000         534.000                  
G25  19641446.052    19641445.358    19641449.270                   -24059291.461 9 -24059291.462 9                 -18747502.418 9       629.000         966.000        2226.000                  
G28  23887880.176    23887879.211    23887881.191                    -5489334.363 8  -5489334.355 6                  -4277407.107 7       166.000          37.000          75.000                  
G29  20558756.373    20558755.843    20558756.926                   -22615011.040 9 -22615011.042 9                 -17622084.697 9       705.000        1102.000        1486.000                  
G32  21190830.799    21190830.569    21190833.441                   -20604402.698 9 -20604402.699 9                 -16055380.408 9       668.000        1132.000         961.000                  
> 2024 10 31 05 37 50.0000000  0  8
G10  23660479.329    23660478.900    23660483.697                    -5054258.732 8  -5054258.726 7                  -3938387.587 8       152.000          61.000         112.000                  
G12  21833968.812    21833968.201    21833968.685                   -15425288.458 8 -15425288.461 8                 -12019707.216 9       344.000         286.000         676.000                  
G23  24254266.886    24254266.388    24254268.400                    -1545081.348 8  -1545081.344 6                  -1203959.948 6       131.000          29.000          37.000                  
G24  22149837.654    22149837.493    22149840.945                   -15076934.888 8 -15076934.890 8                 -11748260.422 9       276.000         188.000         538.000                  
G25  19681344.448    19681343.554    19681347.425                   -23849625.386 9 -23849625.387 9                 -18584126.320 9       622.000         951.000        2183.000                  
G28  23937970.183    23937969.517    23937970.890                    -5226111.804 8  -5226111.796 6                  -4072298.779 7       163.000          36.000          68.000                  
G29  20511539.328    20511538.821    20511540.030                   -22863138.104 9 -22863138.106 9                 -17815430.477 9       692.000        1060.000        1621.000                  
G32  21225282.565    21225282.211    21225285.307                   -20423357.954 9 -20423357.956 9                 -15914306.657 9       631.000        1007.000         975.000                  
> 2024 10 31 05 38  0.0000000  0  8
G10  23649782.925    23649782.675    23649787.123                    -5110467.887 8  -5110467.893 7                  -3982187.034 8       151.000          57.000         119.000                  
G12  21884414.411    21884413.909    21884414.290                   -15160195.804 8 -15160195.806 8                 -11813141.606 9       347.000         283.000         683.000                  
G23  24203200.366    24203200.297    24203202.175                    -1813434.723 8  -1813434.726 6                  -1413066.525 6       135.000          27.000          37.000                  
G24  22139414.394    22139414.300    22139417.758                   -15131710.131 8 -15131710.134 8                 -11790942.496 9       279.000         193.000         557.000                  
G25  19722157.550    19722157.025    19722160.706                   -23635150.260 9 -23635150.261 9                 -18417002.918 9       627.000         942.000        2148.000                  
G28  23988361.587    23988361.758    23988362.956                    -4961302.258 8  -4961302.258 6                  -3865953.861 7       163.000          33.000          67.000                  
G29  20465294.392    20465294.137    20465295.452                   -23106155.498 9 -23106155.500 9                 -18004794.703 9       685.000        1052.000        1778.000                  
G32  21260254.196    21260254.012    21260257.071                   -20239580.349 9 -20239580.351 9                 -15771103.411 9       616.000         952.000         963.000                  
> 2024 10 31 05 38 10.0000000  0  9
G10  23639266.989    23639266.250    23639271.028                    -5165733.266 8  -5165733.272 7                  -4025251.074 8       151.000          59.000         129.000                  
G12  21935411.729    21935411.213    21935411.685                   -14892203.766 8 -14892203.770 8                 -11604316.744 9       346.000         289.000         698.000                  
G15  25075167.040    25075167.078    25075181.157                     -577426.820 7   -577426.837 6                   -449947.028 6        91.000          28.000          19.000                  
G23  24152203.317    24152202.580    24152204.760                    -2081431.693 8  -2081431.687 6                  -1621895.351 6       138.000          37.000          31.000                  
G24  22129473.587    22129473.509    22129476.901                   -15183950.055 8 -15183950.055 8                 -11831649.005 9       277.000         186.000         584.000                  
G25  19763871.733    19763870.893    19763874.686                   -23415942.057 9 -23415942.057 9                 -18246191.405 9       618.000         926.000        2093.000                  
G28  24039045.945    24039044.931    24039047.360                    -4694957.389 8  -4694957.404 6                  -3658412.602 7       158.000          45.000          66.000                  
G29  20420030.927    20420030.321    20420031.528                   -23344019.091 9 -23344019.093 9                 -18190142.984 9       694.000        1060.000        1944.000                  
G32  21295736.867    21295736.527    21295739.665                   -20053118.488 9 -20053118.490 9                 -15625808.540 9       605.000         921.000         949.000                  
> 2024 10 31 05 38 20.0000000  0  9
G10  23628934.542    23628934.135    23628939.152                    -5220028.374 8  -5220028.376 7                  -4067559.068 8       153.000          61.000         131.000                  
G12  21986953.102    21986952.704    21986953.291                   -14621351.859 8 -14621351.858 8                 -11393263.413 9       346.000         298.000         705.000                  
G15  25012887.681    25012885.670    25012887.216                     -904716.642 7   -904716.643 6                   -704976.704 6        92.000          22.000          22.000                  
G23  24101282.186    24101281.154    24101283.311                    -2349024.449 8  -2349024.445 6                  -1830409.213 6       145.000          35.000          37.000                  
G24  22120018.893    22120018.819    22120022.404                   -15233634.118 8 -15233634.120 8                 -11870363.940 9       275.000         183.000         613.000                  
G25  19806479.528    19806478.768    19806482.539                   -23192036.874 9 -23192036.875 9                 -18071719.909 9       622.000         940.000        2010.000                  
G28  24090019.893    24090019.175    24090021.111                    -4427088.130 8  -4427088.119 6                  -3449683.521 7       155.000          43.000          55.000                  
G29  20375763.506    20375763.019    20375764.303                   -23576644.979 9 -23576644.981 9                 -18371409.941 9       692.000        1066.000        2005.000                  
G32  21331728.818    21331728.469    21331731.467                   -19863980.527 9 -19863980.527 9                 -15478428.404 9       587.000         876.000         936.000                  
